timestamp,longitude,latitude,altitude,roll,pitch,yaw,heading,air_speed,engine_0,engine_1,temperature_in,humidity_in,pressure_in,heart_rate,oxygen_mask
1306893631.32,2.011986,6.5731802,-1.0,-1.0,1.6,-1.0,-1.0,85.35873000765979,6535382.124524599,6535382.124524599,26.514587610477406,7.603088198323662,26183.973702199182,92.5,29.651712598981725
1306893632.16,2.0114221,6.572756,23.69,-1.0,4.0,-1.0,-1.0,85.35873000765979,5913005.59798551,5913005.59798551,25.620251037399264,7.327495424979551,26144.40273177257,92.10000000000002,29.640306212280063
1306893632.58,2.0111373,6.5725418,23.73,-1.0,6.0,-1.0,-1.0,80.94564893259495,5247405.787555491,5247405.787555491,25.805462669398363,7.245593995685988,26675.626301343258,93.70000000000002,29.637917760836494
1306893633.01,2.0108356,6.5723149,23.75,-1.0,7.3,-1.0,-1.0,83.64307780811362,4660946.491615031,4660946.491615031,27.261805168644095,7.102221614837668,27567.945447941333,94.10000000000001,29.637198163286183
1306893634.5,2.0097405,6.5714913,23.79,-1.0,9.2,-1.0,-1.0,87.473474325875,4419951.259026266,4419951.259026266,27.515810620490853,7.243951754886172,27696.457279417817,92.30000000000003,29.636922572735003
1306893634.92,2.0094227,6.5712523,23.87,-1.0,9.6,-1.0,-1.0,89.98005171215121,4419951.259026266,4419951.259026266,27.515810620490857,7.243951754886172,27696.457279417813,92.30000000000001,29.636922572735
1306893635.36,2.0090796,6.5709942,24.15,-1.0,10.1,-1.0,-1.0,92.67678691669505,4660946.491615031,4660946.491615031,27.261805168644095,7.102221614837667,27567.94544794133,94.10000000000001,29.637198163286183
1306893635.79,2.008738,6.5707374,24.69,-1.0,10.4,-1.0,-1.0,94.34714108294148,5247405.787555491,5247405.787555491,25.805462669398363,7.2455939956859865,26675.626301343254,93.70000000000002,29.637917760836487
1306893636.66,2.0080283,6.5702041,26.85,-1.0,10.7,-1.0,-1.0,96.76473436643244,5913005.59798551,5913005.59798551,25.620251037399264,7.32749542497955,26144.40273177257,92.10000000000001,29.64030621228006
1306893638.8,2.0061722,6.5688156,38.59,-0.1,10.7,-1.0,-1.0,102.60647870449135,6535382.124524599,6535382.124524599,26.514587610477403,7.603088198323663,26183.973702199182,92.50000000000001,29.65171259898172
1306893640.09,2.0049501,6.5679092,50.22,-0.2,10.7,-1.0,-1.0,111.5361724677021,7099773.705342441,7099773.705342441,26.810416526752178,7.4528972175792285,26033.57794058545,88.9,29.690923010180324
1306893641.37,2.0036221,6.5669334,66.24,-0.4,10.7,-1.0,-1.0,121.53686940107076,7682659.328588276,7682659.328588276,27.12397856720251,7.547972316427557,26173.088199084144,88.70000000000002,29.723496282271313
1306893641.79,2.0031554,6.5665932,72.62,-0.5,10.7,-1.0,-1.0,129.65892004549875,8498396.775188213,8498396.775188213,27.36665856679906,7.795609251799729,26065.139880366773,89.80000000000001,29.760923010180324
1306893642.22,2.002672,6.5662431,79.57,-0.6,10.7,-1.0,-1.0,130.81383309582975,10186296.315805208,10186296.315805208,27.687959663595997,7.674731038911345,25979.839044090037,91.10000000000002,29.803654856199568
1306893642.64,2.0021831,6.5658932,86.89,-0.6,10.6,223.4,-1.0,134.6561553332774,12132258.868852977,12132258.868852977,26.06251633323123,7.346524298930442,26089.227196580632,92.40000000000002,29.851959755587146
1306893643.06,2.0016784,6.5655363,94.69,-0.9,10.5,223.4,-1.0,138.15642701472476,14436230.72019321,14436230.72019321,25.54838353493179,7.239838849599639,26280.840812588103,91.00000000000001,29.90617454123894
1306893643.48,2.0011641,6.5651754,102.84,-1.2,10.4,223.4,-1.0,140.28031224249833,16782934.40252836,16782934.40252836,24.50183981224976,7.445281440413784,26082.60294512265,87.9,29.96641404255127
1306893643.9,2.0006333,6.5648046,111.33,-1.4,10.2,223.3,-1.0,144.4052063702879,18414280.857907984,18414280.857907984,26.57938704728924,7.459557207120066,26559.3320669466,88.0,30.03273950186886
1306893644.33,2.0000829,6.5644219,120.05,-1.7,9.9,223.3,-1.0,145.87741975020705,19610828.95636802,19610828.95636802,25.532800859252337,7.68191731502832,27051.740263443182,87.6,30.10408683345241
1306893644.75,1.999524,6.564035,128.71,-2.1,9.7,223.3,-1.0,151.1656802785491,20478596.089954264,20478596.089954264,24.492147067029123,7.425765261131863,27132.01993036183,86.6,30.17307633476475
1306893645.18,1.9989348,6.5636287,137.54,-2.5,9.5,223.3,-1.0,155.1592644137035,21381807.35992957,21381807.35992957,25.389957928194445,7.362273496962475,26562.94216021439,86.89999999999999,30.239922354012343
1306893645.62,1.9983266,6.5632109,146.28,-2.9,9.3,223.1,-1.0,156.18264184120676,22494521.24920983,22494521.24920983,24.835250922355865,7.262760247557425,26318.06401437927,88.0,30.301195319891605
1306893646.04,1.9977294,6.5628014,154.48,-3.4,9.3,223.1,-1.0,160.27612993243338,23878236.31632158,23878236.31632158,25.414351839950115,7.084859490616576,25525.901599092227,85.39999999999999,30.363861549112954
1306893646.47,1.9971051,6.5623721,162.69,-3.8,9.3,223.1,-1.0,163.7602035899858,25349314.53094964,25349314.53094964,24.789054401362357,7.143092985664003,25472.47899773031,84.6,30.42749234526344
1306893646.89,1.9964722,6.5619353,170.65,-4.2,9.3,222.9,-1.0,170.08538869012062,26954400.750626262,26954400.750626262,24.572118158480816,7.435943847870144,25248.38751936104,85.19999999999999,30.49161308017157
1306893647.31,1.9958419,6.5614982,178.28,-4.4,9.3,222.8,-1.0,169.7054185917551,28770140.388284717,28770140.388284717,24.305846111727607,7.687467447205679,24696.542226341924,85.30000000000001,30.555603675097206
1306893647.73,1.9951918,6.5610453,185.98,-4.6,9.3,222.7,-1.0,175.2844685575913,30311515.236567363,30311515.236567363,25.30758212584425,7.3881712029837034,24879.37256717945,88.4,30.61924978183387
1306893648.15,1.9945347,6.5605851,193.79,-4.6,9.5,222.6,-1.0,177.6384540807431,32457210.621215165,32457210.621215165,23.63395767076369,7.248292211285757,25282.417295101495,87.2,30.682375328640518
1306893648.58,1.9938421,6.5600974,202.22,-5.0,11.0,222.6,-1.0,183.32865295153084,34313809.74106105,34313809.74106105,25.960163404058186,6.927657651054983,25270.15075636609,87.0,30.7452788719476
1306893649.0,1.9931736,6.5596235,211.31,-16.7,13.0,222.1,-1.0,182.0369336873166,36354601.169819914,36354601.169819914,26.78961523049155,6.807935364352533,25125.799405342685,90.0,30.808511592857492
1306893649.44,1.9924673,6.5591096,222.65,-36.4,14.7,220.8,-1.0,186.5425736119177,37957720.87559641,37957720.87559641,25.889952947930617,7.015076739341923,25587.32193551103,90.60000000000001,30.873665792332556
1306893649.86,1.9918126,6.5586073,234.76,-42.1,14.9,219.1,-1.0,186.73075046338266,39569044.910997584,39569044.910997584,25.3359809684424,7.246806768594485,25728.603482815965,92.30000000000001,30.941399825578394
1306893650.29,1.9911527,6.5580702,248.26,-45.2,14.3,217.4,-1.0,190.35735409690872,40754838.14824235,40754838.14824235,25.572725603206287,7.333900857023196,26038.037676331485,94.50000000000001,31.01319116416107
1306893650.71,1.9905382,6.5575442,261.38,-51.1,12.7,216.2,-1.0,187.09030879256105,41944880.5590838,41944880.5590838,25.594909146490576,7.478944143923236,25554.65893712615,94.60000000000001,31.088741251650134
1306893651.15,1.9899048,6.5569804,274.67,-54.2,11.3,215.2,-1.0,188.21967045391895,43160445.416405864,43160445.416405864,27.158615218674807,7.186305136988965,25545.360540566315,93.30000000000001,31.1683716103553
1306893651.58,1.9892935,6.556419,286.79,-55.3,10.1,214.4,-1.0,189.25428807703128,44423603.784978464,44423603.784978464,29.004374573116067,7.226015452049403,25519.30715185086,94.10000000000001,31.251439195657138
1306893652.0,1.9886922,6.5558525,297.81,-56.9,9.2,213.8,-1.0,193.25467184652408,46045418.72803066,46045418.72803066,29.154964540447292,7.330234391070281,25484.85371417021,91.0,31.33704833826431
1306893652.43,1.9880762,6.5552569,308.15,-58.1,8.6,213.1,-1.0,196.27057676001218,47866021.66373441,47866021.66373441,29.660603025306962,7.347619514779339,24883.96536341097,94.0,31.424594270022844
1306893652.85,1.987468,6.5546516,317.45,-58.5,8.0,212.3,-1.0,201.84430659161936,50509864.53482069,50509864.53482069,28.172579839753762,7.534674937003849,24690.54107056405,97.0,31.51280621228006
1306893653.28,1.9868561,6.5540228,325.96,-59.0,7.5,211.4,-1.0,202.4118599619582,54099466.0114225,54099466.0114225,27.462819869824337,7.586232261917417,24147.765795381354,95.60000000000001,31.600574147538154
1306893653.72,1.9862256,6.5533507,333.93,-59.5,6.9,210.4,-1.0,208.75259188073576,58247156.08700398,58247156.08700398,26.260385575012425,7.593810237730762,23608.12157319382,95.90000000000002,31.68576224902547
1306893654.14,1.9856355,6.5526954,340.74,-59.7,6.5,209.3,-1.0,210.4847724722316,63329845.3853377,63329845.3853377,27.048778213528433,7.388020219913121,23048.053320846655,92.50000000000001,31.766893045175948
1306893654.56,1.985051,6.5520171,346.94,-59.8,6.2,208.2,-1.0,215.01939225473723,68981760.08228497,68981760.08228497,25.661278512607517,7.295112307666025,23532.29567931749,92.99999999999999,31.84243547737192
1306893654.99,1.9844717,6.5513117,352.61,-60.0,5.9,207.0,-1.0,215.6187567892926,74468932.17880775,74468932.17880775,24.939909460651183,7.161170223444862,23937.492325844913,92.69999999999999,31.912274716217073
1306893655.41,1.9839081,6.5505884,357.74,-60.0,5.6,205.7,-1.0,223.31624725356338,79793407.33189516,79793407.33189516,25.53734801291627,7.19980305905914,24098.12917496118,91.00000000000001,31.97586723590211
1306893655.84,1.9833644,6.549851,362.37,-60.0,5.3,204.4,-1.0,219.63140186704499,86145294.92801885,86145294.92801885,25.968709955196125,7.10363090687593,24801.770816955333,89.0,32.03372594106396
1306893656.26,1.9828442,6.5491031,366.54,-60.0,5.2,203.0,-1.0,225.3264266525868,91393997.8282461,91393997.8282461,25.39333266851804,7.180584528462152,25114.788324525813,90.7,32.08634077046029
1306893656.68,1.9823491,6.5483451,370.3,-60.0,5.0,201.5,-1.0,225.67286952118417,97182381.90468849,97182381.90468849,24.534262571176317,7.263853056065199,25318.67856952652,87.2,32.13391841700447
1306893656.89,1.9821108,6.5479613,372.04,-60.0,5.0,200.8,-1.0,226.55240098768962,103096947.6633802,103096947.6633802,25.77828111667783,7.153641498307556,25386.191576308483,86.8,32.17570866197385
1306893657.32,1.9816528,6.5471824,375.29,-60.0,5.0,199.3,-1.0,222.77681303791226,107888791.11636804,107888791.11636804,25.286930334455114,7.379161538606491,25453.667467094823,87.6,32.21347222277875
1306893657.74,1.981226,6.5463976,378.21,-60.2,5.0,197.7,-1.0,227.25639502663282,111434779.865507,111434779.865507,26.71305570563721,7.111738582953618,26110.213379929603,89.2,32.247369860574025
1306893658.18,1.9808179,6.5455795,380.94,-60.2,5.0,196.1,-1.0,223.91176783761705,115224494.03441755,115224494.03441755,25.29545825720833,7.383055410441774,26367.281366738087,93.0,32.278144138789244
1306893658.61,1.980458,6.5447863,383.31,-60.2,5.0,194.4,-1.0,220.1250714737725,117222537.94331545,117222537.94331545,25.983989447078933,7.602619162807851,25678.05093470397,92.5,32.30598643975163
1306893659.05,1.9801168,6.543951,385.57,-60.2,5.0,192.7,-1.0,224.45037487778342,116848133.32440546,116848133.32440546,28.126900074700323,7.602002367702899,25836.965903096712,91.7,32.33121828577088
1306893659.48,1.9798205,6.5431347,387.56,-60.2,4.4,191.0,-1.0,222.70881521000973,118416435.4125284,118416435.4125284,25.946147205228396,7.7931000056298165,25702.68835329216,92.80000000000001,32.354046369760376
1306893659.9,1.9795622,6.5423231,389.37,-60.2,4.4,189.3,-1.0,225.06147521222616,118395473.44977075,118395473.44977075,24.829658495946425,7.807755997032751,25391.745202835897,93.10000000000001,32.37471566109896
1306893660.33,1.9793358,6.5414958,391.05,-60.2,4.3,187.5,-1.0,222.74113726910755,119295650.13149616,119295650.13149616,25.153895211291257,7.875636017428012,25143.291509227336,93.7,32.39347878445854
1306893660.75,1.9791515,6.5406922,392.56,-60.2,4.3,185.8,-1.0,220.41149610743952,121185793.89906728,121185793.89906728,27.198785987050677,7.613255774896653,24724.544069812826,96.9,32.41051946687323
1306893661.17,1.9790007,6.5398803,393.97,-60.2,4.3,184.1,-1.0,221.74323933487932,122948661.66729093,122948661.66729093,27.793455839747395,7.6381146409509535,24406.338544248218,96.80000000000001,32.42730752461602
1306893661.6,1.9788828,6.5390452,395.31,-60.2,4.2,182.2,-1.0,221.9988869431213,123288152.81060006,123288152.81060006,28.122938114478423,7.489364121789661,24512.464286266775,95.00000000000001,32.44263342137892
1306893662.03,1.9788063,6.5382076,396.76,-58.6,7.9,179.8,-1.0,222.06305425401135,124098728.80266525,124098728.80266525,27.713738526660364,7.493528663276528,24026.61572993141,93.50000000000001,32.45683399005784
1306893662.5,1.9788104,6.5373012,400.63,-54.1,16.8,174.2,-1.0,219.68297673810704,123832162.41528758,123832162.41528758,28.976367085247034,7.117569627715756,23525.30467091684,90.00000000000001,32.471907262148825
1306893662.94,1.9789428,6.536492,409.77,-51.2,23.3,167.2,-1.0,212.17119558895413,122617332.23051462,122617332.23051462,28.6382932102848,7.027885429685794,23825.488598311294,88.5,32.492163167660635
1306893663.36,1.9791827,6.5357816,424.42,-49.0,28.2,160.7,-1.0,201.81508511869845,119382869.35172549,119382869.35172549,27.660702128990998,7.003547405533375,23563.418964522596,89.0,32.52190398130893
1306893663.79,1.9795186,6.5351239,444.88,-46.9,32.4,154.5,-1.0,192.35144783739014,110280704.73584715,110280704.73584715,30.135189809610488,7.048984029404816,23460.821121374775,90.5,32.565784121291436
1306893664.22,1.9799173,6.5345465,469.91,-45.2,36.7,148.5,-1.0,181.3581189555238,95752016.07422058,95752016.07422058,28.97103818119613,7.1976713339498195,23414.647158300002,90.9,32.62743985182512
1306893664.65,1.9803638,6.5340395,499.13,-45.4,40.6,142.9,-1.0,178.92874961319163,74840678.05760191,74840678.05760191,29.380246803629305,7.119749145561886,23911.009113429107,90.5,32.710178259524156
1306893665.07,1.9808376,6.5336081,531.34,-48.8,44.1,137.2,-1.0,173.39763142767578,50642865.190962136,50642865.190962136,27.56733483941612,7.323264950568796,24097.067296091707,87.9,32.81641841700447
1306893665.49,1.9813255,6.5332509,565.24,-52.0,47.1,131.3,-1.0,163.4219191085911,28442878.81583197,28442878.81583197,25.466927566117644,7.511707137989072,24591.552580196912,87.9,32.94753062172888
1306893665.91,1.9818262,6.5329584,600.47,-55.0,49.7,125.2,-1.0,156.1086452626097,11549197.750985272,11549197.750985272,26.221906010055054,7.715588001907298,24509.910941324917,90.7,33.104586614729755
1306893666.35,1.9823712,6.5327118,639.12,-59.1,51.9,118.6,-1.0,152.915318097389,8385045.828994458,8385045.828994458,27.17540924498739,8.042769342074207,24350.7356351459,91.9,33.29012029801934
1306893666.77,1.9829012,6.5325349,676.81,-63.5,53.6,112.0,-1.0,148.5708871120971,13232337.180783382,13232337.180783382,25.98482956940881,8.164148850964052,25038.517432542158,94.6,33.50154418253378
1306893667.21,1.9834587,6.5324097,716.3,-72.4,54.7,104.7,-1.0,143.74322859031918,16513377.3764608,16513377.3764608,25.16738291394165,8.045146411176127,24868.217741829343,94.10000000000001,33.7362018815714
1306893667.65,1.9840303,6.5323422,755.89,-81.8,54.6,97.2,-1.0,142.19481583861884,18348652.039544273,18348652.039544273,24.9823681547123,8.015642872466671,24345.088340756985,92.3,33.9899518815714
1306893705.11,2.0764818,6.5843154,1486.46,-17.8,1.8,37.9,-1.0,246.98523675768732,18802906.874285027,18802906.874285027,23.8305022029444,7.775046294733622,24781.517387968146,91.5,34.787311899069216
1306893705.32,2.0771436,6.5848717,1487.98,-17.5,1.8,37.8,-1.0,381.42266160599456,21163156.849518772,21163156.849518772,25.740410317266868,7.467745837905282,25021.95046118244,91.0,35.566674322516285
1306893705.54,2.0778147,6.5854378,1489.54,-17.2,1.8,37.6,-1.0,369.70025336315143,48435531.14871822,48435531.14871822,26.12986588050415,7.558518765406524,24909.679213300788,91.5,36.32486220528094
1306893705.75,2.0784857,6.5860058,1491.13,-17.0,1.8,37.5,-1.0,388.4642536428886,93212317.55559903,93212317.55559903,28.01098511049578,7.338600442866482,25000.484435724047,91.5,37.05960958060902
1306893705.97,2.0791566,6.5865759,1492.74,-16.8,1.8,37.4,-1.0,371.1483524328032,132021364.70448524,132021364.70448524,30.13468363071088,7.21114109494139,24172.976312461808,89.80000000000003,37.76963801455478
1306893706.19,2.0798618,6.5871771,1494.45,-16.5,1.8,37.3,-1.0,391.2392760201951,153571028.47529247,153571028.47529247,30.397534353679802,7.13157437564846,24197.248424654805,86.60000000000001,38.45400590606834
1306893706.4,2.0805013,6.5877244,1496.03,-16.3,1.8,37.2,-1.0,372.22576064547707,112611526.54075977,112611526.54075977,30.243344038659007,7.1153492070707625,24888.375083290914,86.6,39.10999562610333
1306893706.63,2.0812188,6.5883404,1497.83,-16.0,1.8,37.1,-1.0,382.18006044623297,59086496.25673012,59086496.25673012,29.714207681212798,7.333052374900546,24509.287385210755,84.6,39.738510499244185
1306893706.84,2.0818987,6.5889262,1499.55,-15.8,1.9,37.0,-1.0,397.77613117473214,127818644.87930241,127818644.87930241,31.437901516325176,7.385605044792825,25167.91483377158,85.5,40.33811133039029
1306893707.05,2.082535,6.5894762,1501.19,-15.6,1.9,36.9,-1.0,372.5139664688433,203576968.5575162,203576968.5575162,30.596294016866167,7.650964199492091,25281.653880109927,86.0,40.90866032426605
1306893707.26,2.0832117,6.590063,1502.96,-15.4,1.9,36.9,-1.0,397.2556218510132,283769810.1616528,283769810.1616528,31.16592424551973,7.617662167403423,24873.706433078216,84.9,40.921291557861856
1306893707.48,2.0838821,6.5906462,1504.73,-15.2,1.9,36.8,-1.0,376.14695449493485,280818723.7846444,280818723.7846444,31.048724547254402,7.93588211225873,24370.861362367134,86.5,40.93411417378487
1306893707.7,2.0845556,6.5912339,1506.53,-15.0,1.9,36.7,-1.0,378.54596072980206,287029405.7330296,287029405.7330296,30.888032872615042,7.66961247683891,23954.380504106557,85.9,40.947120516742004
1306893707.91,2.0852291,6.5918234,1508.36,-14.8,1.9,36.6,-1.0,397.6168392686503,293582708.6692803,293582708.6692803,29.01171879741123,7.985115219128586,23827.28975549384,85.30000000000001,40.96031058673326
1306893708.12,2.0858744,6.59239,1510.14,-14.6,1.9,36.5,-1.0,381.42523119241696,294083886.76607466,294083886.76607466,27.388401902077796,8.106545840707534,24334.25052126084,85.30000000000001,40.973630796707006
1306893708.34,2.0865541,6.5929885,1512.03,-14.4,1.9,36.4,-1.0,384.1958672730847,293828893.30438375,293828893.30438375,27.373466513532076,7.987395659704743,24160.84844466635,88.4,40.98708880195635
1306893708.56,2.0872649,6.5936163,1514.04,-14.2,2.0,36.3,-1.0,402.77842886203246,301845737.11354804,301845737.11354804,25.578436158349596,7.887771011568341,23892.32343654389,89.2,41.000875984808495
1306893708.77,2.087907,6.5941851,1515.87,-14.1,2.0,36.2,-1.0,381.51850298104017,291883997.6630076,291883997.6630076,28.30113990279705,7.601939257444625,23839.5412723272,91.80000000000001,41.014686133539904
1306893708.99,2.0885866,6.5947888,1517.84,-13.9,2.0,36.2,-1.0,386.15433796330404,295298334.58873326,295298334.58873326,28.30143593965627,7.557076432731074,23582.39960349994,91.30000000000001,41.02868766459852
1306893709.21,2.089263,6.5953915,1519.82,-13.7,2.0,36.1,-1.0,385.0044945115996,307601899.96814036,307601899.96814036,28.33064206810971,7.418187967060838,23645.162833457893,93.10000000000001,41.04294947562214
1306893709.42,2.0899363,6.595993,1521.82,-13.6,2.0,36.0,-1.0,402.45903812143956,303734833.78322035,303734833.78322035,27.87898831546856,7.596374336571019,24443.62699784186,93.00000000000001,41.05738735838679
1306893709.63,2.0906002,6.5965878,1523.82,-13.4,2.0,35.9,-1.0,397.39867823532614,309764539.9594058,309764539.9594058,27.164106370828083,7.555066444514903,24542.866409255992,91.50000000000001,41.07200131289247
1306893709.84,2.0912329,6.5971561,1525.75,-13.2,2.0,35.8,-1.0,378.98730917203915,314990713.8396674,314990713.8396674,25.9223355878312,7.828694959598641,25296.091140003402,89.30000000000001,41.08671478620832
1306893710.06,2.0919249,6.5977792,1527.88,-13.1,2.0,35.8,-1.0,396.6223684052058,312606259.52871877,312606259.52871877,27.374442097274155,7.577401089624232,25992.27644288247,90.50000000000001,41.101657918316796
1306893710.27,2.0925856,6.5983759,1529.94,-13.0,2.1,35.7,-1.0,397.43323930771857,312028677.7422122,312028677.7422122,27.622988270251135,7.318937098922845,26098.25063982735,91.60000000000001,41.116815398631765
1306893710.48,2.0932433,6.5989713,1532.01,-12.8,2.1,35.6,-1.0,396.1569190226296,317324942.3260707,317324942.3260707,26.75092614960864,7.453144125183342,26555.239625375307,89.3,41.13211067422231
1306893710.69,2.0939009,6.5995682,1534.11,-12.7,2.1,35.5,-1.0,396.69324998444085,320463754.08092606,320463754.08092606,26.281704709854377,7.486482069000534,26047.51285543265,88.2,41.14747484745066
1306893710.9,2.0945523,6.6001608,1536.22,-12.5,2.1,35.5,-1.0,393.48251053555356,322402752.8074809,322402752.8074809,26.057064396825826,7.751576161387324,26434.074712794292,88.1,41.16305336888548
1306893711.11,2.0952037,6.600755,1538.35,-12.8,2.1,35.4,-1.0,394.19728473170665,323899295.3004619,323899295.3004619,26.66876120749223,7.8852921635657465,26659.47050746392,87.0,41.17875437500972
1306893711.32,2.0958489,6.6013448,1540.48,-13.1,2.1,35.3,-1.0,390.8358391901258,332493395.08126324,332493395.08126324,26.11882068939118,7.682678877032382,27359.64719183016,87.19999999999999,41.19457021053029
1306893711.54,2.096522,6.6019618,1542.72,-13.1,2.1,35.3,-1.0,389.8838922512724,333667542.4981531,333667542.4981531,25.28587665305314,7.720489995961908,26420.239103071595,89.30000000000001,41.21056977308496
1306893711.76,2.0972262,6.6026091,1545.1,-12.6,2.1,35.2,-1.0,408.7941154225873,336728493.7816672,336728493.7816672,26.34496745775845,7.394710237857083,26531.55486328035,88.4,41.226860236777
1306893711.97,2.0978898,6.6032206,1547.37,-12.1,2.2,35.1,-1.0,404.14917330932263,337716348.9930768,337716348.9930768,25.922871776897015,7.190641308411237,26401.663828835408,89.9,41.24341098043404
1306893712.18,2.0985191,6.6038019,1549.54,-11.7,2.2,35.0,-1.0,383.6232940735209,333179894.3070838,333179894.3070838,25.18010250730146,7.243242558127518,26289.308830170063,89.30000000000001,41.25999234526344
1306893712.39,2.0991889,6.6044219,1551.88,-11.6,2.2,35.0,-1.0,409.185447785387,336438995.1813312,336438995.1813312,26.654352872075453,7.267502745601996,26315.759701037197,90.60000000000002,41.276788058299296
1306893712.61,2.0998837,6.6050666,1554.33,-11.6,2.2,34.9,-1.0,405.67535091242047,328209745.4020768,328209745.4020768,26.92468674112994,7.219608564108528,25837.19202470633,91.30000000000001,41.29387467247253
1306893712.82,2.1005379,6.6056751,1556.67,-11.6,2.2,34.8,-1.0,400.62945956787615,330803108.4396822,330803108.4396822,27.500097460835615,7.171614030421046,26106.143658037003,91.60000000000001,41.311145013679884
1306893713.04,2.1011952,6.6062878,1559.04,-11.4,2.2,34.8,-1.0,384.65004732149356,341967200.1840063,341967200.1840063,26.589830256033764,7.195977583394646,25642.447219872105,88.9,41.32861439250753
1306893713.26,2.1018961,6.6069427,1561.6,-11.2,2.2,34.7,-1.0,411.0817366860037,346701062.51728016,346701062.51728016,25.927292490240227,7.344131307494083,24907.023149444427,90.30000000000001,41.34641294893798
1306893713.47,2.1025628,6.6075669,1564.06,-11.0,2.2,34.7,-1.0,410.1854400456409,344338612.5277686,344338612.5277686,28.124270704345204,7.348932022433622,23949.155597413795,87.3,41.36446413004034
1306893713.68,2.1031951,6.6081603,1566.43,-10.8,2.3,34.6,-1.0,389.25625243763295,352483445.08008593,352483445.08008593,28.576094418301974,7.194264995985916,24543.73546725916,84.10000000000001,41.38261482995285
1306893713.89,2.1038649,6.6087901,1568.95,-10.7,2.3,34.5,-1.0,413.2908700331261,356306386.2183988,356306386.2183988,27.921662104950588,7.522457985071295,24609.819569129053,86.8,41.400872703968595
1306893714.11,2.1045565,6.6094418,1571.59,-10.6,2.3,34.5,-1.0,407.76682782499967,344156401.5285397,344156401.5285397,27.780233512770295,7.51569331793046,24370.637750465125,86.60000000000001,41.41941382382861
1306893714.32,2.1052107,6.6100595,1574.11,-10.5,2.3,34.4,-1.0,404.4688364129833,349837746.41677326,349837746.41677326,27.821206619649043,7.344644372583483,24384.02183794525,86.5,41.43822287894672
1306893714.53,2.1058587,6.6106727,1576.63,-10.4,2.3,34.4,-1.0,401.2294985513756,355602138.55551744,355602138.55551744,27.445823301194814,7.498170131407026,24018.023660183862,86.3,41.45716972934042
1306893714.75,2.1065378,6.6113165,1579.31,-10.3,2.3,34.3,-1.0,401.8143107876997,354876628.4336827,354876628.4336827,26.35402282204359,7.4910278326342965,24608.693597843267,87.70000000000002,41.47629265147516
1306893714.97,2.1072075,6.6119529,1581.97,-10.2,2.4,34.2,-1.0,396.754470775115,358539928.6246893,358539928.6246893,27.71534651723256,7.272790905546215,25082.437573434403,88.60000000000002,41.49566054298872
1306893715.18,2.1078742,6.6125875,1584.65,-10.0,2.4,34.2,-1.0,414.5093022022657,376685161.5978841,376685161.5978841,26.56619707206665,7.262283713150866,24976.818190625138,91.30000000000001,41.51526574858802
1306893715.39,2.1085409,6.6132234,1587.36,-10.0,2.4,34.1,-1.0,415.02378745064414,369685520.68794197,369685520.68794197,27.10323921967424,6.941876765374266,25041.314931897912,90.30000000000001,41.53498578358365
1306893715.61,2.1092107,6.6138634,1590.11,-9.9,2.4,34.1,-1.0,398.3254855532125,362279081.89783996,362279081.89783996,25.336280576735273,7.256873966590257,25681.74860449254,92.50000000000001,41.55492782207884
1306893715.82,2.1098711,6.6144958,1592.85,-9.7,2.4,34.0,-1.0,412.1149789476525,369918860.9514919,369918860.9514919,26.23235328467544,7.370746483517644,25456.38373872932,93.9,41.5751531064183
1306893716.03,2.1105316,6.6151293,1595.61,-9.6,2.4,34.0,-1.0,412.58782346068557,359242283.06101173,359242283.06101173,26.804965953988734,7.080026439511262,25293.00873805059,94.2,41.59556211779187
1306893716.24,2.1111702,6.6157431,1598.32,-9.4,2.4,33.9,-1.0,399.3262439375249,359213246.8781204,359213246.8781204,27.65014024778247,7.042134150979727,24849.93858685885,96.10000000000001,41.61602471621706
1306893716.46,2.111868,6.616415,1601.3,-9.3,2.5,33.9,-1.0,417.1380795366712,373686117.7985268,373686117.7985268,28.085739174932673,7.0624567197195836,24126.04379991202,97.50000000000001,41.63683945812433
1306893716.67,2.1125129,6.617037,1604.09,-9.2,2.5,33.8,-1.0,404.2155485895138,373575319.0080802,373575319.0080802,28.334443113450497,7.237551651396419,23984.771810543516,94.40000000000002,41.657860892944974
1306893716.9,2.1132201,6.6177203,1607.18,-9.1,2.5,33.8,-1.0,405.2152761650831,378389876.2744484,378389876.2744484,27.48790991745854,7.327031334559327,23548.86432615308,92.50000000000001,41.67919619478224
1306893717.11,2.1138744,6.6183537,1610.07,-9.0,2.5,33.7,-1.0,411.07547031683833,389520633.5439031,389520633.5439031,28.261115512294506,7.536816829596878,23584.41819582892,90.00000000000001,41.70070756836055
1306893717.33,2.114591,6.6190486,1613.26,-8.9,2.5,33.6,-1.0,430.59062942853456,383519135.8305085,383519135.8305085,29.945605336122835,7.308560800939293,23975.61535274846,86.70000000000002,41.722609361886356
1306893717.54,2.1152265,6.619666,1616.12,-8.8,2.6,33.6,-1.0,400.0992055736464,373570830.49263006,373570830.49263006,28.985046732934972,7.419877398117593,24243.732575410253,86.3,41.74462598480849
1306893717.75,2.1158964,6.6203179,1619.17,-8.7,2.6,33.6,-1.0,422.5131902374069,386552663.98882204,386552663.98882204,29.851590170005053,7.269030618673688,23697.99072828604,85.2,41.76687226652328
1306893717.96,2.1165382,6.6209435,1622.12,-8.6,2.6,33.5,-1.0,405.0341154473391,377508934.79048723,377508934.79048723,28.212516008874392,7.148853946047988,24263.888559030103,86.1,41.78927930939292
1306893718.17,2.1171863,6.6215762,1625.13,-8.6,2.6,33.5,-1.0,409.451473707338,381085488.69947344,381085488.69947344,27.43356547257652,7.165760594369107,24094.620854576493,86.7,41.81187773458977
1306893718.59,2.1185074,6.6228691,1631.34,-8.4,2.6,33.5,-1.0,418.0725128956099,397651421.4525927,397651421.4525927,27.06751176587465,7.151968867285201,24100.804900151918,85.8,41.83715551236755
1306893719.02,2.1198442,6.6241815,1637.75,-8.2,2.6,33.5,-1.0,414.0162115169522,397920761.1656358,397920761.1656358,27.275476741709884,7.411298944202049,24063.93270181325,84.80000000000001,41.865059055674635
1306893719.44,2.1211466,6.6254644,1644.12,-8.1,2.6,33.5,-1.0,413.8834588146185,401779628.38530356,401779628.38530356,27.377338285335462,7.219568706576688,24543.20124156546,87.8,41.89570319390736
1306893719.65,2.1218104,6.6261196,1647.41,-8.0,2.6,33.5,-1.0,422.51619605905165,407027860.4537866,407027860.4537866,27.996424065784062,7.018163673929414,24295.04352098761,88.3,41.926500438001845
1306893719.88,2.1225084,6.6268098,1650.91,-8.0,2.6,33.1,-1.0,405.9693287083063,400487225.0075917,400487225.0075917,25.715821165110228,6.826074935372291,24452.5531493616,90.10000000000001,41.957764654974724
1306893720.09,2.1231753,6.6274702,1654.28,-7.9,2.8,33.1,-1.0,425.4510667140274,397716145.56451386,397716145.56451386,24.65559899173547,7.034579363752112,24699.483792838844,93.4,41.989166667223195
1306893720.3,2.1238421,6.6281317,1657.68,-7.8,2.8,33.0,-1.0,425.85465365666977,400293338.00584275,400293338.00584275,23.686338164654973,7.250325413700938,25174.411805662206,93.9,42.02098206529843
1306893720.51,2.1244809,6.6287662,1660.97,-7.8,2.8,33.0,-1.0,408.1613177251964,392466179.9771764,392466179.9771764,25.11676298370345,7.385973192563515,25387.782348744517,94.4,42.05298119040779
1306893720.74,2.1251915,6.629473,1664.66,-7.7,2.8,32.9,-1.0,414.9625723353284,404359341.9415745,404359341.9415745,25.70332356488662,7.696889202580445,25362.646056523754,91.89999999999998,42.085546807205695
1306893720.95,2.1258708,6.6301499,1668.22,-7.6,2.8,32.9,-1.0,435.34174995279267,406703171.2493734,406703171.2493734,26.098194440564807,7.957280611822259,26019.689913235678,88.19999999999999,42.118533465123456
1306893721.16,2.1265159,6.6307936,1671.64,-7.6,2.9,32.9,-1.0,413.367396431699,401379302.08351016,401379302.08351016,26.649556731491014,8.080409847307422,26014.287466158537,87.79999999999998,42.14938429626955
1306893721.37,2.1271703,6.6314475,1675.13,-7.5,2.9,32.8,-1.0,419.98289602862513,416143128.6216407,416143128.6216407,26.06094323482236,7.996685744414056,25948.44657608079,89.5,42.17799978183386
1306893721.58,2.1278341,6.6321117,1678.71,-7.4,2.9,32.8,-1.0,426.3919245305843,418139787.83135,418139787.83135,23.719539078910568,8.102001620579001,25576.432998247055,87.20000000000002,42.20447944062652
1306893721.79,2.1284667,6.6327456,1682.15,-7.4,2.9,32.7,-1.0,406.48827226266985,409715110.38541275,409715110.38541275,24.258893467658947,8.126890006587837,25525.857403072107,87.00000000000001,42.23107392881549
1306893722.01,2.129143,6.6334242,1685.86,-7.3,2.9,32.7,-1.0,415.2588019144923,428770356.5671447,428770356.5671447,26.115984254135743,8.438741638467915,24654.012702374926,85.8,42.25782917815933
1306893722.22,2.1298223,6.6341069,1689.62,-7.3,2.9,32.7,-1.0,437.8168488154293,430979866.3054641,430979866.3054641,25.35441229518939,8.144214813912262,24818.60396471964,84.4,42.284882983933606
1306893722.44,2.1304986,6.6347874,1693.4,-7.2,3.0,32.6,-1.0,416.0719923968881,416738302.4494001,416738302.4494001,27.42318403686455,7.8824618171264,24460.262250705462,86.4,42.31222769084524
1306893722.66,2.1311717,6.6354658,1697.19,-7.1,3.0,32.6,-1.0,414.49033692855323,426858548.3534935,426858548.3534935,26.275086986929352,7.79823335724233,24651.178706848703,86.9,42.33995516241129
1306893722.87,2.1318417,6.6361419,1701.0,-7.1,3.0,32.5,-1.0,432.90281907247874,426907031.3148092,426907031.3148092,25.367674803141398,7.641936393384392,24412.22973421986,88.30000000000001,42.36777449749441
1306893723.08,2.1325086,6.6368159,1704.82,-7.0,3.0,32.5,-1.0,431.3233233962409,406389228.13270366,406389228.13270366,23.010426501943872,7.406907024943623,23531.6161279046,90.80000000000001,42.39579287019782
1306893723.3,2.1331723,6.6374876,1708.66,-7.0,3.0,32.5,-1.0,409.82428854689385,414498738.65230644,414498738.65230644,22.986308383667797,7.280211611407399,23857.065857959424,89.90000000000002,42.42413276521094
1306893723.51,2.1338298,6.6381538,1712.5,-7.0,3.0,32.4,-1.0,425.91315952010314,427731849.897938,427731849.897938,23.791965319139315,7.297525470662101,24093.942254278696,87.10000000000001,42.45274059548216
1306893723.72,2.1344842,6.6388178,1716.35,-6.9,3.1,32.4,-1.0,424.22881166156907,419821717.74427766,419821717.74427766,25.86536080571713,7.393854912189938,24396.26328428501,86.19999999999999,42.48155511866676
1306893724.14,2.1357961,6.6401515,1724.17,-6.8,3.1,32.3,-1.0,425.7940845990374,430313741.52640754,430313741.52640754,26.383190136178502,7.505021966015004,25231.398231796316,85.5,42.51372266022406
1306893724.35,2.1364504,6.640818,1728.12,-6.8,3.1,32.3,-1.0,425.3351160309291,441641741.2438805,441641741.2438805,26.826435856581902,7.331524990630481,25711.30276146121,84.3,42.54607392881549
1306893724.56,2.1371016,6.6414822,1732.09,-6.7,3.1,32.2,-1.0,423.6930552245266,432017892.54659814,432017892.54659814,28.337408683188396,7.521955521576146,25366.25459232783,84.9,42.578585958561774
1306893724.77,2.1377528,6.6421472,1736.08,-6.7,3.2,32.2,-1.0,423.9414945697893,433116331.1532773,433116331.1532773,25.51044993262577,7.475113036291447,24918.057543024872,83.4,42.61125874946291
1306893724.98,2.1383977,6.6428067,1740.07,-6.6,3.2,32.2,-1.0,420.28929164033445,441043967.64185584,441043967.64185584,26.341003290072763,7.486849732455588,24740.705100257797,82.39999999999999,42.64408464622582
1306893725.19,2.1390769,6.6435021,1744.31,-6.6,3.2,32.1,-1.0,443.23071789191346,440639888.3681942,440639888.3681942,26.529204319665713,7.368471178710493,24974.09712785828,83.19999999999999,42.67723972059152
1306893725.4,2.1397125,6.6441536,1748.31,-6.5,3.2,32.1,-1.0,414.75693946827056,431891211.4176882,431891211.4176882,27.263692640626203,7.509823902021114,25213.074227145793,82.0,42.710532590232816
1306893725.62,2.1404103,6.6448699,1752.74,-6.5,3.2,32.1,-1.0,435.28297893225,444585919.54306126,444585919.54306126,27.87613179376202,7.53695200195029,25613.453935146335,84.20000000000002,42.744277122166324
1306893725.83,2.1410676,6.6455454,1756.94,-6.4,3.3,32.0,-1.0,429.9429132597402,438610641.344514,438610641.344514,27.769665150533005,7.330184404869571,26104.465795287797,84.10000000000001,42.778297244651014
1306893726.26,2.1423852,6.6469022,1765.48,-6.3,3.3,32.0,-1.0,421.2400241957785,436317910.8716622,436317910.8716622,26.565433322063,7.17887948037623,26312.728297502403,85.7,42.81590769959415
1306893726.47,2.1430518,6.6475898,1769.85,-6.3,3.3,31.9,-1.0,437.1718119819059,444456927.4891154,444456927.4891154,26.648961144906238,7.267583889442033,26089.5371368216,84.80000000000001,42.850877078421796
1306893726.68,2.1437152,6.6482749,1774.24,-6.2,3.3,31.9,-1.0,435.4516058577489,442156797.129031,442156797.129031,26.134541257038173,7.321150803080415,25862.15698820662,87.0,42.886183290145325
1306893726.91,2.1444097,6.6489932,1778.87,-6.2,3.4,31.9,-1.0,416.2864860634858,438910119.4935295,438910119.4935295,25.538198297155002,7.409588595783295,26219.984988260378,85.3,42.921994751212694
1306893727.12,2.1450669,6.6496735,1783.29,-6.1,3.4,31.8,-1.0,431.96392911330776,449170677.12182724,449170677.12182724,26.43655296679382,7.673488446027969,27005.04959975912,84.79999999999998,42.95813538988286
1306893727.54,2.1463748,6.6510301,1792.19,-6.1,3.4,31.8,-1.0,430.3618512008429,447380977.6186586,447380977.6186586,25.185177627526336,7.5624135815396105,26759.571495142605,87.10000000000001,42.99803477745942
1306893727.75,2.1470287,6.6517095,1796.69,-6.0,3.4,31.7,-1.0,430.86755877164217,442052826.71151453,442052826.71151453,25.19307498947162,7.8460807643628945,26709.931974839983,85.30000000000001,43.03813320265627
1306893727.97,2.1477136,6.6524221,1801.45,-6.0,3.5,31.7,-1.0,431.21926065561735,455608986.4355121,455608986.4355121,27.34778994467072,7.803659440094419,26407.0453287431,87.2,43.07881343012784
1306893728.18,2.1483675,6.653103,1806.02,-5.9,3.5,31.7,-1.0,431.54499459059565,449647071.47815984,449647071.47815984,25.064645372712498,8.008156990369711,25880.07692654292,87.4,43.119600831702634
1306893728.62,2.1497341,6.6545289,1815.7,-5.8,3.5,31.6,-1.0,430.9621637966657,447958402.72532195,447958402.72532195,24.313663907600418,8.165812716972477,26044.40768614147,87.4,43.16458333388986
1306893728.83,2.1504189,6.6552447,1820.61,-5.8,3.5,31.6,-1.0,453.4630924883095,455550701.5080802,455550701.5080802,25.02209479216878,8.039275257057218,25858.160090841244,86.29999999999998,43.20678696468601
1306893729.04,2.1510694,6.6559254,1825.31,-5.8,3.6,31.6,-1.0,430.7121662875957,445499395.555171,445499395.555171,25.372024293827188,7.9967610319693065,26075.033097019492,87.3,43.24924322015408
1306893729.25,2.151723,6.6566101,1830.07,-5.7,3.6,31.5,-1.0,433.0971668333889,450451188.66502506,450451188.66502506,24.693285099704863,8.032647204246372,26531.241494385235,85.50000000000001,43.29198272146641
1306893729.46,2.1523609,6.6572791,1834.76,-5.7,3.6,31.5,-1.0,422.932928742567,461816726.63507456,461816726.63507456,24.57997374142489,7.972246331988772,25909.074900365926,86.2,43.33476815453728
1306893729.67,2.15303,6.6579815,1839.7,-5.6,3.6,31.5,-1.0,444.1847316435984,468757716.5767231,468757716.5767231,26.04215111133035,7.92952251097125,25337.144741955864,88.39999999999999,43.377951662848744
1306893729.88,2.1536834,6.6586683,1844.58,-5.6,3.6,31.4,-1.0,433.9982777579561,475229208.43378425,475229208.43378425,24.756040969020926,7.931362572879413,25972.758711626684,87.70000000000002,43.41805774333868
1306893730.09,2.1543337,6.6593525,1849.46,-5.6,3.7,31.4,-1.0,432.219966435348,484385673.6409558,484385673.6409558,25.719767347184053,7.83686741968068,26016.779241033237,91.10000000000001,43.458454724965975
1306893730.3,2.1549808,6.6600341,1854.36,-5.5,3.7,31.4,-1.0,430.3865848765221,482833685.2923085,482833685.2923085,23.101775750017826,7.809481695850483,26186.926944321294,91.50000000000001,43.498958880696506
1306893730.72,2.156281,6.661406,1864.31,-5.5,3.7,31.3,-1.0,432.92151179946467,478747075.5787273,478747075.5787273,24.32715089408803,7.588184663628147,26171.283313204603,90.40000000000002,43.54358158410858
1306893730.93,2.1569342,6.6620962,1869.37,-5.4,3.8,31.3,-1.0,435.49359759277564,480238355.82326865,480238355.82326865,24.470703112650924,7.641837423254843,25854.640593787546,91.3,43.58466754211383
1306893731.35,2.1582558,6.663495,1879.73,-5.9,3.8,31.2,-1.0,441.1303574881212,475353375.5793275,475353375.5793275,23.872947061532575,7.722215759795799,25790.75961406307,92.9,43.629925634852235
1306893731.56,2.1588839,6.6641609,1884.7,-7.7,3.8,31.2,-1.0,419.4668640859642,475763079.84754634,475763079.84754634,23.438422896252618,7.555895087715779,24998.249203635874,95.0,43.67539042050403
1306893731.77,2.1595428,6.6648604,1889.96,-9.9,3.8,31.2,-1.0,440.8452164943859,483137063.08537745,483137063.08537745,23.230630128066664,7.6544047011080005,24301.31710829517,97.4,43.72123797081024
1306893731.98,2.1602011,6.6655608,1895.26,-12.6,3.9,31.1,-1.0,441.0324985739489,483537302.18320614,483537302.18320614,24.072986788675323,7.587828927303778,24640.231510391182,97.6,43.76755249399485
1306893732.19,2.1608619,6.6662654,1900.62,-15.3,3.9,31.0,-1.0,443.43469257677367,476436405.83740574,476436405.83740574,23.65223709659068,7.331120809373849,24796.657052480892,95.20000000000002,43.81418853948916
1306893732.4,2.1615155,6.6669645,1905.96,-18.3,3.9,30.9,-1.0,439.5299586560998,476977531.9800284,476977531.9800284,24.1298746609639,7.454773224342842,24712.02586687253,92.6,43.86117672846554
1306893732.61,2.16214,6.6676348,1911.1,-21.2,3.9,30.8,-1.0,420.6325534281106,472267877.43002313,472267877.43002313,24.593190523114128,7.486405686580604,24247.40616085037,92.40000000000002,43.90836395506222
1306893732.82,2.1627878,6.6683329,1916.48,-24.3,4.0,30.7,-1.0,437.7686457020495,477985012.10584086,477985012.10584086,25.267840680354254,7.342533412478573,24679.70559103313,91.80000000000001,43.95591863572714
1306893733.03,2.1634368,6.6690356,1921.91,-27.1,4.0,30.6,-1.0,440.164066837696,483723270.544325,483723270.544325,24.79944898042946,7.492464723284728,25106.034722932203,91.9,44.000013123916105
1306893733.24,2.1640837,6.6697399,1927.37,-30.3,4.0,30.4,-1.0,440.3230424611328,486717349.03295773,486717349.03295773,26.34449605870809,7.447062474783899,24942.215449311705,93.2,44.04441382382862
1306893733.45,2.1647311,6.6704492,1932.88,-33.1,4.0,30.3,-1.0,442.6523460834133,486958321.5282614,486958321.5282614,25.232179306757992,7.330833234161556,25248.285321746072,92.30000000000001,44.08510170659327
1306893733.66,2.1653574,6.6711401,1938.25,-36.2,4.1,30.1,-1.0,430.0203441631935,485516707.0861227,485516707.0861227,23.793664683719257,7.276970556056106,25610.107287691637,92.1,44.12609580108146
1306893733.87,2.1660169,6.6718731,1943.96,-39.1,4.1,29.8,-1.0,455.7492580928739,480533697.6486194,480533697.6486194,25.117170832029608,7.125572518357332,26358.45473498463,89.0,44.16743438375863
1306893734.08,2.1666395,6.6725713,1949.4,-42.2,4.1,29.6,-1.0,432.4761441796733,474648488.0918422,474648488.0918422,23.62017714574683,6.963029423753249,26199.30695738505,89.7,44.20888014053903
1306893734.29,2.1672582,6.6732715,1954.86,-44.9,4.2,29.3,-1.0,432.63335313295755,481756114.31390935,481756114.31390935,23.165108065441586,6.979194251883113,26238.97157437583,91.4,44.25040245025032
1306893734.51,2.1679287,6.6740387,1960.83,-47.7,4.2,29.0,-1.0,451.23396711629374,490890697.42946506,490890697.42946506,24.768290958938803,6.983709637112163,26466.47430953024,94.9,44.29240704342617
1306893734.72,2.1685348,6.6747404,1966.28,-49.9,4.2,28.7,-1.0,430.7536916221656,494146537.30707264,494146537.30707264,24.681902309698692,7.044754639277187,26989.207423259497,93.19999999999999,44.334648950687765
1306893734.93,2.169159,6.6754721,1971.96,-51.4,4.3,28.4,-1.0,447.7929525002972,504980928.85203296,504980928.85203296,25.253762203188057,7.116471237031184,27182.81672494115,93.10000000000001,44.377120516742
1306893735.14,2.1697626,6.6761895,1977.53,-52.7,4.4,28.0,-1.0,437.2057996438127,506390762.6236115,506390762.6236115,25.950874154430505,7.064355877805888,26596.76361809072,92.1,44.419699256899484
1306893735.35,2.1703514,6.676899,1983.02,-53.7,4.4,27.6,-1.0,430.70608229645836,503027788.7774686,503027788.7774686,23.294591368147707,7.226240499238489,26892.875629888913,91.9,44.462300962936226
1306893735.56,2.1709419,6.6776212,1988.62,-54.7,4.4,27.2,-1.0,436.7934926466987,511416902.07082856,511416902.07082856,25.75185456157945,7.313343346314856,26969.098048833832,92.3,44.50497156661076
1306893735.78,2.1715723,6.6784046,1994.69,-55.6,4.4,26.8,-1.0,450.63921932176993,519843209.4007075,519843209.4007075,27.508485267304422,7.400199935077662,27005.55707288166,90.60000000000001,44.548178040801496
1306893735.99,2.1721307,6.6791102,2000.15,-56.4,4.5,26.4,-1.0,422.9476570781744,508175716.2829036,508175716.2829036,25.54204933764421,7.4880714448288215,26250.980324986667,94.20000000000002,44.59119313266501
1306893736.21,2.1727299,6.6798803,2006.12,-57.0,4.5,25.9,-1.0,439.138299379433,525446579.2104289,525446579.2104289,26.879374909412896,7.552809539905258,25930.797674166257,92.0,44.634613955062214
1306893736.44,2.1733406,6.6806803,2012.32,-57.5,4.5,25.4,-1.0,466.19789904835994,524033784.31691676,524033784.31691676,27.975466012105805,7.847577207847554,26254.829865735162,90.9,44.678601269147954
1306893736.66,2.17392,6.6814541,2018.32,-57.9,4.6,24.9,-1.0,469.2457630208393,525942711.22229856,525942711.22229856,28.12472975841557,7.803162385753512,25497.681168736413,88.30000000000001,44.72261154911296
1306893736.87,2.1744738,6.6822083,2024.17,-58.3,4.6,24.5,-1.0,476.7543863499099,554524402.6659607,554524402.6659607,26.751500551602057,7.484802177320249,24662.712615683176,87.00000000000001,44.7669280408015
1306893737.08,2.1749901,6.6829251,2029.74,-58.6,4.6,24.0,-1.0,452.64156181046275,571574753.1946384,571574753.1946384,25.876950237227028,7.680952160833522,24232.501494038337,84.30000000000001,44.81116032426607
1306893737.3,2.175549,6.6837169,2035.91,-58.9,4.7,23.5,-1.0,474.1908265176204,610942808.6346959,610942808.6346959,26.356861628246172,7.634933213133445,24935.87705646821,85.5,44.85585192531594
1306893737.51,2.1760484,6.6844393,2041.54,-59.1,4.7,23.0,-1.0,452.5772807812733,647179846.1355128,647179846.1355128,27.992179452345326,7.669273024068372,25118.282425102352,84.9,44.900650700469036
1306893737.72,2.1765477,6.6851767,2047.29,-59.2,4.7,22.5,-1.0,459.77003108683533,682298623.0348905,682298623.0348905,26.85999313234972,7.757958189622239,24850.515643004746,84.9,44.94556430501847
1306893737.93,2.1770556,6.6859432,2053.29,-59.4,4.8,22.0,-1.0,475.1209614630031,702227059.9692969,702227059.9692969,25.422145581408845,7.625067776095137,24421.198645609467,87.20000000000002,44.99042432251628
1306893738.14,2.1775275,6.6866714,2058.99,-59.5,4.8,21.5,-1.0,451.0693072834205,709708518.140937,709708518.140937,27.303803464170123,7.591542053983136,25159.585218578148,85.1,45.035468067048214
1306893738.35,2.1779917,6.6874037,2064.74,-59.6,4.8,21.0,-1.0,451.9271073468286,713002215.8177565,713002215.8177565,27.626289393894517,7.533623009254794,25887.500049003425,86.89999999999999,45.0803433951322
1306893738.57,2.1784827,6.6881967,2070.98,-59.7,4.9,20.5,-1.0,464.5007739348163,716372274.0122942,716372274.0122942,27.54213985345562,7.243215062938757,25670.952698384954,86.3,45.12524934438855
1306893738.78,2.1789236,6.6889263,2076.74,-59.8,4.9,19.9,-1.0,447.1365893690243,704712749.0817513,704712749.0817513,27.029164402937806,7.005462192655658,26357.380139098746,85.60000000000001,45.16997156661077
1306893739.0,2.1793875,6.6897129,2082.96,-59.9,4.9,19.4,-1.0,457.85143969204194,712692318.3452386,712692318.3452386,29.324378985660825,7.331575329387036,27185.414686951306,86.9,45.21497703467726
1306893739.22,2.1798355,6.6904927,2089.14,-59.9,5.0,18.8,-1.0,452.445868322813,720340341.5597311,720340341.5597311,30.028179409748084,7.1502628738843255,27400.68913429722,90.20000000000002,45.26044947562214
1306893739.44,2.1802738,6.6912761,2095.38,-60.0,5.0,18.3,-1.0,452.9408803832277,707110251.7046533,707110251.7046533,29.465600890159937,7.3706461196893445,26724.975993111562,91.0,45.30597550361865
1306893739.65,2.1806736,6.6920099,2101.23,-60.0,5.0,17.8,-1.0,443.4416408987614,714314223.3153331,714314223.3153331,30.361600042424218,7.085054689281479,26400.047472151757,93.1,45.35166994806309
1306893739.86,2.1810796,6.6927755,2107.36,-60.0,5.1,17.2,-1.0,460.20228376124203,717722957.0215423,717722957.0215423,28.789786741574698,7.00668633527051,26018.569766333527,92.5,45.39765529364489
1306893740.08,2.1814761,6.6935446,2113.54,-60.1,5.1,16.6,-1.0,440.85324401163314,700732015.9468632,700732015.9468632,28.18707041571017,7.002201136555479,26223.112356779096,90.0,45.44377843450228
1306893740.29,2.1818472,6.6942851,2119.51,-60.1,5.1,16.1,-1.0,443.179367964274,711876573.4803351,711876573.4803351,28.140927258539236,6.901308142829492,26120.65883485797,90.2,45.490108268273055
1306893740.5,2.1822143,6.6950395,2125.61,-60.1,5.2,15.5,-1.0,449.6420195219342,715090147.8361341,715090147.8361341,27.808086731009105,6.863963479650966,25643.71679742099,89.4,45.53670603730194
1306893740.71,2.1825704,6.6957935,2131.73,-60.1,5.2,15.0,-1.0,448.22711660960437,703137898.2766625,703137898.2766625,25.78456881867396,6.802485052473092,24974.80437426111,89.1,45.58321194281375
1306893740.92,2.1829089,6.696533,2137.75,-60.2,5.2,14.5,-1.0,438.7649816419363,707315902.3195306,707315902.3195306,25.199258299219718,7.148038448108676,25071.076957488884,91.0,45.62991688594585
1306893741.13,2.1832323,6.6972614,2143.7,-60.2,5.3,13.9,-1.0,431.4441457407153,708959774.2158493,708959774.2158493,24.56954203998685,6.778021126958967,24989.475152093866,89.30000000000001,45.67641513616457
1306893741.34,2.1835557,6.6980139,2149.87,-60.2,5.3,13.3,-1.0,443.76650952612476,707925657.4391264,707925657.4391264,24.713794111307436,7.055391856296843,24665.879961341067,85.9,45.72290573109021
1306893741.56,2.1838709,6.6987729,2156.12,-60.2,5.3,12.8,-1.0,427.0662613150064,704773228.4884785,704773228.4884785,25.46576866013196,6.675794235828124,25001.3374568186,83.70000000000002,45.76940398130893
1306893741.78,2.184186,6.6995594,2162.62,-60.2,5.4,12.2,-1.0,440.45881562035,716182974.5510697,716182974.5510697,24.08407122477991,6.681311301653419,25393.28994803586,82.80000000000001,45.8163998255784
1306893741.99,2.1844677,6.7002887,2168.67,-60.2,5.4,11.7,-1.0,427.5961887333481,701994504.3690714,701994504.3690714,24.791749338814178,6.752680352589189,26046.025725317377,83.80000000000001,45.863334427503155
1306893742.2,2.1847479,6.7010418,2174.94,-59.9,5.4,11.1,-1.0,439.7019866867407,697277533.9041518,697277533.9041518,25.812309607270816,6.948162924926783,25987.79965933611,83.60000000000001,45.91033792706571
1306893742.41,2.1850172,6.7017941,2181.23,-58.9,5.4,10.5,-1.0,438.16752142103826,687563248.3826829,687563248.3826829,24.305305609730524,7.144647152584387,25513.150990904818,82.4,45.957586396007095
1306893742.62,2.1852638,6.7025102,2187.26,-57.4,5.4,10.0,-1.0,417.55761803899,675900756.4730403,675900756.4730403,23.497492266535318,7.237697060045905,25417.902435593136,81.2,46.00478127789685
1306893742.83,2.1855079,6.7032463,2193.49,-55.4,5.4,9.5,-1.0,427.68991744461727,677023592.8347979,677023592.8347979,25.444670167632204,7.4751825438790505,25542.33865707915,81.60000000000001,46.0520603680106
1306893743.05,2.1857579,6.7040302,2200.19,-53.0,5.4,9.0,-1.0,433.5568592632693,677238558.0330747,677238558.0330747,24.449771243371508,7.27370347909871,24786.35847193014,82.10000000000001,46.09986001805434
1306893743.26,2.1859769,6.7047429,2206.33,-50.5,5.4,8.5,-1.0,413.4319011883077,677563929.989378,677563929.989378,23.860499924923495,7.525639753399138,23929.589666846852,83.10000000000001,46.14780511866677
1306893743.47,2.1861944,6.7054751,2212.7,-48.3,5.4,8.1,-1.0,423.55985679094897,685644109.9383466,685644109.9383466,23.2501369340004,7.267303625517172,23671.021993411814,84.2,46.195903325140954
1306893743.69,2.1864174,6.7062511,2219.52,-45.8,5.4,7.8,-1.0,427.6670411146377,680970648.5949671,680970648.5949671,22.87848142021103,7.272953553786214,23876.853285731948,83.0,46.24443788332118
1306893743.91,2.1866307,6.7070185,2226.33,-43.3,5.4,7.4,-1.0,422.6505458457283,662400206.1394155,662400206.1394155,21.540383144421597,7.517742363886706,22957.46666694321,81.80000000000001,46.29320975558715
1306893744.13,2.1868364,6.7077806,2233.16,-40.7,5.4,7.1,-1.0,419.56145477404544,664475466.6188177,664475466.6188177,21.16090180767685,7.565173808187551,22018.17778603517,82.80000000000001,46.342578740714
1306893744.35,2.1870331,6.7085306,2239.93,-38.2,5.5,6.8,-1.0,412.9198684359776,652685458.4049072,652685458.4049072,20.065202023567412,7.698164656786033,21872.664330395135,82.30000000000001,46.39233049049529
1306893744.57,2.1872252,6.7092823,2246.78,-35.7,5.5,6.5,-1.0,413.4625413359506,642614509.2793473,642614509.2793473,20.913336547025498,7.569948761968279,21926.227555447404,82.0,46.442510936689516
1306893744.78,2.1874098,6.7100219,2253.57,-33.4,5.5,6.3,-1.0,425.13222104948346,651401571.4826789,651401571.4826789,20.687943288436,7.7656088987409335,22110.987918933628,84.9,46.49327318515845
1306893745.0,2.1875906,6.7107631,2260.43,-31.3,5.5,6.0,-1.0,407.60291306577346,644504940.3490105,644504940.3490105,18.89234926090753,7.656713365670562,22045.034687894535,85.4,46.544517717091956
1306893745.21,2.1877681,6.711506,2267.35,-29.4,5.5,5.8,-1.0,426.44099928145584,639219059.6079873,639219059.6079873,18.921225665921973,7.701114646831641,22237.42372359831,85.0,46.59593066547341
1306893745.42,2.1879298,6.7121959,2273.81,-27.4,5.5,5.6,-1.0,397.68405042910587,629300617.3255776,629300617.3255776,18.704601268513525,7.62646242758567,22265.108392143644,86.5,46.647588583233684
1306893745.63,2.1880962,6.7129182,2280.62,-25.7,5.6,5.5,-1.0,414.9829510208558,626282147.2282997,626282147.2282997,19.14238730680374,7.839023426980264,23011.062224149257,85.3,46.69958333388986
1306893745.84,2.1882587,6.7136354,2287.42,-24.0,5.6,5.3,-1.0,412.06084986175,617826882.6165286,617826882.6165286,19.314134984488042,7.986753343949763,22593.4189781893,87.8,46.75156277395985
1306893746.06,2.1884258,6.7143847,2294.56,-22.3,5.6,5.2,-1.0,410.9107262968249,611867591.6815264,611867591.6815264,19.65929820118682,7.881852815956361,22566.76676259866,88.19999999999999,46.80379483870175
1306893746.28,2.1885892,6.7151288,2301.68,-20.8,5.6,5.0,-1.0,408.0407120847635,609782525.0476993,609782525.0476993,20.8167769580918,7.879719354131916,22888.340548953605,87.5,46.85624890694322
1306893746.5,2.18875,6.715871,2308.82,-19.4,5.6,4.9,-1.0,406.9800786862535,607225453.183306,607225453.183306,21.278371913821942,7.564779851498424,23525.747176623237,89.80000000000001,46.90898622102896
1306893746.72,2.1889076,6.716608,2315.93,-18.0,5.6,4.8,-1.0,404.21669572749687,599401700.6761718,599401700.6761718,19.787204182319748,7.493410263159603,23328.9081130935,91.7,46.961922572735006
1306893746.94,2.1890629,6.7173432,2323.06,-16.8,5.7,4.7,-1.0,403.21589831194837,595625381.683593,595625381.683593,20.98931199569184,7.289901074052821,22799.356664129427,89.1,47.01511920440605
1306893747.16,2.1892169,6.7180799,2330.23,-15.6,5.7,4.6,-1.0,403.85613476069227,598481898.34702,598481898.34702,22.55439824690097,7.401516044789933,23650.660353214083,88.19999999999999,47.06855315016283
1306893747.38,2.1893695,6.7188181,2337.44,-14.5,5.7,4.5,-1.0,404.5877353293896,587411414.646093,587411414.646093,25.159898632327373,7.4004163804963286,24296.669589263238,88.0,47.122209099419166
1306893747.6,2.189521,6.7195579,2344.69,-13.5,5.7,4.4,-1.0,405.3359714069997,589725156.7516857,589725156.7516857,24.795110956429387,7.225328171306268,24444.139284337736,88.69999999999999,47.17646981682949
1306893748.04,2.1898175,6.7210253,2359.13,-11.7,5.7,4.2,-1.0,402.1041487908195,578983460.3268529,578983460.3268529,25.90233493366683,7.0239778504436625,24333.567139444727,90.9,47.23657152286623
1306893748.46,2.1900925,6.7224066,2372.8,-10.3,5.7,4.1,-1.0,396.7778744727303,570246836.0920368,570246836.0920368,26.057611114406107,6.967050897976379,24317.412234353433,89.10000000000001,47.30193241525468
1306893748.89,2.1903698,6.7238178,2386.82,-9.0,5.7,4.1,-1.0,395.92437756303883,563920910.3185217,563920910.3185217,26.67129370237847,7.038694388475601,25182.83221377162,88.30000000000001,47.37256014928794
1306893749.33,2.1906484,6.7252515,2401.13,-7.8,5.7,4.1,-1.0,393.2010209662392,559669903.1434255,559669903.1434255,26.868999489513172,6.8217552942317266,25120.20482990311,86.10000000000001,47.448692039051714
1306893749.76,2.1909208,6.7266642,2415.28,-6.8,5.7,4.1,-1.0,396.22450164112473,555881009.5980204,555881009.5980204,29.268860160355004,7.056983830048667,24956.498788321056,85.5,47.53019028927044
1306893750.2,2.1911876,6.7280544,2429.25,-6.0,5.9,3.7,-1.0,381.9813944241908,550810917.346191,550810917.346191,30.762758355121733,6.972207005421394,25385.895095051543,86.19999999999999,47.61694007054777
1306893750.63,2.1914507,6.7294273,2443.08,-5.3,5.9,3.6,-1.0,385.73098230841265,545258785.9292,545258785.9292,30.95034389581395,7.0377478264546784,25381.125351071314,86.19999999999999,47.708818898194316
1306893751.06,2.1917088,6.7307727,2456.66,-4.7,5.9,3.6,-1.0,378.52672740846015,535472137.5797258,535472137.5797258,31.303126708799965,6.999045401715559,25348.80193234439,89.10000000000001,47.8056047687105
1306893751.49,2.191958,6.7320675,2469.77,-4.2,5.9,3.5,-1.0,365.298171657131,525286565.11650777,525286565.11650777,28.40082753548862,7.1563383503706826,25368.43028735681,88.7,47.90690726214882
1306893751.91,2.1921995,6.7333165,2482.43,-3.7,5.9,3.5,-1.0,361.1079582897946,515514862.20824003,515514862.20824003,28.53847099862419,7.343782890152904,25849.275585546275,85.9,48.01235126914795
1306893752.34,2.1924443,6.7345768,2495.23,-3.2,6.0,3.4,-1.0,356.29949389886656,502254118.0592374,502254118.0592374,27.939790692489737,7.251414090267629,26020.465968050816,85.50000000000001,48.11653980808059
1306893752.77,2.1926864,6.7358164,2507.84,-2.9,6.0,3.4,-1.0,350.91080978529243,486754072.9073066,486754072.9073066,26.81435597492202,7.535605009057415,26497.590950972815,86.00000000000001,48.219916885945864
1306893753.2,2.1929245,6.7370281,2520.18,-2.5,6.0,3.4,-1.0,343.6319508145457,469414244.98034924,469414244.98034924,28.06170661535097,7.510066960272157,26014.05609092134,88.00000000000001,48.32200787457228
1306893753.63,2.1931609,6.7382244,2532.38,-2.2,6.2,3.4,-1.0,339.6026300217638,448162043.5970932,448162043.5970932,28.870253819320087,7.714594713995847,26407.7186256032,90.50000000000001,48.42248359635707
1306893754.06,2.1933943,6.7393979,2544.36,-1.9,6.2,3.4,-1.0,333.6971228530232,424192179.3612512,424192179.3612512,26.592526914752572,7.472436641157275,26798.812190088356,92.2,48.521298119541655
1306893754.48,2.1936243,6.7405473,2556.11,-1.7,6.2,3.4,-1.0,334.5899045125607,403823522.67462295,403823522.67462295,27.217372710322433,7.802208373240864,26573.272024089903,91.30000000000001,48.61841316766064
1306893754.91,2.1938518,6.7416764,2567.66,-1.5,6.4,3.4,-1.0,322.10542378060137,381796613.7570183,381796613.7570183,26.368975482197573,7.854022619965374,27423.552937401197,94.30000000000001,48.71378280895547
1306893755.34,2.1940773,6.7427882,2579.04,-1.3,6.4,3.4,-1.0,317.615155990867,363378168.8290226,363378168.8290226,23.952625623491333,7.673589250432802,27237.862848245095,94.70000000000002,48.807468285770874
1306893755.76,2.1943005,6.7438808,2590.23,-1.1,6.5,3.4,-1.0,319.4284346130351,347416302.7107626,347416302.7107626,26.266273000816266,7.689964890870113,26839.146282334208,93.9,48.89968394631331
1306893757.03,2.1949556,6.7470409,2622.64,-0.7,6.5,3.4,-1.0,306.74962667765186,330944149.3017469,330944149.3017469,25.331824038338684,7.884138534427449,26138.555465974758,94.20000000000002,49.00701881070527
1306893757.87,2.1953811,6.749054,2643.28,-0.7,6.7,3.4,-1.0,296.5005317443881,315397976.3094136,315397976.3094136,25.24869889440614,7.907315479369835,26125.068399491272,92.9,49.1203554248785
1306893758.29,2.1955904,6.7500327,2653.3,-0.7,6.8,3.1,-1.0,289.07032806330255,298982313.8740211,298982313.8740211,24.7936875029289,7.5803908964838715,26079.852886457422,93.7,49.23170931814184
1306893758.71,2.1958009,6.7510096,2663.3,-0.5,6.8,3.1,-1.0,288.66904173730086,281667038.9622751,281667038.9622751,24.15347621136759,7.424455421071965,26607.510560388222,93.60000000000001,49.3412718728225
1306893759.98,2.1964295,6.7538797,2692.67,-0.4,6.8,3.1,-1.0,281.264609000962,264315268.518083,264315268.518083,22.88546086570001,7.534831627104952,26689.189429221737,91.7,49.463978565735886
1306893764.64,2.1986555,6.7634899,2791.36,-0.1,6.8,3.1,-1.0,259.24683794663304,247742301.90637505,247742301.90637505,24.099964684181614,7.72333158826595,25867.31403228413,88.5,49.653064305018475
1306893765.07,2.1988537,6.7643043,2799.74,-0.1,7.7,3.1,-1.0,240.49719709300066,228978946.9999893,228978946.9999893,23.740023182565462,7.558760142241578,26313.042714769945,88.60000000000001,49.83957021053028
1306893766.76,2.1996323,6.7674388,2832.0,-0.0,7.7,3.1,-1.0,236.15859847217712,212994053.62782967,212994053.62782967,23.360227262003793,7.385934627934903,26113.355750264105,87.2,50.04193022802809
1306893767.18,2.1998268,6.7682065,2839.9,-0.0,8.0,3.1,-1.0,233.22133705783347,195279428.72826603,195279428.72826603,23.698097287042994,7.566071937300876,25843.91514941187,86.80000000000001,50.24162620353116
1306893767.6,2.2000185,6.7689564,2847.62,-0.0,8.2,3.1,-1.0,228.49214470333968,176607454.18511182,176607454.18511182,23.78323586731789,7.387810705604682,25534.462779360565,86.9,50.43866579233255
1306893768.44,2.200397,6.7704212,2862.69,-0.0,8.0,3.0,-1.0,223.8121432944107,159470244.28175986,159470244.28175986,24.519566589353676,7.16962718681331,26522.055541937618,88.0,50.62243110291873
1306893768.86,2.2005849,6.7711563,2869.97,-0.0,6.1,2.7,-1.0,224.4229558245522,142464689.18555793,142464689.18555793,24.85373804447172,7.148120270285419,26354.217810921135,89.9,50.79596894193885
1306893769.28,2.2007685,6.7719015,2876.41,-0.0,5.4,2.4,-1.0,226.75425419430147,126743928.87640882,126743928.87640882,24.79922199042199,7.377347810671784,25796.148985571584,88.8,50.96676618603334
1306893769.7,2.200944,6.7726277,2881.77,-0.4,5.4,2.4,-1.0,221.40837455281246,113983227.71020247,113983227.71020247,24.093410861249904,7.306279334213356,25331.658829576565,87.30000000000001,51.13401137413483
