timestamp,longitude,latitude,altitude,roll,pitch,yaw,heading,air_speed,engine_0,engine_1,temperature_in,humidity_in,pressure_in,heart_rate,oxygen_mask
1306893631.32,2.011986,6.5731802,-1.0,-1.0,1.6,-1.0,-1.0,85.35873000765979,6535382.124524599,6535382.124524599,28.131290294024254,7.369803048636154,25436.095379208222,92.30000000000001,27.359060959827715
1306893632.16,2.0114221,6.572756,23.69,-1.0,4.0,-1.0,-1.0,85.35873000765979,5913005.59798551,5913005.59798551,29.3514413823468,7.445214614258599,24958.473004003703,89.60000000000001,27.34765457312605
1306893632.58,2.0111373,6.5725418,23.73,-1.0,6.0,-1.0,-1.0,80.94564893259495,5247405.787555491,5247405.787555491,27.11482315242952,7.463323180333237,25502.57262361658,91.10000000000002,27.345266121682478
1306893633.01,2.0108356,6.5723149,23.75,-1.0,7.3,-1.0,-1.0,83.64307780811362,4660946.491615031,4660946.491615031,27.32235296564665,7.253098395608691,25678.210511307007,92.40000000000002,27.34454652413218
1306893634.5,2.0097405,6.5714913,23.79,-1.0,9.2,-1.0,-1.0,87.473474325875,4419951.259026266,4419951.259026266,27.54293161985669,7.209581555331993,25485.008281122096,94.70000000000002,27.344270933580997
1306893634.92,2.0094227,6.5712523,23.87,-1.0,9.6,-1.0,-1.0,89.98005171215121,4419951.259026266,4419951.259026266,27.542931619856688,7.209581555331993,25485.0082811221,94.7,27.344270933580997
1306893635.36,2.0090796,6.5709942,24.15,-1.0,10.1,-1.0,-1.0,92.67678691669505,4660946.491615031,4660946.491615031,27.322352965646655,7.253098395608692,25678.21051130701,92.4,27.344546524132177
1306893635.79,2.008738,6.5707374,24.69,-1.0,10.4,-1.0,-1.0,94.34714108294148,5247405.787555491,5247405.787555491,27.11482315242952,7.463323180333235,25502.572623616583,91.10000000000001,27.345266121682478
1306893636.66,2.0080283,6.5702041,26.85,-1.0,10.7,-1.0,-1.0,96.76473436643244,5913005.59798551,5913005.59798551,29.351441382346806,7.445214614258599,24958.47300400371,89.60000000000002,27.347654573126054
1306893638.8,2.0061722,6.5688156,38.59,-0.1,10.7,-1.0,-1.0,102.60647870449135,6535382.124524599,6535382.124524599,28.131290294024254,7.369803048636154,25436.09537920823,92.30000000000003,27.359060959827712
1306893640.09,2.0049501,6.5679092,50.22,-0.2,10.7,-1.0,-1.0,111.5361724677021,7099773.705342441,7099773.705342441,26.995207260960285,7.216523449610537,24771.899026889718,92.5,27.39827137102631
1306893641.37,2.0036221,6.5669334,66.24,-0.4,10.7,-1.0,-1.0,121.53686940107076,7682659.328588276,7682659.328588276,27.930078407838565,7.08711011021791,25265.696375747968,92.2,27.430844643117304
1306893641.79,2.0031554,6.5665932,72.62,-0.5,10.7,-1.0,-1.0,129.65892004549875,8498396.775188213,8498396.775188213,27.27434875449584,7.0082713541134405,25129.945643968873,90.4,27.468271371026315
1306893642.22,2.002672,6.5662431,79.57,-0.6,10.7,-1.0,-1.0,130.81383309582975,10186296.315805208,10186296.315805208,25.476217379758207,7.202646966185824,25044.518207386714,90.2,27.511003217045566
1306893642.64,2.0021831,6.5658932,86.89,-0.6,10.6,223.4,-1.0,134.6561553332774,12132258.868852977,12132258.868852977,25.261887750919627,7.163985839724835,25668.056962348295,87.39999999999999,27.559308116433144
1306893643.06,2.0016784,6.5655363,94.69,-0.9,10.5,223.4,-1.0,138.15642701472476,14436230.72019321,14436230.72019321,26.33324611285756,7.381324122588872,25218.37580811011,90.1,27.613522902084934
1306893643.48,2.0011641,6.5651754,102.84,-1.2,10.4,223.4,-1.0,140.28031224249833,16782934.40252836,16782934.40252836,24.877141472993436,7.334577685182928,25213.924681861983,90.0,27.67376240339727
1306893643.9,2.0006333,6.5648046,111.33,-1.4,10.2,223.3,-1.0,144.4052063702879,18414280.857907984,18414280.857907984,22.713314338337995,7.072629641848549,25886.49829226263,89.30000000000001,27.74008786271486
1306893644.33,2.0000829,6.5644219,120.05,-1.7,9.9,223.3,-1.0,145.87741975020705,19610828.95636802,19610828.95636802,22.28617310518346,6.883250176868034,26445.874758786136,90.9,27.811435194298408
1306893644.75,1.999524,6.564035,128.71,-2.1,9.7,223.3,-1.0,151.1656802785491,20478596.089954264,20478596.089954264,22.952679199553124,7.0046296015718035,26197.45025665599,88.00000000000001,27.880424695610742
1306893645.18,1.9989348,6.5636287,137.54,-2.5,9.5,223.3,-1.0,155.1592644137035,21381807.35992957,21381807.35992957,24.60487284163247,7.170270419250197,26140.3183743252,86.5,27.94727071485834
1306893645.62,1.9983266,6.5632109,146.28,-2.9,9.3,223.1,-1.0,156.18264184120676,22494521.24920983,22494521.24920983,23.13961157393059,7.419919393977717,26099.856494130632,87.4,28.008543680737603
1306893646.04,1.9977294,6.5628014,154.48,-3.4,9.3,223.1,-1.0,160.27612993243338,23878236.31632158,23878236.31632158,24.350308054440095,7.442208253103273,25687.795471035486,89.9,28.07120990995895
1306893646.47,1.9971051,6.5623721,162.69,-3.8,9.3,223.1,-1.0,163.7602035899858,25349314.53094964,25349314.53094964,26.567820781699922,7.431740131379043,26401.18211239394,90.2,28.13484070610943
1306893646.89,1.9964722,6.5619353,170.65,-4.2,9.3,222.9,-1.0,170.08538869012062,26954400.750626262,26954400.750626262,24.978649952528873,7.464486072217129,26217.675411063716,89.89999999999999,28.198961441017566
1306893647.31,1.9958419,6.5614982,178.28,-4.4,9.3,222.8,-1.0,169.7054185917551,28770140.388284717,28770140.388284717,24.130819536532847,7.161593072096695,26286.81393833083,89.9,28.2629520359432
1306893647.73,1.9951918,6.5610453,185.98,-4.6,9.3,222.7,-1.0,175.2844685575913,30311515.236567363,30311515.236567363,25.10701267553634,7.2629222613655084,26321.999238257547,91.5,28.326598142679863
1306893648.15,1.9945347,6.5605851,193.79,-4.6,9.5,222.6,-1.0,177.6384540807431,32457210.621215165,32457210.621215165,26.298873614577857,7.545721262300734,26260.726955539147,93.2,28.38972368948651
1306893648.58,1.9938421,6.5600974,202.22,-5.0,11.0,222.6,-1.0,183.32865295153084,34313809.74106105,34313809.74106105,24.998498751537024,7.683898988435848,25470.697480265415,92.4,28.452627232793596
1306893649.0,1.9931736,6.5596235,211.31,-16.7,13.0,222.1,-1.0,182.0369336873166,36354601.169819914,36354601.169819914,25.992379183750433,7.528777587865449,25649.28449132754,92.4,28.51585995370348
1306893649.44,1.9924673,6.5591096,222.65,-36.4,14.7,220.8,-1.0,186.5425736119177,37957720.87559641,37957720.87559641,24.90483863000576,7.4873417267749645,26101.21678452538,91.80000000000001,28.581014153178543
1306893649.86,1.9918126,6.5586073,234.76,-42.1,14.9,219.1,-1.0,186.73075046338266,39569044.910997584,39569044.910997584,24.35796920141825,7.4709375813731365,25919.417972591204,93.3,28.64874818642439
1306893650.29,1.9911527,6.5580702,248.26,-45.2,14.3,217.4,-1.0,190.35735409690872,40754838.14824235,40754838.14824235,25.274634714929732,7.582757497267589,25598.78991487323,90.7,28.720539525007066
1306893650.71,1.9905382,6.5575442,261.38,-51.1,12.7,216.2,-1.0,187.09030879256105,41944880.5590838,41944880.5590838,24.158166516049988,7.52059725603789,25609.039504066448,91.2,28.796089612496132
1306893651.15,1.9899048,6.5569804,274.67,-54.2,11.3,215.2,-1.0,188.21967045391895,43160445.416405864,43160445.416405864,23.569710710408167,7.428667373889697,25044.36164183703,92.9,28.875719971201296
1306893651.58,1.9892935,6.556419,286.79,-55.3,10.1,214.4,-1.0,189.25428807703128,44423603.784978464,44423603.784978464,24.189792438788256,7.3874894803815145,24678.070058174882,90.80000000000001,28.958787556503133
1306893652.0,1.9886922,6.5558525,297.81,-56.9,9.2,213.8,-1.0,193.25467184652408,46045418.72803066,46045418.72803066,22.704195023284466,7.479488050911243,24966.906595121218,88.70000000000002,29.044396699110305
1306893652.43,1.9880762,6.5552569,308.15,-58.1,8.6,213.1,-1.0,196.27057676001218,47866021.66373441,47866021.66373441,23.960337102233705,7.505423031383319,24534.965096104228,88.80000000000001,29.131942630868835
1306893652.85,1.987468,6.5546516,317.45,-58.5,8.0,212.3,-1.0,201.84430659161936,50509864.53482069,50509864.53482069,24.383907670194727,7.43412061056889,24406.21318644406,89.89999999999999,29.220154573126056
1306893653.28,1.9868561,6.5540228,325.96,-59.0,7.5,211.4,-1.0,202.4118599619582,54099466.0114225,54099466.0114225,25.42498115132676,7.69472765712974,23968.508474283324,92.39999999999999,29.307922508384145
1306893653.72,1.9862256,6.5533507,333.93,-59.5,6.9,210.4,-1.0,208.75259188073576,58247156.08700398,58247156.08700398,24.75070125635755,7.586647166774791,23356.732654816897,94.30000000000001,29.393110609871464
1306893654.14,1.9856355,6.5526954,340.74,-59.7,6.5,209.3,-1.0,210.4847724722316,63329845.3853377,63329845.3853377,27.307503693704376,7.374062537609971,23160.25029925064,94.3,29.474241406021942
1306893654.56,1.985051,6.5520171,346.94,-59.8,6.2,208.2,-1.0,215.01939225473723,68981760.08228497,68981760.08228497,26.07542147159949,7.116510494122703,23300.271739360174,97.5,29.549783838217916
1306893654.99,1.9844717,6.5513117,352.61,-60.0,5.9,207.0,-1.0,215.6187567892926,74468932.17880775,74468932.17880775,24.853327937235022,6.963155459181925,22957.69845225161,95.19999999999999,29.61962307706306
1306893655.41,1.9839081,6.5505884,357.74,-60.0,5.6,205.7,-1.0,223.31624725356338,79793407.33189516,79793407.33189516,25.030793795990732,7.269759778611789,22940.20699352181,96.30000000000001,29.6832155967481
1306893655.84,1.9833644,6.549851,362.37,-60.0,5.3,204.4,-1.0,219.63140186704499,86145294.92801885,86145294.92801885,23.78445892608902,7.284446291066632,23797.582931459296,96.80000000000001,29.741074301909958
1306893656.26,1.9828442,6.5491031,366.54,-60.0,5.2,203.0,-1.0,225.3264266525868,91393997.8282461,91393997.8282461,25.47889195078276,7.135360693433782,24035.846697699344,99.4,29.79368913130628
1306893656.68,1.9823491,6.5483451,370.3,-60.0,5.0,201.5,-1.0,225.67286952118417,97182381.90468849,97182381.90468849,24.825365870436915,6.879099673899976,23974.73025204154,99.60000000000001,29.841266777850468
1306893656.89,1.9821108,6.5479613,372.04,-60.0,5.0,200.8,-1.0,226.55240098768962,103096947.6633802,103096947.6633802,24.142218641622325,7.022465224728063,24729.768675264815,100.60000000000001,29.883057022819845
1306893657.32,1.9816528,6.5471824,375.29,-60.0,5.0,199.3,-1.0,222.77681303791226,107888791.11636804,107888791.11636804,21.740244857231556,6.951444932429944,24771.028146669472,100.30000000000001,29.920820583624742
1306893657.74,1.981226,6.5463976,378.21,-60.2,5.0,197.7,-1.0,227.25639502663282,111434779.865507,111434779.865507,23.891232508880904,6.99885863743683,25377.930847274816,97.8,29.954718221420016
1306893658.18,1.9808179,6.5455795,380.94,-60.2,5.0,196.1,-1.0,223.91176783761705,115224494.03441755,115224494.03441755,22.413172220623014,7.069082610084127,25260.000846561867,96.4,29.985492499635242
1306893658.61,1.980458,6.5447863,383.31,-60.2,5.0,194.4,-1.0,220.1250714737725,117222537.94331545,117222537.94331545,24.02506968707249,7.241640621694637,25340.687743607825,94.5,30.013334800597615
1306893659.05,1.9801168,6.543951,385.57,-60.2,5.0,192.7,-1.0,224.45037487778342,116848133.32440546,116848133.32440546,23.714334224757934,7.16782212055393,25307.277695808436,95.0,30.038566646616864
1306893659.48,1.9798205,6.5431347,387.56,-60.2,4.4,191.0,-1.0,222.70881521000973,118416435.4125284,118416435.4125284,24.407133686266647,7.035668732781659,25645.70875126886,95.4,30.061394730606366
1306893659.9,1.9795622,6.5423231,389.37,-60.2,4.4,189.3,-1.0,225.06147521222616,118395473.44977075,118395473.44977075,24.429760836521307,7.006804967770125,25707.635317743727,95.8,30.08206402194495
1306893660.33,1.9793358,6.5414958,391.05,-60.2,4.3,187.5,-1.0,222.74113726910755,119295650.13149616,119295650.13149616,24.82445497084009,6.901958346750106,24890.72957591946,94.6,30.100827145304528
1306893660.75,1.9791515,6.5406922,392.56,-60.2,4.3,185.8,-1.0,220.41149610743952,121185793.89906728,121185793.89906728,24.322222975379276,7.016400082698408,25523.090044731227,91.8,30.11786782771923
1306893661.17,1.9790007,6.5398803,393.97,-60.2,4.3,184.1,-1.0,221.74323933487932,122948661.66729093,122948661.66729093,24.211058567184967,6.937215142558179,25655.75298572298,90.7,30.134655885462013
1306893661.6,1.9788828,6.5390452,395.31,-60.2,4.2,182.2,-1.0,221.9988869431213,123288152.81060006,123288152.81060006,26.886256801661947,6.8084654953318555,25960.718180066357,88.5,30.14998178222492
1306893662.03,1.9788063,6.5382076,396.76,-58.6,7.9,179.8,-1.0,222.06305425401135,124098728.80266525,124098728.80266525,26.680147971720857,6.7460302873059925,25905.919493086043,87.7,30.164182350903832
1306893662.5,1.9788104,6.5373012,400.63,-54.1,16.8,174.2,-1.0,219.68297673810704,123832162.41528758,123832162.41528758,26.821914548552233,6.7733977249544015,26468.470582383918,86.2,30.179255622994823
1306893662.94,1.9789428,6.536492,409.77,-51.2,23.3,167.2,-1.0,212.17119558895413,122617332.23051462,122617332.23051462,26.175648426676283,6.87011636872185,26416.99408471372,87.60000000000001,30.199511528506633
1306893663.36,1.9791827,6.5357816,424.42,-49.0,28.2,160.7,-1.0,201.81508511869845,119382869.35172549,119382869.35172549,27.58749214225746,6.97956249604335,26804.155220321605,86.50000000000001,30.229252342154926
1306893663.79,1.9795186,6.5351239,444.88,-46.9,32.4,154.5,-1.0,192.35144783739014,110280704.73584715,110280704.73584715,27.251911956640377,6.965646353947684,26597.2835786334,84.2,30.273132482137434
1306893664.22,1.9799173,6.5345465,469.91,-45.2,36.7,148.5,-1.0,181.3581189555238,95752016.07422058,95752016.07422058,26.059562895288742,7.292216892175015,25680.615400847615,84.2,30.334788212671118
1306893664.65,1.9803638,6.5340395,499.13,-45.4,40.6,142.9,-1.0,178.92874961319163,74840678.05760191,74840678.05760191,24.826265612203184,7.519420973108354,25691.011859766382,84.70000000000002,30.417526620370147
1306893665.07,1.9808376,6.5336081,531.34,-48.8,44.1,137.2,-1.0,173.39763142767578,50642865.190962136,50642865.190962136,24.892837846734846,7.437947806313042,25672.25923945313,87.9,30.52376677785046
1306893665.49,1.9813255,6.5332509,565.24,-52.0,47.1,131.3,-1.0,163.4219191085911,28442878.81583197,28442878.81583197,25.463692812397152,7.45613664046096,25574.432486216763,88.79999999999998,30.65487898257487
1306893665.91,1.9818262,6.5329584,600.47,-55.0,49.7,125.2,-1.0,156.1086452626097,11549197.750985272,11549197.750985272,22.584351765631016,7.348354714663289,25007.777738836045,89.60000000000001,30.81193497557575
1306893666.35,1.9823712,6.5327118,639.12,-59.1,51.9,118.6,-1.0,152.915318097389,8385045.828994458,8385045.828994458,20.87321065563406,7.3562490120992035,24454.040025100454,89.39999999999999,30.997468658865337
1306893666.77,1.9829012,6.5325349,676.81,-63.5,53.6,112.0,-1.0,148.5708871120971,13232337.180783382,13232337.180783382,21.23258177630641,7.364866779120182,24399.219741074397,89.39999999999999,31.208892543379772
1306893667.21,1.9834587,6.5324097,716.3,-72.4,54.7,104.7,-1.0,143.74322859031918,16513377.3764608,16513377.3764608,22.295717630935066,7.346340706207092,24487.211686303017,89.0,31.443550242417395
1306893667.65,1.9840303,6.5323422,755.89,-81.8,54.6,97.2,-1.0,142.19481583861884,18348652.039544273,18348652.039544273,20.791879234331333,7.416587182263857,23952.322834701565,90.9,31.69730024241739
1306893705.11,2.0764818,6.5843154,1486.46,-17.8,1.8,37.9,-1.0,246.98523675768732,18802906.874285027,18802906.874285027,20.326233388001405,7.364093870894461,24490.052003393124,92.7,32.49466025991521
1306893705.32,2.0771436,6.5848717,1487.98,-17.5,1.8,37.8,-1.0,381.42266160599456,21163156.849518772,21163156.849518772,20.58976490096645,7.25065803065684,24625.387778006814,91.30000000000001,33.274022683362276
1306893705.54,2.0778147,6.5854378,1489.54,-17.2,1.8,37.6,-1.0,369.70025336315143,48435531.14871822,48435531.14871822,20.193249838184542,7.014172645865266,24741.041575510066,89.8,34.03221056612692
1306893705.75,2.0784857,6.5860058,1491.13,-17.0,1.8,37.5,-1.0,388.4642536428886,93212317.55559903,93212317.55559903,19.146281523011833,7.004162647878861,24202.686073997913,88.4,34.766957941455004
1306893705.97,2.0791566,6.5865759,1492.74,-16.8,1.8,37.4,-1.0,371.1483524328032,132021364.70448524,132021364.70448524,20.43149533025977,7.034734875803262,23901.343908001494,87.20000000000002,35.47698637540077
1306893706.19,2.0798618,6.5871771,1494.45,-16.5,1.8,37.3,-1.0,391.2392760201951,153571028.47529247,153571028.47529247,20.403677085194147,7.146527756072811,24295.554648323887,87.80000000000001,36.16135426691433
1306893706.4,2.0805013,6.5877244,1496.03,-16.3,1.8,37.2,-1.0,372.22576064547707,112611526.54075977,112611526.54075977,19.794108361813016,7.3941978456006465,25232.953537794565,89.80000000000001,36.817343986949325
1306893706.63,2.0812188,6.5883404,1497.83,-16.0,1.8,37.1,-1.0,382.18006044623297,59086496.25673012,59086496.25673012,19.981034637747587,7.2136487804585645,24771.936618929434,91.5,37.44585886009018
1306893706.84,2.0818987,6.5889262,1499.55,-15.8,1.9,37.0,-1.0,397.77613117473214,127818644.87930241,127818644.87930241,17.980266783519724,7.057927945643423,24468.66505157099,89.79999999999998,38.04545969123629
1306893707.05,2.082535,6.5894762,1501.19,-15.6,1.9,36.9,-1.0,372.5139664688433,203576968.5575162,203576968.5575162,19.149034078321762,6.994269756385322,25000.7861949308,88.4,38.61600868511205
1306893707.26,2.0832117,6.590063,1502.96,-15.4,1.9,36.9,-1.0,397.2556218510132,283769810.1616528,283769810.1616528,20.375774954541658,7.182549066115491,25132.64167357058,88.5,38.62863991870785
1306893707.48,2.0838821,6.5906462,1504.73,-15.2,1.9,36.8,-1.0,376.14695449493485,280818723.7846444,280818723.7846444,20.963371587013306,7.0178410523008,25538.547580305683,90.00000000000001,38.64146253463086
1306893707.7,2.0845556,6.5912339,1506.53,-15.0,1.9,36.7,-1.0,378.54596072980206,287029405.7330296,287029405.7330296,20.930450985170975,7.07868952839576,25576.095615623573,91.4,38.65446887758799
1306893707.91,2.0852291,6.5918234,1508.36,-14.8,1.9,36.6,-1.0,397.6168392686503,293582708.6692803,293582708.6692803,23.040845322972075,6.946760397527202,25680.19648504517,92.10000000000001,38.66765894757924
1306893708.12,2.0858744,6.59239,1510.14,-14.6,1.9,36.5,-1.0,381.42523119241696,294083886.76607466,294083886.76607466,23.018084077246936,6.882502572952994,25157.557215361656,91.60000000000002,38.680979157553
1306893708.34,2.0865541,6.5929885,1512.03,-14.4,1.9,36.4,-1.0,384.1958672730847,293828893.30438375,293828893.30438375,23.620044441018013,6.797113865817335,25121.99894967533,92.10000000000001,38.694437162802345
1306893708.56,2.0872649,6.5936163,1514.04,-14.2,2.0,36.3,-1.0,402.77842886203246,301845737.11354804,301845737.11354804,25.330678413085288,6.660842280041796,24782.17374604915,91.00000000000001,38.708224345654486
1306893708.77,2.087907,6.5941851,1515.87,-14.1,2.0,36.2,-1.0,381.51850298104017,291883997.6630076,291883997.6630076,23.647080893008344,6.962981425247294,24659.051925526714,91.4,38.722034494385895
1306893708.99,2.0885866,6.5947888,1517.84,-13.9,2.0,36.2,-1.0,386.15433796330404,295298334.58873326,295298334.58873326,24.929425241429012,7.139345162917917,25106.00859061929,90.8,38.73603602544451
1306893709.21,2.089263,6.5953915,1519.82,-13.7,2.0,36.1,-1.0,385.0044945115996,307601899.96814036,307601899.96814036,25.47100144108349,7.225492115692246,25145.649279631416,89.80000000000001,38.75029783646813
1306893709.42,2.0899363,6.595993,1521.82,-13.6,2.0,36.0,-1.0,402.45903812143956,303734833.78322035,303734833.78322035,24.25566292317802,7.021848337939829,25050.578633138208,88.2,38.76473571923278
1306893709.63,2.0906002,6.5965878,1523.82,-13.4,2.0,35.9,-1.0,397.39867823532614,309764539.9594058,309764539.9594058,23.29879301407482,7.277594995751333,25306.896496515183,89.9,38.77934967373847
1306893709.84,2.0912329,6.5971561,1525.75,-13.2,2.0,35.8,-1.0,378.98730917203915,314990713.8396674,314990713.8396674,24.52850110362677,7.203819131130789,25473.76575363503,89.0,38.79406314705431
1306893710.06,2.0919249,6.5977792,1527.88,-13.1,2.0,35.8,-1.0,396.6223684052058,312606259.52871877,312606259.52871877,22.137606037848713,7.471774867358921,26034.327130542573,89.89999999999999,38.8090062791628
1306893710.27,2.0925856,6.5983759,1529.94,-13.0,2.1,35.7,-1.0,397.43323930771857,312028677.7422122,312028677.7422122,20.628026654951018,7.5797676646893715,26940.918410981016,88.5,38.824163759477756
1306893710.48,2.0932433,6.5989713,1532.01,-12.8,2.1,35.6,-1.0,396.1569190226296,317324942.3260707,317324942.3260707,20.04220496511945,7.652437888668152,26791.218479344443,89.10000000000001,38.83945903506831
1306893710.69,2.0939009,6.5995682,1534.11,-12.7,2.1,35.5,-1.0,396.69324998444085,320463754.08092606,320463754.08092606,20.778497840393932,7.781053828948931,26911.868730835893,90.2,38.85482320829665
1306893710.9,2.0945523,6.6001608,1536.22,-12.5,2.1,35.5,-1.0,393.48251053555356,322402752.8074809,322402752.8074809,22.270645794624908,7.750682392554429,27155.760217147443,89.5,38.870401729731476
1306893711.11,2.0952037,6.600755,1538.35,-12.8,2.1,35.4,-1.0,394.19728473170665,323899295.3004619,323899295.3004619,20.05244118122561,7.820076996458413,27234.36108286457,89.2,38.88610273585571
1306893711.32,2.0958489,6.6013448,1540.48,-13.1,2.1,35.3,-1.0,390.8358391901258,332493395.08126324,332493395.08126324,20.672420567298104,7.9621422831894915,27183.246208940625,88.8,38.90191857137627
1306893711.54,2.096522,6.6019618,1542.72,-13.1,2.1,35.3,-1.0,389.8838922512724,333667542.4981531,333667542.4981531,21.233658934168183,8.170999111422244,27206.853896334353,90.30000000000001,38.91791813393095
1306893711.76,2.0972262,6.6026091,1545.1,-12.6,2.1,35.2,-1.0,408.7941154225873,336728493.7816672,336728493.7816672,21.392642176380946,8.007732927493542,27343.090998936488,88.10000000000001,38.934208597623
1306893711.97,2.0978898,6.6032206,1547.37,-12.1,2.2,35.1,-1.0,404.14917330932263,337716348.9930768,337716348.9930768,21.139167331912052,8.320980861226673,27143.907022687024,89.90000000000002,38.950759341280026
1306893712.18,2.0985191,6.6038019,1549.54,-11.7,2.2,35.0,-1.0,383.6232940735209,333179894.3070838,333179894.3070838,21.431198615318745,8.041787359746223,26814.889684999573,86.20000000000002,38.967340706109425
1306893712.39,2.0991889,6.6044219,1551.88,-11.6,2.2,35.0,-1.0,409.185447785387,336438995.1813312,336438995.1813312,21.196509552880404,8.05423675318161,26555.19057499241,88.80000000000001,38.984136419145294
1306893712.61,2.0998837,6.6050666,1554.33,-11.6,2.2,34.9,-1.0,405.67535091242047,328209745.4020768,328209745.4020768,22.010805496241552,8.265433991074143,27064.899872499616,88.29999999999998,39.00122303331853
1306893712.82,2.1005379,6.6056751,1556.67,-11.6,2.2,34.8,-1.0,400.62945956787615,330803108.4396822,330803108.4396822,19.629345380321418,8.35800443521293,27037.701383855336,87.8,39.018493374525875
1306893713.04,2.1011952,6.6062878,1559.04,-11.4,2.2,34.8,-1.0,384.65004732149356,341967200.1840063,341967200.1840063,19.537303066057163,8.090051450495915,26963.051576213104,87.1,39.03596275335353
1306893713.26,2.1018961,6.6069427,1561.6,-11.2,2.2,34.7,-1.0,411.0817366860037,346701062.51728016,346701062.51728016,21.737986083693272,8.05507695307618,26897.823255162497,90.6,39.053761309783965
1306893713.47,2.1025628,6.6075669,1564.06,-11.0,2.2,34.7,-1.0,410.1854400456409,344338612.5277686,344338612.5277686,19.946596504294103,7.949726852230877,26176.965205769156,92.0,39.07181249088633
1306893713.68,2.1031951,6.6081603,1566.43,-10.8,2.3,34.6,-1.0,389.25625243763295,352483445.08008593,352483445.08008593,19.226399055482247,7.820081498657636,26193.394178285453,90.60000000000001,39.089963190798834
1306893713.89,2.1038649,6.6087901,1568.95,-10.7,2.3,34.5,-1.0,413.2908700331261,356306386.2183988,356306386.2183988,20.17431131452285,7.675367587867412,26052.57315951283,91.7,39.108221064814586
1306893714.11,2.1045565,6.6094418,1571.59,-10.6,2.3,34.5,-1.0,407.76682782499967,344156401.5285397,344156401.5285397,21.111901840045878,7.580052346746907,26003.112273899464,89.00000000000001,39.126762184674604
1306893714.32,2.1052107,6.6100595,1574.11,-10.5,2.3,34.4,-1.0,404.4688364129833,349837746.41677326,349837746.41677326,22.314060608304136,7.84566272365308,25947.912139766246,89.2,39.145571239792716
1306893714.53,2.1058587,6.6106727,1576.63,-10.4,2.3,34.4,-1.0,401.2294985513756,355602138.55551744,355602138.55551744,23.325039512486736,7.877427311413848,25503.162635865676,88.9,39.16451809018642
1306893714.75,2.1065378,6.6113165,1579.31,-10.3,2.3,34.3,-1.0,401.8143107876997,354876628.4336827,354876628.4336827,24.006029414280206,7.609010549397581,25278.430731671793,89.39999999999999,39.183641012321154
1306893714.97,2.1072075,6.6119529,1581.97,-10.2,2.4,34.2,-1.0,396.754470775115,358539928.6246893,358539928.6246893,26.322054177665944,7.537857969813965,25237.553400337198,89.89999999999999,39.20300890383471
1306893715.18,2.1078742,6.6125875,1584.65,-10.0,2.4,34.2,-1.0,414.5093022022657,376685161.5978841,376685161.5978841,26.096889848202828,7.852610970829161,25376.053600309653,89.8,39.22261410943401
1306893715.39,2.1085409,6.6132234,1587.36,-10.0,2.4,34.1,-1.0,415.02378745064414,369685520.68794197,369685520.68794197,26.861174818277615,7.821425698224673,24873.806759285682,86.69999999999999,39.242334144429634
1306893715.61,2.1092107,6.6138634,1590.11,-9.9,2.4,34.1,-1.0,398.3254855532125,362279081.89783996,362279081.89783996,28.44625825956389,7.7929745166888225,25021.696790817135,85.49999999999999,39.26227618292482
1306893715.82,2.1098711,6.6144958,1592.85,-9.7,2.4,34.0,-1.0,412.1149789476525,369918860.9514919,369918860.9514919,30.96593497313461,7.606876921751105,24382.18075650989,87.5,39.28250146726429
1306893716.03,2.1105316,6.6151293,1595.61,-9.6,2.4,34.0,-1.0,412.58782346068557,359242283.06101173,359242283.06101173,31.524788834625383,7.975850235642982,23826.84550466447,88.2,39.30291047863786
1306893716.24,2.1111702,6.6157431,1598.32,-9.4,2.4,33.9,-1.0,399.3262439375249,359213246.8781204,359213246.8781204,30.234520687545455,7.963450749250903,24212.552413716487,90.00000000000001,39.32337307706306
1306893716.46,2.111868,6.616415,1601.3,-9.3,2.5,33.9,-1.0,417.1380795366712,373686117.7985268,373686117.7985268,29.067460437442218,7.770569303924493,23721.880374274628,90.0,39.344187818970326
1306893716.67,2.1125129,6.617037,1604.09,-9.2,2.5,33.8,-1.0,404.2155485895138,373575319.0080802,373575319.0080802,30.065517022803736,7.74614498478791,24353.26601519452,87.4,39.365209253790965
1306893716.9,2.1132201,6.6177203,1607.18,-9.1,2.5,33.8,-1.0,405.2152761650831,378389876.2744484,378389876.2744484,28.717061103304268,7.769055663354798,24271.541616130355,86.2,39.38654455562824
1306893717.11,2.1138744,6.6183537,1610.07,-9.0,2.5,33.7,-1.0,411.07547031683833,389520633.5439031,389520633.5439031,29.02499982825465,7.74258386591111,24567.426471485007,88.00000000000001,39.40805592920654
1306893717.33,2.114591,6.6190486,1613.26,-8.9,2.5,33.6,-1.0,430.59062942853456,383519135.8305085,383519135.8305085,30.56979738280438,7.525175990333843,24820.444201442333,89.70000000000002,39.42995772273235
1306893717.54,2.1152265,6.619666,1616.12,-8.8,2.6,33.6,-1.0,400.0992055736464,373570830.49263006,373570830.49263006,30.09861788335999,7.512739674605599,25725.073305912694,92.70000000000002,39.451974345654484
1306893717.75,2.1158964,6.6203179,1619.17,-8.7,2.6,33.6,-1.0,422.5131902374069,386552663.98882204,386552663.98882204,29.496066091727524,7.299881345411691,25954.971595966977,95.2,39.47422062736928
1306893717.96,2.1165382,6.6209435,1622.12,-8.6,2.6,33.5,-1.0,405.0341154473391,377508934.79048723,377508934.79048723,29.044738005365044,7.659971408436179,26243.99036048035,91.99999999999999,39.49662767023891
1306893718.17,2.1171863,6.6215762,1625.13,-8.6,2.6,33.5,-1.0,409.451473707338,381085488.69947344,381085488.69947344,30.024233331760286,7.316068126184011,26807.263550343614,91.6,39.51922609543576
1306893718.59,2.1185074,6.6228691,1631.34,-8.4,2.6,33.5,-1.0,418.0725128956099,397651421.4525927,397651421.4525927,29.9564270331416,7.377139561630791,26273.67149359046,90.89999999999999,39.544503873213536
1306893719.02,2.1198442,6.6241815,1637.75,-8.2,2.6,33.5,-1.0,414.0162115169522,397920761.1656358,397920761.1656358,32.35065427513841,7.680794063674031,26311.2515373911,92.39999999999999,39.572407416520626
1306893719.44,2.1211466,6.6254644,1644.12,-8.1,2.6,33.5,-1.0,413.8834588146185,401779628.38530356,401779628.38530356,31.296645660727048,7.456086464617114,26064.19338716606,92.60000000000001,39.60305155475335
1306893719.65,2.1218104,6.6261196,1647.41,-8.0,2.6,33.5,-1.0,422.51619605905165,407027860.4537866,407027860.4537866,32.767606129573345,7.645608830985173,26293.206808595758,91.60000000000001,39.633848798847836
1306893719.88,2.1225084,6.6268098,1650.91,-8.0,2.6,33.1,-1.0,405.9693287083063,400487225.0075917,400487225.0075917,32.21457359339272,7.743401095729864,26165.198002050398,89.4,39.66511301582071
1306893720.09,2.1231753,6.6274702,1654.28,-7.9,2.8,33.1,-1.0,425.4510667140274,397716145.56451386,397716145.56451386,30.76507190361237,7.740591917994049,25654.378136802614,87.7,39.696515028069186
1306893720.3,2.1238421,6.6281317,1657.68,-7.8,2.8,33.0,-1.0,425.85465365666977,400293338.00584275,400293338.00584275,30.967353468745433,7.653693770667982,25569.846723031595,87.30000000000001,39.728330426144424
1306893720.51,2.1244809,6.6287662,1660.97,-7.8,2.8,33.0,-1.0,408.1613177251964,392466179.9771764,392466179.9771764,32.33740232898984,8.018335815817943,25186.256367404247,86.00000000000001,39.76032955125378
1306893720.74,2.1251915,6.629473,1664.66,-7.7,2.8,32.9,-1.0,414.9625723353284,404359341.9415745,404359341.9415745,30.629312259509014,7.720278351339629,25606.458243001995,88.40000000000002,39.792895168051686
1306893720.95,2.1258708,6.6301499,1668.22,-7.6,2.8,32.9,-1.0,435.34174995279267,406703171.2493734,406703171.2493734,30.005374866361407,7.7684088111531295,24941.924702308974,88.70000000000002,39.82588182596944
1306893721.16,2.1265159,6.6307936,1671.64,-7.6,2.9,32.9,-1.0,413.367396431699,401379302.08351016,401379302.08351016,31.446420696478356,7.52822836853213,25130.51852378148,88.0,39.85673265711555
1306893721.37,2.1271703,6.6314475,1675.13,-7.5,2.9,32.8,-1.0,419.98289602862513,416143128.6216407,416143128.6216407,30.04349631576735,7.169949686455876,25140.482855665112,87.0,39.88534814267985
1306893721.58,2.1278341,6.6321117,1678.71,-7.4,2.9,32.8,-1.0,426.3919245305843,418139787.83135,418139787.83135,30.868171386041702,7.3966170840651,25253.987100182338,86.69999999999999,39.9118278014725
1306893721.79,2.1284667,6.6327456,1682.15,-7.4,2.9,32.7,-1.0,406.48827226266985,409715110.38541275,409715110.38541275,30.91605136114596,7.239600437493305,25010.06801368579,86.80000000000001,39.93842228966148
1306893722.01,2.129143,6.6334242,1685.86,-7.3,2.9,32.7,-1.0,415.2588019144923,428770356.5671447,428770356.5671447,29.992294200438437,7.0351459120809565,25080.42127437897,89.00000000000001,39.96517753900532
1306893722.22,2.1298223,6.6341069,1689.62,-7.3,2.9,32.7,-1.0,437.8168488154293,430979866.3054641,430979866.3054641,28.688565775472167,7.004615875229635,25207.819243568883,90.40000000000002,39.99223134477959
1306893722.44,2.1304986,6.6347874,1693.4,-7.2,3.0,32.6,-1.0,416.0719923968881,416738302.4494001,416738302.4494001,28.789908323603946,7.097191515011534,24439.496530837492,89.10000000000002,40.01957605169123
1306893722.66,2.1311717,6.6354658,1697.19,-7.1,3.0,32.6,-1.0,414.49033692855323,426858548.3534935,426858548.3534935,26.908882882417075,6.875304298813478,24695.50682448912,87.8,40.047303523257284
1306893722.87,2.1318417,6.6361419,1701.0,-7.1,3.0,32.5,-1.0,432.90281907247874,426907031.3148092,426907031.3148092,29.196764255447683,7.140014133316931,23832.18600870302,88.5,40.07512285834039
1306893723.08,2.1325086,6.6368159,1704.82,-7.0,3.0,32.5,-1.0,431.3233233962409,406389228.13270366,406389228.13270366,28.062902547575458,7.2741097414249305,24131.75299087833,87.39999999999999,40.10314123104381
1306893723.3,2.1331723,6.6374876,1708.66,-7.0,3.0,32.5,-1.0,409.82428854689385,414498738.65230644,414498738.65230644,25.994039308899357,7.361362411618876,24420.502936590547,87.7,40.13148112605694
1306893723.51,2.1338298,6.6381538,1712.5,-7.0,3.0,32.4,-1.0,425.91315952010314,427731849.897938,427731849.897938,24.91999110006649,7.649812179003693,25075.583630481142,88.5,40.16008895632815
1306893723.72,2.1344842,6.6388178,1716.35,-6.9,3.1,32.4,-1.0,424.22881166156907,419821717.74427766,419821717.74427766,22.518234567670646,7.505179554742124,24634.512215284594,90.30000000000001,40.18890347951275
1306893724.14,2.1357961,6.6401515,1724.17,-6.8,3.1,32.3,-1.0,425.7940845990374,430313741.52640754,430313741.52640754,21.945999007447675,7.627174334890636,24225.528204167455,89.10000000000001,40.22107102107006
1306893724.35,2.1364504,6.640818,1728.12,-6.8,3.1,32.3,-1.0,425.3351160309291,441641741.2438805,441641741.2438805,21.905473568539996,7.642543628056816,23472.270041373537,87.7,40.253422289661486
1306893724.56,2.1371016,6.6414822,1732.09,-6.7,3.1,32.2,-1.0,423.6930552245266,432017892.54659814,432017892.54659814,22.702197764349794,7.5911694053851555,23076.861223305757,87.6,40.285934319407765
1306893724.77,2.1377528,6.6421472,1736.08,-6.7,3.2,32.2,-1.0,423.9414945697893,433116331.1532773,433116331.1532773,21.435779935332576,7.598695336590793,23641.26708610545,86.0,40.3186071103089
1306893724.98,2.1383977,6.6428067,1740.07,-6.6,3.2,32.2,-1.0,420.28929164033445,441043967.64185584,441043967.64185584,21.478605457257224,7.5545126690312925,23351.490433311996,86.10000000000001,40.351433007071805
1306893725.19,2.1390769,6.6435021,1744.31,-6.6,3.2,32.1,-1.0,443.23071789191346,440639888.3681942,440639888.3681942,19.408844493057376,7.306263834612523,23672.148797416525,84.7,40.38458808143751
1306893725.4,2.1397125,6.6441536,1748.31,-6.5,3.2,32.1,-1.0,414.75693946827056,431891211.4176882,431891211.4176882,20.801277078576284,7.304983458231032,23526.758633620233,84.2,40.41788095107881
1306893725.62,2.1404103,6.6448699,1752.74,-6.5,3.2,32.1,-1.0,435.28297893225,444585919.54306126,444585919.54306126,23.02072917629838,7.286101781537559,23811.69169710743,83.39999999999999,40.451625483012315
1306893725.83,2.1410676,6.6455454,1756.94,-6.4,3.3,32.0,-1.0,429.9429132597402,438610641.344514,438610641.344514,23.858374166118114,7.225948602302808,23107.47540462223,83.7,40.48564560549701
1306893726.26,2.1423852,6.6469022,1765.48,-6.3,3.3,32.0,-1.0,421.2400241957785,436317910.8716622,436317910.8716622,25.368827559274852,7.162921426648603,23279.195973904178,82.39999999999999,40.52325606044014
1306893726.47,2.1430518,6.6475898,1769.85,-6.3,3.3,31.9,-1.0,437.1718119819059,444456927.4891154,444456927.4891154,25.43449164689388,7.130816788294392,23316.786738178234,85.9,40.55822543926778
1306893726.68,2.1437152,6.6482749,1774.24,-6.2,3.3,31.9,-1.0,435.4516058577489,442156797.129031,442156797.129031,26.68690554840921,7.169981160866391,24163.130326609957,83.60000000000001,40.59353165099131
1306893726.91,2.1444097,6.6489932,1778.87,-6.2,3.4,31.9,-1.0,416.2864860634858,438910119.4935295,438910119.4935295,25.72465237885419,7.171722896719084,25013.49522288181,81.89999999999999,40.629343112058685
1306893727.12,2.1450669,6.6496735,1783.29,-6.1,3.4,31.8,-1.0,431.96392911330776,449170677.12182724,449170677.12182724,25.116021857659693,6.909505673272272,24516.25288237343,84.1,40.665483750728846
1306893727.54,2.1463748,6.6510301,1792.19,-6.1,3.4,31.8,-1.0,430.3618512008429,447380977.6186586,447380977.6186586,24.531229241463326,6.968955894177822,24991.989659266932,86.80000000000001,40.70538313830541
1306893727.75,2.1470287,6.6517095,1796.69,-6.0,3.4,31.7,-1.0,430.86755877164217,442052826.71151453,442052826.71151453,24.532765892880096,7.174255972565814,25573.11393893814,87.00000000000001,40.74548156350225
1306893727.97,2.1477136,6.6524221,1801.45,-6.0,3.5,31.7,-1.0,431.21926065561735,455608986.4355121,455608986.4355121,22.697101204632062,7.2253259958501825,25288.377322721768,86.70000000000002,40.78616179097382
1306893728.18,2.1483675,6.653103,1806.02,-5.9,3.5,31.7,-1.0,431.54499459059565,449647071.47815984,449647071.47815984,22.66095578017124,7.160321142769665,24885.888599670627,87.00000000000001,40.826949192548625
1306893728.62,2.1497341,6.6545289,1815.7,-5.8,3.5,31.6,-1.0,430.9621637966657,447958402.72532195,447958402.72532195,22.26080821287916,7.299372765803902,25098.80459921312,87.70000000000002,40.87193169473585
1306893728.83,2.1504189,6.6552447,1820.61,-5.8,3.5,31.6,-1.0,453.4630924883095,455550701.5080802,455550701.5080802,22.44192329169714,7.358778233275281,24996.82955564721,89.5,40.914135325531994
1306893729.04,2.1510694,6.6559254,1825.31,-5.8,3.6,31.6,-1.0,430.7121662875957,445499395.555171,445499395.555171,23.785400107364055,7.526341610993782,25276.92147846477,88.9,40.95659158100006
1306893729.25,2.151723,6.6566101,1830.07,-5.7,3.6,31.5,-1.0,433.0971668333889,450451188.66502506,450451188.66502506,24.0491774298916,7.389446164127822,24564.363835407574,90.10000000000002,40.9993310823124
1306893729.46,2.1523609,6.6572791,1834.76,-5.7,3.6,31.5,-1.0,422.932928742567,461816726.63507456,461816726.63507456,26.59654154506275,7.382839542536638,24015.07625486601,90.2,41.04211651538327
1306893729.67,2.15303,6.6579815,1839.7,-5.6,3.6,31.5,-1.0,444.1847316435984,468757716.5767231,468757716.5767231,26.12735017315023,7.620702588775023,24355.344848293567,90.5,41.085300023694735
1306893729.88,2.1536834,6.6586683,1844.58,-5.6,3.6,31.4,-1.0,433.9982777579561,475229208.43378425,475229208.43378425,28.042198636668513,7.751744262792379,24633.331442462237,90.39999999999999,41.12540610418468
1306893730.09,2.1543337,6.6593525,1849.46,-5.6,3.7,31.4,-1.0,432.219966435348,484385673.6409558,484385673.6409558,29.317161022308547,7.64362401315049,23952.614025900286,89.9,41.16580308581197
1306893730.3,2.1549808,6.6600341,1854.36,-5.5,3.7,31.4,-1.0,430.3865848765221,482833685.2923085,482833685.2923085,31.02681897753317,7.560921646166769,24625.39440827823,92.2,41.206307241542504
1306893730.72,2.156281,6.661406,1864.31,-5.5,3.7,31.3,-1.0,432.92151179946467,478747075.5787273,478747075.5787273,30.159449368028284,7.5592186508821095,24376.72155687022,91.3,41.25092994495457
1306893730.93,2.1569342,6.6620962,1869.37,-5.4,3.8,31.3,-1.0,435.49359759277564,480238355.82326865,480238355.82326865,30.395244206334198,7.362307123477677,24952.32586494006,89.9,41.29201590295982
1306893731.35,2.1582558,6.663495,1879.73,-5.9,3.8,31.2,-1.0,441.1303574881212,475353375.5793275,475353375.5793275,30.320431473119623,7.294607725685082,25513.13680765064,89.9,41.337273995698226
1306893731.56,2.1588839,6.6641609,1884.7,-7.7,3.8,31.2,-1.0,419.4668640859642,475763079.84754634,475763079.84754634,28.794902260821363,7.105948634793,25288.069276922455,87.4,41.38273878135002
1306893731.77,2.1595428,6.6648604,1889.96,-9.9,3.8,31.2,-1.0,440.8452164943859,483137063.08537745,483137063.08537745,27.25793617418945,7.211772464980521,25601.99506422168,87.8,41.42858633165624
1306893731.98,2.1602011,6.6655608,1895.26,-12.6,3.9,31.1,-1.0,441.0324985739489,483537302.18320614,483537302.18320614,25.142050740230058,7.3594578587257296,26169.19189523971,88.19999999999999,41.47490085484084
1306893732.19,2.1608619,6.6662654,1900.62,-15.3,3.9,31.0,-1.0,443.43469257677367,476436405.83740574,476436405.83740574,25.482149254194674,7.181857501780239,25797.827219707433,85.69999999999999,41.52153690033516
1306893732.4,2.1615155,6.6669645,1905.96,-18.3,3.9,30.9,-1.0,439.5299586560998,476977531.9800284,476977531.9800284,24.277791126627974,6.891245747548884,25798.79372067314,86.0,41.56852508931153
1306893732.61,2.16214,6.6676348,1911.1,-21.2,3.9,30.8,-1.0,420.6325534281106,472267877.43002313,472267877.43002313,23.984501207538823,7.083842041108623,25647.193405425365,86.9,41.61571231590821
1306893732.82,2.1627878,6.6683329,1916.48,-24.3,4.0,30.7,-1.0,437.7686457020495,477985012.10584086,477985012.10584086,21.96415729081432,7.224728419193639,25725.447228194185,86.10000000000001,41.66326699657312
1306893733.03,2.1634368,6.6690356,1921.91,-27.1,4.0,30.6,-1.0,440.164066837696,483723270.544325,483723270.544325,22.46339826364334,7.16512710474387,26086.109680111636,88.80000000000001,41.707361484762096
1306893733.24,2.1640837,6.6697399,1927.37,-30.3,4.0,30.4,-1.0,440.3230424611328,486717349.03295773,486717349.03295773,22.209557714349728,7.348712599823157,25576.142883399272,90.30000000000001,41.75176218467461
1306893733.45,2.1647311,6.6704492,1932.88,-33.1,4.0,30.3,-1.0,442.6523460834133,486958321.5282614,486958321.5282614,22.8994114611151,7.592429723915327,25215.867253939883,91.5,41.79245006743927
1306893733.66,2.1653574,6.6711401,1938.25,-36.2,4.1,30.1,-1.0,430.0203441631935,485516707.0861227,485516707.0861227,24.755222038272233,7.720130170490803,25548.204111436484,92.30000000000001,41.833444161927446
1306893733.87,2.1660169,6.6718731,1943.96,-39.1,4.1,29.8,-1.0,455.7492580928739,480533697.6486194,480533697.6486194,23.78622094621193,7.743980491370603,24958.82824718737,92.7,41.874782744604616
1306893734.08,2.1666395,6.6725713,1949.4,-42.2,4.1,29.6,-1.0,432.4761441796733,474648488.0918422,474648488.0918422,25.186443387098986,7.651780751794787,24187.066059045676,92.80000000000003,41.916228501385014
1306893734.29,2.1672582,6.6732715,1954.86,-44.9,4.2,29.3,-1.0,432.63335313295755,481756114.31390935,481756114.31390935,26.90602457591287,7.79681439522586,24340.141114397222,94.40000000000002,41.957750811096304
1306893734.51,2.1679287,6.6740387,1960.83,-47.7,4.2,29.0,-1.0,451.23396711629374,490890697.42946506,490890697.42946506,26.969234016360232,7.875286857720813,24389.142124838072,92.30000000000001,41.99975540427215
1306893734.72,2.1685348,6.6747404,1966.28,-49.9,4.2,28.7,-1.0,430.7536916221656,494146537.30707264,494146537.30707264,26.00540181546185,7.728694243537478,24687.729001976462,93.30000000000001,42.041997311533756
1306893734.93,2.169159,6.6754721,1971.96,-51.4,4.3,28.4,-1.0,447.7929525002972,504980928.85203296,504980928.85203296,25.960778026853802,7.5523063891714255,24614.038764886307,91.50000000000003,42.084468877587994
1306893735.14,2.1697626,6.6761895,1977.53,-52.7,4.4,28.0,-1.0,437.2057996438127,506390762.6236115,506390762.6236115,26.21456675525136,7.571881216151846,24588.375492999938,90.30000000000001,42.127047617745475
1306893735.35,2.1703514,6.676899,1983.02,-53.7,4.4,27.6,-1.0,430.70608229645836,503027788.7774686,503027788.7774686,27.648591394636817,7.341300561127045,24538.73136622212,88.4,42.16964932378222
1306893735.56,2.1709419,6.6776212,1988.62,-54.7,4.4,27.2,-1.0,436.7934926466987,511416902.07082856,511416902.07082856,26.08572729687092,7.099914215136507,24026.557031814256,85.1,42.21231992745676
1306893735.78,2.1715723,6.6784046,1994.69,-55.6,4.4,26.8,-1.0,450.63921932176993,519843209.4007075,519843209.4007075,25.163984104116544,6.9434792281321,24171.131950044535,84.4,42.25552640164749
1306893735.99,2.1721307,6.6791102,2000.15,-56.4,4.5,26.4,-1.0,422.9476570781744,508175716.2829036,508175716.2829036,27.46905631805975,6.81730817440692,25136.977612508184,83.10000000000001,42.298541493511
1306893736.21,2.1727299,6.6798803,2006.12,-57.0,4.5,25.9,-1.0,439.138299379433,525446579.2104289,525446579.2104289,27.81838449694451,6.785119104935811,24920.359465288737,84.7,42.3419623159082
1306893736.44,2.1733406,6.6806803,2012.32,-57.5,4.5,25.4,-1.0,466.19789904835994,524033784.31691676,524033784.31691676,28.28239061298053,6.71018309958053,25399.310981028782,85.8,42.385949629993945
1306893736.66,2.17392,6.6814541,2018.32,-57.9,4.6,24.9,-1.0,469.2457630208393,525942711.22229856,525942711.22229856,29.510356846992575,6.9455090519361855,24486.651222589022,87.9,42.42995990995894
1306893736.87,2.1744738,6.6822083,2024.17,-58.3,4.6,24.5,-1.0,476.7543863499099,554524402.6659607,554524402.6659607,29.757660396358773,7.068095860934702,25102.914583781603,84.0,42.47427640164749
1306893737.08,2.1749901,6.6829251,2029.74,-58.6,4.6,24.0,-1.0,452.64156181046275,571574753.1946384,571574753.1946384,29.486720295704927,7.2244050360303325,25343.734328342543,84.39999999999999,42.51850868511206
1306893737.3,2.175549,6.6837169,2035.91,-58.9,4.7,23.5,-1.0,474.1908265176204,610942808.6346959,610942808.6346959,28.312175425466098,7.198102443256989,25675.610219508737,83.69999999999999,42.56320028616192
1306893737.51,2.1760484,6.6844393,2041.54,-59.1,4.7,23.0,-1.0,452.5772807812733,647179846.1355128,647179846.1355128,28.446770828359533,7.339252280372184,26048.138130820582,83.30000000000001,42.60799906131503
1306893737.72,2.1765477,6.6851767,2047.29,-59.2,4.7,22.5,-1.0,459.77003108683533,682298623.0348905,682298623.0348905,30.384334046143024,7.47932009714959,26054.722630240354,83.10000000000001,42.65291266586445
1306893737.93,2.1770556,6.6859432,2053.29,-59.4,4.8,22.0,-1.0,475.1209614630031,702227059.9692969,702227059.9692969,28.40964566349047,7.50038052591118,25437.218238735422,84.9,42.69777268336227
1306893738.14,2.1775275,6.6866714,2058.99,-59.5,4.8,21.5,-1.0,451.0693072834205,709708518.140937,709708518.140937,26.526180775816215,7.793057023824217,25227.804933731357,84.2,42.74281642789421
1306893738.35,2.1779917,6.6874037,2064.74,-59.6,4.8,21.0,-1.0,451.9271073468286,713002215.8177565,713002215.8177565,26.481904981251883,7.768583032194227,26217.710823139085,83.10000000000001,42.7876917559782
1306893738.57,2.1784827,6.6881967,2070.98,-59.7,4.9,20.5,-1.0,464.5007739348163,716372274.0122942,716372274.0122942,26.162356789496567,7.6426586789536834,26274.946456658872,80.10000000000001,42.83259770523454
1306893738.78,2.1789236,6.6889263,2076.74,-59.8,4.9,19.9,-1.0,447.1365893690243,704712749.0817513,704712749.0817513,25.628890131340544,7.319727688333307,27081.678444579095,79.6,42.87731992745676
1306893739.0,2.1793875,6.6897129,2082.96,-59.9,4.9,19.4,-1.0,457.85143969204194,712692318.3452386,712692318.3452386,26.162022953505456,7.089743033621735,27000.590220303657,82.4,42.922325395523245
1306893739.22,2.1798355,6.6904927,2089.14,-59.9,5.0,18.8,-1.0,452.445868322813,720340341.5597311,720340341.5597311,28.828552173352605,6.831690396018501,26586.83594797549,84.50000000000001,42.96779783646813
1306893739.44,2.1802738,6.6912761,2095.38,-60.0,5.0,18.3,-1.0,452.9408803832277,707110251.7046533,707110251.7046533,29.6123180741646,7.030860290631967,25787.98265045927,86.30000000000001,43.01332386446463
1306893739.65,2.1806736,6.6920099,2101.23,-60.0,5.0,17.8,-1.0,443.4416408987614,714314223.3153331,714314223.3153331,30.016690137414805,6.95302735597298,25620.02421957741,89.4,43.05901830890908
1306893739.86,2.1810796,6.6927755,2107.36,-60.0,5.1,17.2,-1.0,460.20228376124203,717722957.0215423,717722957.0215423,29.763229383072247,7.085838688869764,26438.9491586324,90.7,43.105003654490886
1306893740.08,2.1814761,6.6935446,2113.54,-60.1,5.1,16.6,-1.0,440.85324401163314,700732015.9468632,700732015.9468632,30.808467368188236,7.1801605523903955,26641.619291863462,90.60000000000001,43.151126795348276
1306893740.29,2.1818472,6.6942851,2119.51,-60.1,5.1,16.1,-1.0,443.179367964274,711876573.4803351,711876573.4803351,32.17479921304958,7.212706368730815,26228.117801262037,94.20000000000002,43.19745662911905
1306893740.5,2.1822143,6.6950395,2125.61,-60.1,5.2,15.5,-1.0,449.6420195219342,715090147.8361341,715090147.8361341,31.67620137537861,7.421974766670872,25249.01841127426,92.70000000000002,43.244054398147924
1306893740.71,2.1825704,6.6957935,2131.73,-60.1,5.2,15.0,-1.0,448.22711660960437,703137898.2766625,703137898.2766625,30.122284382056407,7.754491453041952,25035.786304360445,94.2,43.29056030365973
1306893740.92,2.1829089,6.696533,2137.75,-60.2,5.2,14.5,-1.0,438.7649816419363,707315902.3195306,707315902.3195306,29.792085643305224,7.901158432359938,25135.72791423545,91.7,43.337265246791844
1306893741.13,2.1832323,6.6972614,2143.7,-60.2,5.3,13.9,-1.0,431.4441457407153,708959774.2158493,708959774.2158493,28.505689300082246,7.904519680050344,25152.157727911315,89.39999999999999,43.38376349701056
1306893741.34,2.1835557,6.6980139,2149.87,-60.2,5.3,13.3,-1.0,443.76650952612476,707925657.4391264,707925657.4391264,27.965155320848556,8.234811455972478,25571.111655453515,87.8,43.430254091936206
1306893741.56,2.1838709,6.6987729,2156.12,-60.2,5.3,12.8,-1.0,427.0662613150064,704773228.4884785,704773228.4884785,28.260006567389425,8.200265544412938,26014.615639194486,85.8,43.476752342154924
1306893741.78,2.184186,6.6995594,2162.62,-60.2,5.4,12.2,-1.0,440.45881562035,716182974.5510697,716182974.5510697,28.175765641652468,8.212948162227866,25746.99239378982,85.5,43.523748186424385
1306893741.99,2.1844677,6.7002887,2168.67,-60.2,5.4,11.7,-1.0,427.5961887333481,701994504.3690714,701994504.3690714,26.410218451930326,8.06390665898089,25532.216223452648,87.20000000000002,43.57068278834915
1306893742.2,2.1847479,6.7010418,2174.94,-59.9,5.4,11.1,-1.0,439.7019866867407,697277533.9041518,697277533.9041518,28.213717796212855,8.10142918011368,26142.87634434151,85.30000000000001,43.6176862879117
1306893742.41,2.1850172,6.7017941,2181.23,-58.9,5.4,10.5,-1.0,438.16752142103826,687563248.3826829,687563248.3826829,26.775895883241603,7.760956127658415,26582.099049559223,85.1,43.66493475685309
1306893742.62,2.1852638,6.7025102,2187.26,-57.4,5.4,10.0,-1.0,417.55761803899,675900756.4730403,675900756.4730403,25.116228456176966,7.849072211673555,27355.59557723618,88.4,43.71212963874285
1306893742.83,2.1855079,6.7032463,2193.49,-55.4,5.4,9.5,-1.0,427.68991744461727,677023592.8347979,677023592.8347979,25.186399080124243,7.723371427736876,27003.210080029847,90.0,43.759408728856585
1306893743.05,2.1857579,6.7040302,2200.19,-53.0,5.4,9.0,-1.0,433.5568592632693,677238558.0330747,677238558.0330747,24.246521292257874,7.611118337441322,26272.826191199918,91.10000000000001,43.80720837890033
1306893743.26,2.1859769,6.7047429,2206.33,-50.5,5.4,8.5,-1.0,413.4319011883077,677563929.989378,677563929.989378,26.858524489653366,7.83782436816399,25413.049496592816,93.9,43.85515347951275
1306893743.47,2.1861944,6.7054751,2212.7,-48.3,5.4,8.1,-1.0,423.55985679094897,685644109.9383466,685644109.9383466,26.28200136749131,7.4982508141817945,24898.283165357698,94.60000000000001,43.903251685986945
1306893743.69,2.1864174,6.7062511,2219.52,-45.8,5.4,7.8,-1.0,427.6670411146377,680970648.5949671,680970648.5949671,25.705327836574426,7.347944510687127,24641.56481389182,97.5,43.95178624416717
1306893743.91,2.1866307,6.7070185,2226.33,-43.3,5.4,7.4,-1.0,422.6505458457283,662400206.1394155,662400206.1394155,24.239326772777073,7.406339100472582,24387.275010487578,95.80000000000001,44.00055811643314
1306893744.13,2.1868364,6.7077806,2233.16,-40.7,5.4,7.1,-1.0,419.56145477404544,664475466.6188177,664475466.6188177,24.5069385363244,7.259907055222323,23842.87804533003,95.10000000000001,44.049927101559994
1306893744.35,2.1870331,6.7085306,2239.93,-38.2,5.5,6.8,-1.0,412.9198684359776,652685458.4049072,652685458.4049072,23.518212880860577,6.994060163023123,23338.76361542882,96.2,44.099678851341274
1306893744.57,2.1872252,6.7092823,2246.78,-35.7,5.5,6.5,-1.0,413.4625413359506,642614509.2793473,642614509.2793473,24.153828027301984,7.237157519459686,22695.661614801378,95.9,44.1498592975355
1306893744.78,2.1874098,6.7100219,2253.57,-33.4,5.5,6.3,-1.0,425.13222104948346,651401571.4826789,651401571.4826789,25.2087567245335,7.300398037089147,22358.931910008123,92.9,44.20062154600444
1306893745.0,2.1875906,6.7107631,2260.43,-31.3,5.5,6.0,-1.0,407.60291306577346,644504940.3490105,644504940.3490105,24.324454408204954,7.4319633611616105,22161.09780244186,92.3,44.25186607793795
1306893745.21,2.1877681,6.711506,2267.35,-29.4,5.5,5.8,-1.0,426.44099928145584,639219059.6079873,639219059.6079873,24.55777789534446,7.557880308576859,22439.939436857236,93.19999999999999,44.303279026319395
1306893745.42,2.1879298,6.7121959,2273.81,-27.4,5.5,5.6,-1.0,397.68405042910587,629300617.3255776,629300617.3255776,23.0360863954864,7.401899155611594,23294.170991866737,91.89999999999999,44.35493694407968
1306893745.63,2.1880962,6.7129182,2280.62,-25.7,5.6,5.5,-1.0,414.9829510208558,626282147.2282997,626282147.2282997,24.19609552610743,7.522967685835447,23657.54030007308,89.6,44.406931694735846
1306893745.84,2.1882587,6.7136354,2287.42,-24.0,5.6,5.3,-1.0,412.06084986175,617826882.6165286,617826882.6165286,24.680273758142878,7.514443654430873,23566.099532837237,87.80000000000001,44.45891113480584
1306893746.06,2.1884258,6.7143847,2294.56,-22.3,5.6,5.2,-1.0,410.9107262968249,611867591.6815264,611867591.6815264,24.42199645201154,7.329559037707151,23909.531336588803,89.5,44.511143199547746
1306893746.28,2.1885892,6.7151288,2301.68,-20.8,5.6,5.0,-1.0,408.0407120847635,609782525.0476993,609782525.0476993,24.38184054795219,7.5148865574828765,24413.28356938471,87.7,44.56359726778921
1306893746.5,2.18875,6.715871,2308.82,-19.4,5.6,4.9,-1.0,406.9800786862535,607225453.183306,607225453.183306,23.262515610289967,7.657671898885543,24495.537689630062,86.8,44.61633458187496
1306893746.72,2.1889076,6.716608,2315.93,-18.0,5.6,4.8,-1.0,404.21669572749687,599401700.6761718,599401700.6761718,24.168171567569747,7.6859952262763365,24656.802517581164,83.70000000000002,44.669270933581004
1306893746.94,2.1890629,6.7173432,2323.06,-16.8,5.7,4.7,-1.0,403.21589831194837,595625381.683593,595625381.683593,25.923641071558727,7.445877327125908,24239.90468491462,86.00000000000001,44.72246756525203
1306893747.16,2.1892169,6.7180799,2330.23,-15.6,5.7,4.6,-1.0,403.85613476069227,598481898.34702,598481898.34702,26.514754100451007,7.08232266284157,24937.29292017712,87.3,44.77590151100881
1306893747.38,2.1893695,6.7188181,2337.44,-14.5,5.7,4.5,-1.0,404.5877353293896,587411414.646093,587411414.646093,27.288084620393185,7.223956564090631,24858.58633157761,86.10000000000001,44.82955746026516
1306893747.6,2.189521,6.7195579,2344.69,-13.5,5.7,4.4,-1.0,405.3359714069997,589725156.7516857,589725156.7516857,27.497487734906482,7.1800944359880745,24612.328181234832,85.2,44.88381817767548
1306893748.04,2.1898175,6.7210253,2359.13,-11.7,5.7,4.2,-1.0,402.1041487908195,578983460.3268529,578983460.3268529,27.49963474752135,7.05432038502223,23941.999791945655,87.4,44.943919883712226
1306893748.46,2.1900925,6.7224066,2372.8,-10.3,5.7,4.1,-1.0,396.7778744727303,570246836.0920368,570246836.0920368,25.316324596588508,7.2653972734723915,23995.739181650326,88.9,45.00928077610068
1306893748.89,2.1903698,6.7238178,2386.82,-9.0,5.7,4.1,-1.0,395.92437756303883,563920910.3185217,563920910.3185217,27.4137223203217,7.189324241604596,24590.23155833125,88.0,45.07990851013392
1306893749.33,2.1906484,6.7252515,2401.13,-7.8,5.7,4.1,-1.0,393.2010209662392,559669903.1434255,559669903.1434255,27.146686870168356,7.209875912129842,24380.17932277063,90.39999999999999,45.1560403998977
1306893749.76,2.1909208,6.7266642,2415.28,-6.8,5.7,4.1,-1.0,396.22450164112473,555881009.5980204,555881009.5980204,26.98197698895889,7.265350791219879,24645.81864959504,92.60000000000001,45.23753865011643
1306893750.2,2.1911876,6.7280544,2429.25,-6.0,5.9,3.7,-1.0,381.9813944241908,550810917.346191,550810917.346191,24.82967343474907,7.333469313066086,24576.29366566836,94.5,45.32428843139377
1306893750.63,2.1914507,6.7294273,2443.08,-5.3,5.9,3.6,-1.0,385.73098230841265,545258785.9292,545258785.9292,22.6820737119288,7.557603988675379,24760.49346138204,93.7,45.416167259040314
1306893751.06,2.1917088,6.7307727,2456.66,-4.7,5.9,3.6,-1.0,378.52672740846015,535472137.5797258,535472137.5797258,24.199973006813856,7.566813738609705,24542.230273637673,92.0,45.51295312955649
1306893751.49,2.191958,6.7320675,2469.77,-4.2,5.9,3.5,-1.0,365.298171657131,525286565.11650777,525286565.11650777,25.2792179547782,7.5404361433400275,24213.626866620445,92.0,45.61425562299481
1306893751.91,2.1921995,6.7333165,2482.43,-3.7,5.9,3.5,-1.0,361.1079582897946,515514862.20824003,515514862.20824003,25.692385608920493,7.391725604115301,24081.08691914012,91.2,45.71969962999394
1306893752.34,2.1924443,6.7345768,2495.23,-3.2,6.0,3.4,-1.0,356.29949389886656,502254118.0592374,502254118.0592374,23.36362055765236,7.645426981493758,24796.975909942008,92.6,45.82388816892657
1306893752.77,2.1926864,6.7358164,2507.84,-2.9,6.0,3.4,-1.0,350.91080978529243,486754072.9073066,486754072.9073066,22.946300659373136,7.769392690158191,25211.033422285924,90.5,45.92726524679184
1306893753.2,2.1929245,6.7370281,2520.18,-2.5,6.0,3.4,-1.0,343.6319508145457,469414244.98034924,469414244.98034924,20.32877736031382,7.767241005386037,24389.94261507888,89.6,46.02935623541826
1306893753.63,2.1931609,6.7382244,2532.38,-2.2,6.2,3.4,-1.0,339.6026300217638,448162043.5970932,448162043.5970932,21.968993866614046,7.828571196678837,24375.241821570264,86.89999999999999,46.12983195720303
1306893754.06,2.1933943,6.7393979,2544.36,-1.9,6.2,3.4,-1.0,333.6971228530232,424192179.3612512,424192179.3612512,22.876658651621135,7.9202308190691175,23964.021508314137,86.3,46.228646480387646
1306893754.48,2.1936243,6.7405473,2556.11,-1.7,6.2,3.4,-1.0,334.5899045125607,403823522.67462295,403823522.67462295,24.938410038089074,7.793903050501187,24529.00609874405,87.19999999999999,46.32576152850663
1306893754.91,2.1938518,6.7416764,2567.66,-1.5,6.4,3.4,-1.0,322.10542378060137,381796613.7570183,381796613.7570183,25.02100901544773,7.644361632310169,24929.887999353028,85.60000000000001,46.42113116980147
1306893755.34,2.1940773,6.7427882,2579.04,-1.3,6.4,3.4,-1.0,317.615155990867,363378168.8290226,363378168.8290226,23.204058328331453,7.6793450140659445,25175.804112576705,84.4,46.514816646616865
1306893755.76,2.1943005,6.7438808,2590.23,-1.1,6.5,3.4,-1.0,319.4284346130351,347416302.7107626,347416302.7107626,21.011783679637265,7.708058052937116,25875.63557099984,86.70000000000002,46.60703230715931
1306893757.03,2.1949556,6.7470409,2622.64,-0.7,6.5,3.4,-1.0,306.74962667765186,330944149.3017469,330944149.3017469,21.139604291214418,7.795819921467782,26163.787283305035,88.19999999999999,46.71436717155126
1306893757.87,2.1953811,6.749054,2643.28,-0.7,6.7,3.4,-1.0,296.5005317443881,315397976.3094136,315397976.3094136,21.114585258375964,7.721827048696763,25867.179465495206,87.89999999999999,46.82770378572449
1306893758.29,2.1955904,6.7500327,2653.3,-0.7,6.8,3.1,-1.0,289.07032806330255,298982313.8740211,298982313.8740211,23.502638456779213,7.745197065463019,25714.929554090162,90.1,46.93905767898781
1306893758.71,2.1958009,6.7510096,2663.3,-0.5,6.8,3.1,-1.0,288.66904173730086,281667038.9622751,281667038.9622751,25.00460825615947,7.940471912636916,26544.547162774394,91.80000000000001,47.04862023366848
1306893759.98,2.1964295,6.7538797,2692.67,-0.4,6.8,3.1,-1.0,281.264609000962,264315268.518083,264315268.518083,24.527806886076593,7.771342588804847,26903.501083042414,93.1,47.17132692658187
1306893764.64,2.1986555,6.7634899,2791.36,-0.1,6.8,3.1,-1.0,259.24683794663304,247742301.90637505,247742301.90637505,23.449818668605428,7.73948219221835,26856.03073673857,94.59999999999998,47.36041266586446
1306893765.07,2.1988537,6.7643043,2799.74,-0.1,7.7,3.1,-1.0,240.49719709300066,228978946.9999893,228978946.9999893,23.689090033749444,7.821494912391779,26149.538337937043,93.19999999999997,47.54691857137627
1306893766.76,2.1996323,6.7674388,2832.0,-0.0,7.7,3.1,-1.0,236.15859847217712,212994053.62782967,212994053.62782967,23.71371254127812,7.668926430036649,25805.43619609559,93.89999999999999,47.749278588874084
1306893767.18,2.1998268,6.7682065,2839.9,-0.0,8.0,3.1,-1.0,233.22133705783347,195279428.72826603,195279428.72826603,24.283065836580825,7.786703610509471,25783.83857716721,96.6,47.94897456437715
1306893767.6,2.2000185,6.7689564,2847.62,-0.0,8.2,3.1,-1.0,228.49214470333968,176607454.18511182,176607454.18511182,25.51606891878039,7.829432865038395,25301.10610006624,96.4,48.14601415317854
1306893768.44,2.200397,6.7704212,2862.69,-0.0,8.0,3.0,-1.0,223.8121432944107,159470244.28175986,159470244.28175986,23.889332609751282,7.79742012088679,24596.97738924109,98.5,48.32977946376472
1306893768.86,2.2005849,6.7711563,2869.97,-0.0,6.1,2.7,-1.0,224.4229558245522,142464689.18555793,142464689.18555793,25.70479395940258,7.922214812463924,24318.689352297748,96.5,48.50331730278485
1306893769.28,2.2007685,6.7719015,2876.41,-0.0,5.4,2.4,-1.0,226.75425419430147,126743928.87640882,126743928.87640882,25.756168452347474,7.727293460993631,24831.487823051648,93.70000000000002,48.67411454687934
1306893769.7,2.200944,6.7726277,2881.77,-0.4,5.4,2.4,-1.0,221.40837455281246,113983227.71020247,113983227.71020247,24.85073808053961,7.590276670037208,24335.879949728926,91.50000000000001,48.84135973498082
