timestamp,longitude,latitude,altitude,roll,pitch,yaw,heading,air_speed,engine_0,temperature_in,humidity_in,pressure_in,heart_rate,oxygen_mask
1306893631.74,9.0233577,3.6329568,466.74,-1.0,1.3,-1.0,-1.0,74.83708283736742,7830065.567222012,25.53693228003113,7.82704827995282,25512.84465594945,96.4,34.79295631085618
1306893632.16,9.0235654,3.632746,466.84,-1.0,4.0,-1.0,-1.0,74.83708283736742,7021181.356035621,24.692154172563775,8.170725243596195,24936.525214100206,95.5,34.78066956544936
1306893632.58,9.0237708,3.6325375,466.9,-1.0,5.8,-1.0,-1.0,74.12901876081644,6220400.186630446,27.36222319459142,8.285997555031436,25039.181689269986,93.49999999999999,34.77963610088243
1306893633.01,9.023989,3.6323161,466.95,-1.0,7.0,-1.0,-1.0,76.69134272031464,5584972.070905885,28.38519870950199,8.151284606842196,24756.61054032026,96.0,34.77914616212477
1306893634.5,9.024785,3.6315082,467.03,-1.0,8.7,-1.0,-1.0,80.52926948372041,5334767.885678555,28.346397543615925,7.8656253337089685,25469.54188072533,97.1,34.779000711556094
1306893634.92,9.025017,3.6312727,467.06,-1.0,9.0,-1.0,-1.0,83.18128846266701,5334767.885678554,28.346397543615925,7.8656253337089685,25469.54188072533,97.1,34.779000711556094
1306893635.36,9.0252679,3.631018,467.22,-1.0,9.3,-1.0,-1.0,85.61358120910553,5584972.070905883,28.385198709501985,8.151284606842196,24756.610540320267,96.0,34.779146162124775
1306893635.79,9.0255179,3.6307642,467.59,-1.0,9.7,-1.0,-1.0,87.23211390883581,6220400.186630446,27.36222319459141,8.285997555031438,25039.181689269986,93.49999999999999,34.77963610088243
1306893636.22,9.0257713,3.6305069,468.25,-1.0,9.9,-1.0,-1.0,88.34609305431447,7021181.35603562,24.692154172563775,8.170725243596195,24936.525214100206,95.5,34.78066956544936
1306893639.24,9.027675,3.6285677,482.89,-1.0,10.1,-1.0,-1.0,94.50535571099894,7830065.567222013,25.53693228003113,7.82704827995282,25512.844655949455,96.4,34.79295631085618
1306893640.95,9.0288588,3.6273524,499.08,-0.2,10.1,-1.0,-1.0,109.36406038359853,8594926.268445069,26.02706613992499,8.194890235749876,25279.051559618805,97.20000000000002,34.817713528703955
1306893641.79,9.0294742,3.626717,509.18,-0.2,9.9,-1.0,-1.0,115.77029804338785,9575914.077180738,26.761402579197387,7.957634943586301,25525.18268134707,98.10000000000002,34.85012603964009
1306893642.64,9.0301145,3.6260531,520.73,-0.4,9.9,143.5,-1.0,119.13337636684591,10958007.81268201,24.390685254599852,7.911720871905667,25661.92755222542,99.30000000000001,34.89133448233474
1306893643.9,9.0311045,3.6250211,540.3,-0.6,9.7,143.5,-1.0,124.43427406033392,12920126.102204109,25.236140370518857,8.000247944188095,26111.190565433182,98.8,34.947486057137894
1306893644.33,9.0314495,3.6246601,547.51,-0.7,9.7,143.5,-1.0,127.27155743210041,15498831.946689984,23.424408480237346,8.257315203736423,25288.345708063658,99.5,35.009095855913046
1306893644.75,9.0317965,3.6242964,554.83,-0.8,9.5,143.4,-1.0,130.9664259363879,18491174.38814254,25.520291243154585,8.259616894742203,25322.75460050073,98.39999999999999,35.07628636334962
1306893645.18,9.032159,3.6239157,562.39,-0.9,9.2,143.4,-1.0,133.43607867993475,21490935.71945984,25.192675648696042,8.122395656718545,25818.73271615191,100.19999999999999,35.149141787671574
1306893645.62,9.03253,3.6235255,569.92,-1.0,9.0,143.4,-1.0,133.64076319498474,24289273.670463346,26.34233630538201,7.942105785859122,25063.26472775488,101.39999999999999,35.227478401844806
1306893646.04,9.0328917,3.6231447,576.93,-1.1,8.8,143.4,-1.0,136.16646322590438,26604221.74173424,26.720939013902928,7.90346029935389,25217.98319010609,101.19999999999999,35.31067612712914
1306893646.47,9.0332681,3.6227478,583.83,-1.1,8.8,143.3,-1.0,138.30132743467294,28456975.126458347,25.03617311636144,7.99931836572062,25101.222075954578,100.70000000000002,35.38794865556309
1306893646.89,9.0336485,3.6223465,590.36,-1.4,8.4,143.3,-1.0,142.62951410776876,29974525.899245497,24.42187632908902,7.903968282487748,25874.875855963823,100.4,35.45782617087368
1306893647.31,9.0340264,3.6219477,596.39,-1.5,8.3,143.3,-1.0,141.7651575858427,31508959.683108624,24.557078293375287,7.895466275267369,26263.62014291491,98.0,35.524587981897305
1306893648.15,9.0348089,3.6211221,607.49,-1.8,8.3,143.3,-1.0,146.24970097388382,32747895.011912953,25.45938872997569,7.624619861189455,26449.208059466768,98.4,35.59100530473195
1306893648.58,9.0352237,3.6206848,612.75,-1.9,8.4,143.3,-1.0,150.77261844037454,34159013.338413745,23.617123672852607,7.454956308885956,26404.63176170004,97.4,35.646467903157145
1306893649.0,9.0356265,3.6202607,617.67,-1.9,8.6,143.1,-1.0,149.840366229154,35953880.586408764,24.52812488710738,7.399990242264389,26505.501008401177,95.30000000000001,35.70017743946511
1306893649.44,9.0360637,3.6198018,623.0,-1.9,8.9,143.1,-1.0,154.63438802694301,37440862.226023436,21.83708803745841,7.214797375305229,26808.058636171925,94.00000000000001,35.75236357244849
1306893649.86,9.0364889,3.6193572,628.31,-1.9,9.1,143.1,-1.0,157.03393023785554,39352547.13583582,20.8876636474441,7.269173856064197,26950.5976774963,93.80000000000001,35.80282726448698
1306893650.29,9.0369415,3.6188857,634.18,-1.9,9.3,142.9,-1.0,162.41879371289775,41449936.16889154,19.972440291469102,7.4405667864720755,27461.651680267998,93.70000000000002,35.8520201778728
1306893650.71,9.0373823,3.6184282,640.17,-1.9,9.5,142.9,-1.0,161.75944517234893,43724629.553091384,19.969484532830986,7.2758255943030905,27694.218574673294,93.40000000000002,35.90043225136361
1306893651.15,9.0378512,3.6179435,646.84,-1.9,9.6,142.9,-1.0,163.6539268924854,45787813.64204387,20.354831940969145,7.3772284406169,27724.07384061322,92.00000000000001,35.9486682531134
1306893651.58,9.0383142,3.6174667,653.69,-1.9,9.6,142.7,-1.0,164.99189039985023,48149856.22372473,22.31248433380901,7.164389317045911,27196.510898196844,89.80000000000001,35.99714922424201
1306893652.0,9.0387772,3.6169917,660.76,-1.9,9.6,142.7,-1.0,168.36841267291837,49881919.48636253,22.75137792395055,7.448664481946784,26684.224172076698,89.80000000000001,36.046426345851806
1306893652.43,9.0392588,3.6164993,668.34,-3.8,11.0,142.7,-1.0,170.55372715966675,51322552.26866075,23.861274648942043,7.525618788538589,26091.856176229514,87.60000000000001,36.0930088042945
1306893652.85,9.0397416,3.6160099,676.63,-21.8,11.5,142.2,-1.0,173.97241839539976,52870746.75083262,23.913149114639644,7.703501093954506,25749.407359258566,86.3,36.14191081654297
1306893653.28,9.0402392,3.6155191,685.55,-38.4,10.4,141.3,-1.0,172.41030497569497,54460108.424613886,24.128747964628786,7.754486420014652,26504.711939939596,85.39999999999999,36.19387494602678
1306893653.72,9.0407678,3.6150159,694.55,-41.7,9.1,140.4,-1.0,174.68719968874,55599776.40521969,26.354392638304017,7.804673527058443,25725.90741122617,88.0,36.24864856807403
1306893654.14,9.0412772,3.6145454,702.36,-46.4,8.3,139.7,-1.0,172.97562330474508,56151160.68717506,24.98496661032472,7.62853331209192,25662.25511064933,85.5,36.305336013393365
1306893654.56,9.0417976,3.6140785,709.38,-52.0,8.1,138.9,-1.0,173.4458704487983,56033612.68793489,24.5606936913489,7.373786151327008,25432.66932504556,84.5,36.362903817417866
1306893654.99,9.0423332,3.6136152,715.64,-54.0,7.7,137.9,-1.0,170.49826142067155,54770911.130202785,25.51581293645203,7.543125862673179,24809.816468742327,82.3,36.42067831435575
1306893655.41,9.0428772,3.6131633,721.08,-55.3,7.4,136.7,-1.0,173.04065691701672,53061654.955508985,25.56519004219815,7.732483762882028,24517.893885405134,82.69999999999999,36.47751121024375
1306893655.84,9.043429,3.6127249,725.76,-57.1,7.4,135.4,-1.0,167.38504320027113,51470660.670362666,23.84470183216379,7.779483105431986,24420.191023513155,82.2,36.532682907531594
1306893656.26,9.043994,3.6122987,729.81,-58.1,7.4,133.9,-1.0,170.47718487589765,50199317.71778992,22.28739223274375,7.442038622297466,24122.033759097314,83.4,36.58554270630675
1306893656.68,9.0445743,3.6118851,733.31,-58.5,7.4,132.3,-1.0,170.05246160124778,49031175.294123024,21.65879558947086,7.4671449959743015,24076.223704055603,85.2,36.63527914550185
1306893656.89,9.0448714,3.6116829,734.88,-58.8,7.4,131.5,-1.0,170.27560852896076,48120582.25429735,23.769950727301996,7.452739253604251,23647.745707007998,87.4,36.679871227741565
1306893657.32,9.0454812,3.611288,737.7,-59.3,7.4,129.7,-1.0,166.89916026772514,46969923.71334404,22.674269468631643,7.229431862814306,23603.893644568314,88.30000000000001,36.71979358119739
1306893657.74,9.0461051,3.6109114,740.12,-59.5,7.4,127.7,-1.0,169.5513286847154,46401281.41424698,21.371228535958636,7.144548857834295,24451.78115652317,88.0,36.75467875180105
1306893658.18,9.0467658,3.6105421,742.26,-59.7,7.4,125.6,-1.0,166.3861370910062,46001786.82809651,22.504232149380968,7.165748232984818,23917.64010643978,89.2,36.78522337122364
1306893658.61,9.047416,3.6102073,744.03,-59.9,7.4,123.6,-1.0,162.94321358761758,47028099.30729991,25.134516843153932,7.445448267633285,24309.103240325374,89.7,36.81174896177482
1306893659.05,9.0481097,3.6098802,745.62,-59.9,7.5,121.3,-1.0,164.85353973186096,49861370.692326345,24.44687756831668,7.594549285814498,24862.676546776744,90.10000000000001,36.83469953045373
1306893659.48,9.0487954,3.6095865,746.95,-59.9,7.6,118.9,-1.0,162.4975063310973,52333086.336336724,25.520596030306884,7.377493943025094,24675.56397383618,88.40000000000002,36.85450377367333
1306893659.9,9.0494832,3.6093202,748.08,-59.9,7.7,116.6,-1.0,162.59801405693594,56210540.15950665,26.671215056172223,7.4373489688566625,25160.084553828885,87.90000000000002,36.87159038784655
1306893660.33,9.0501892,3.6090757,749.09,-60.1,7.8,114.2,-1.0,159.35221245802947,59787928.7305261,28.538900129045874,7.435050871886059,25036.958617948058,89.2,36.88634979292092
1306893660.75,9.0508787,3.6088643,749.95,-60.1,8.0,111.8,-1.0,156.13020347477718,63155495.70683216,27.720921139261325,7.508011835382316,25582.27569450501,87.2,36.89908820061996
1306893661.17,9.0515785,3.6086769,750.72,-60.1,8.1,109.3,-1.0,155.40209666282163,66586348.62600379,26.307275107928564,7.580732268818743,25899.75395646406,86.0,36.91121418487193
1306893661.6,9.0523006,3.6085116,751.42,-60.1,8.3,106.7,-1.0,153.6682466522854,70546518.91966484,25.61344905662966,7.623576017753336,25931.696770553935,88.00000000000001,36.92171724698917
1306893662.03,9.0530269,3.6083737,752.06,-60.1,8.5,104.1,-1.0,152.3097167747527,73547324.19159411,25.63969340306659,7.709216731651309,25587.883496310977,87.60000000000001,36.930857666936674
1306893662.5,9.0538215,3.608255,752.7,-60.1,8.7,101.1,-1.0,150.1886582221339,76340668.02611083,25.039898613916833,7.841862849977959,25454.84853719602,88.2,36.93884979292092
1306893662.94,9.0545627,3.6081747,753.24,-60.1,8.9,98.3,-1.0,147.8648453747418,78363576.79849051,24.707692244369134,7.566136172145189,25434.9332869172,87.00000000000001,36.9459003178553
1306893663.36,9.0552657,3.6081255,753.73,-60.1,9.0,95.6,-1.0,145.5793241891952,79317115.42312591,25.110037106194156,7.405928332626647,25315.363692387342,87.40000000000002,36.952108760549976
1306893663.79,9.0559825,3.6081028,754.2,-60.1,9.2,92.8,-1.0,143.8793457141667,80324640.71881776,25.595630908208136,7.5844443973280535,25612.503538066783,91.00000000000001,36.95765884803903
1306893664.22,9.0566877,3.608108,754.65,-60.1,9.5,89.9,-1.0,141.07290261234454,80602659.0419168,24.75574773932898,7.5636421983146525,25160.38545449711,94.00000000000001,36.96268837559809
1306893664.65,9.057391,3.608141,755.08,-60.1,9.7,87.1,-1.0,140.47529013469165,80939193.0574701,24.28958285634921,7.696171428973626,25516.74778082027,93.60000000000002,36.96727389615801
1306893665.07,9.058079,3.608201,755.5,-59.9,9.7,84.2,-1.0,140.67032176600767,80640996.95656097,23.261021073750445,7.534095914120841,25040.661207083216,96.20000000000002,36.97152258382206
1306893665.49,9.0587424,3.6082858,755.89,-59.5,9.7,81.4,-1.0,136.19417929579305,79122455.7871277,23.22407064038676,7.384268460624172,24840.365341889992,97.20000000000002,36.97548037034875
1306893665.91,9.0593873,3.6083942,756.27,-59.0,9.7,78.6,-1.0,133.3150030860471,77669320.06708081,23.43020816325355,7.572533672663855,24435.383080412423,93.5,36.9791931874966
1306893666.35,9.0600577,3.6085348,756.65,-58.4,9.7,75.6,-1.0,133.3459677605348,75738769.85586546,22.909326726140176,7.502968093959301,24879.976164927557,92.80000000000001,36.98270696702416
1306893666.77,9.060684,3.6086926,757.0,-57.9,9.7,72.9,-1.0,132.07169157459765,73240765.13200514,23.37166089365663,7.349481220309819,24983.38405745278,92.10000000000001,36.98599874305215
1306893667.21,9.0613209,3.6088802,757.35,-57.4,9.7,70.1,-1.0,130.03253126699397,70982688.64251783,23.255510709103458,7.399041790099621,24425.94507273344,93.40000000000002,36.98914506851147
1306893667.65,9.061952,3.609094,757.69,-57.0,9.7,67.3,-1.0,131.13309512503898,68208141.67180946,24.50868681292018,7.460215664791492,24343.624455712754,94.20000000000002,36.992176564574464
1306893705.11,9.0342818,3.6372321,792.35,56.6,9.7,310.9,-1.0,95.12280610339727,64059180.27223281,22.915832671666777,7.2628380992843145,23862.261447459827,90.4,37.02138150770657
1306893705.32,9.0340075,3.6374138,792.6,56.7,9.7,312.2,-1.0,138.46355051587582,56983740.70559762,24.02066953598187,7.1571436633254075,23620.333702811742,89.9,37.050433344976916
1306893705.54,9.0337345,3.6376026,792.86,56.8,9.7,313.6,-1.0,133.46456112792166,26057004.790095553,22.971126626678892,7.17012016206035,23655.988678495793,89.4,37.07935504226475
1306893705.75,9.033467,3.6377959,793.1,56.9,9.7,314.8,-1.0,140.19309448002508,9525006.64292095,25.357518226640167,7.462411339458763,23719.229486687884,87.50000000000001,37.108138944277
1306893705.97,9.0332052,3.6379936,793.35,56.9,9.7,316.1,-1.0,133.4378604459371,45730745.25235304,26.576231033176665,7.45518514364899,23556.60922705004,87.50000000000001,37.13681567218601
1306893706.19,9.0329363,3.6382061,793.6,57.0,9.7,317.5,-1.0,140.32789569747356,80179394.0981808,28.60055134712286,7.4242042633024905,23763.685761648456,89.1,37.16539288128487
1306893706.4,9.0326981,3.6384028,793.82,57.0,9.7,318.9,-1.0,133.02327298437294,92285521.11483055,29.25112413487411,7.384443215483656,23644.093305449027,87.8,37.19384760569432
1306893706.63,9.0324374,3.638628,794.07,57.1,9.7,320.2,-1.0,136.2826196611946,78526885.37496832,29.604997455419333,7.502277799785626,24029.142061965493,87.5,37.22222577717289
1306893706.84,9.032197,3.6388457,794.3,57.1,9.7,321.6,-1.0,141.7238624803677,60638652.14811044,27.252943320454175,7.666308769076524,24638.492027918302,87.40000000000002,37.250512085134396
1306893707.05,9.031978,3.639053,794.51,57.1,9.7,322.8,-1.0,131.99823722926746,40433269.48047305,27.57700218465694,7.637355716346889,24461.930999002696,87.30000000000001,37.27869887428575
1306893707.26,9.0317515,3.6392772,794.73,57.2,9.7,324.2,-1.0,140.70366210114736,16761347.526549576,26.988174017534437,7.88031935291792,24730.314377085717,87.3,37.280520834040786
1306893707.48,9.031534,3.639503,794.95,57.2,9.7,325.6,-1.0,132.5642363868305,16417306.29821889,26.217000539498514,7.86810303015249,25329.900335943286,87.7,37.28231982791655
1306893707.7,9.0313223,3.6397333,795.17,57.2,9.7,326.9,-1.0,132.75482360356807,13848979.46903423,26.239034776289024,7.876215819802082,25745.27101401476,88.70000000000002,37.284088200619955
1306893707.91,9.0311175,3.6399671,795.38,57.2,9.7,328.2,-1.0,139.8645308089729,11512312.034232426,24.960727409540368,7.850383987467931,25501.62328803471,90.5,37.28583360744411
1306893708.12,9.0309281,3.6401944,795.58,57.2,9.7,329.6,-1.0,133.17039945736929,9790168.400187567,25.45392959641255,7.891800772676159,26231.81383483239,90.1,37.287540737802814
1306893708.34,9.0307358,3.6404368,795.8,57.3,9.7,330.9,-1.0,133.9207589162316,9348209.605828576,25.170918853417206,7.9068519887549265,26538.759741557322,89.7,37.28922490228225
1306893708.56,9.0305426,3.6406937,796.02,57.3,9.7,332.3,-1.0,140.31797089033964,8539005.504216319,26.60783111547451,8.117898420869853,26600.38039738655,90.2,37.29090906676169
1306893708.77,9.0303752,3.6409286,796.21,57.3,9.7,333.6,-1.0,132.31245466579426,7994125.498767435,28.063506940960178,8.129781268008234,26521.03335528023,90.6,37.29254729948261
1306893708.99,9.0302055,3.64118,796.42,57.3,9.6,335.0,-1.0,133.48108658488064,9050409.229792433,29.813823552415354,8.113920570815795,26029.8853127193,91.89999999999999,37.294170221617335
1306893709.21,9.0300444,3.6414329,796.62,57.3,9.6,336.3,-1.0,132.7323332042991,11545852.634441247,28.501260271472127,8.151101415778005,26387.005418180594,91.10000000000001,37.29578548845898
1306893709.42,9.0298917,3.6416873,796.83,57.3,9.6,337.7,-1.0,138.71061460858587,12043654.523676349,31.11848984557449,8.054157716726385,26037.263748694833,91.10000000000001,37.29739310000753
1306893709.63,9.0297489,3.6419404,797.03,57.3,9.6,339.1,-1.0,136.4763194280249,14169557.339143667,32.04228753768381,8.252633870331326,25420.823471999334,91.60000000000001,37.29898540096992
1306893709.84,9.0296198,3.6421836,797.21,57.3,9.6,340.4,-1.0,129.32780273975882,16778544.993302282,32.25434593408919,8.340727038901319,25458.519961869093,90.8,37.30054708075995
1306893710.06,9.0294867,3.6424518,797.42,57.3,9.6,341.7,-1.0,135.626523345995,17755863.092462126,33.147270324822045,8.407041359265023,25696.557413619754,90.6,37.30210876054996
1306893710.27,9.0293675,3.6427099,797.62,57.3,9.6,343.0,-1.0,135.4066695827556,18693004.304351076,30.64871154987815,8.206719172950802,25152.787537534008,90.3,37.30367044034
1306893710.48,9.0292566,3.6429685,797.81,57.3,9.6,344.4,-1.0,134.5971763333564,21306074.248005632,28.78139337736029,8.181319975271501,25113.24273679777,93.0,37.30520915425076
1306893710.69,9.0291535,3.6432287,798.0,57.3,9.6,345.6,-1.0,134.647077577801,23539241.883930657,27.378920197253976,8.06982137568075,24921.376317895752,94.49999999999999,37.306724902282255
1306893710.9,9.0290591,3.6434879,798.19,57.3,9.6,347.0,-1.0,132.93366536139737,25085128.922963914,27.191549822197132,8.215412559205372,24655.827922039018,92.39999999999999,37.30824065031375
1306893711.11,9.0289723,3.6437485,798.38,57.3,9.6,348.3,-1.0,132.9767780093474,26661106.503252044,25.940715789690767,8.043853334379056,24951.89907997068,91.80000000000001,37.30974108775907
1306893711.32,9.0288941,3.6440077,798.57,57.3,9.6,349.7,-1.0,131.5068210065494,30406817.402449746,27.200860103258613,8.08278495689105,24297.54935147123,94.3,37.31123386991129
1306893711.54,9.0288206,3.6442793,798.77,57.3,9.6,351.0,-1.0,130.6954597571252,32177857.874358222,26.07047253210458,7.928760915371095,24901.870489009114,97.9,37.31271899677044
1306893711.76,9.0287525,3.6445646,798.97,57.3,9.6,352.4,-1.0,137.23747689925585,34590820.80819266,25.76264385368994,7.700111510672447,25221.6137900714,97.20000000000002,37.31420412362959
1306893711.97,9.0286968,3.6448343,799.17,57.3,9.6,353.7,-1.0,135.46788335044772,36181258.14612111,25.104531864541862,7.567949598075055,24913.154637252974,96.7,37.3157045610749
1306893712.18,9.0286516,3.6450906,799.35,57.3,9.6,355.1,-1.0,127.67473427527915,35898364.21821362,24.022742005383257,7.484274233750498,24853.617407696012,97.3,37.31718203264095
1306893712.39,9.0286114,3.6453641,799.54,57.3,9.6,356.3,-1.0,136.39624591799193,38041533.70802842,26.058912274257196,7.457331029294533,24652.048783323982,95.6,37.31865184891392
1306893712.61,9.0285786,3.6456481,799.74,57.3,9.6,357.7,-1.0,134.99655407199842,36193668.52099894,27.207472011823317,7.345729580202823,24697.33542275172,92.9,37.32012932047998
1306893712.82,9.028556,3.6459158,799.93,57.3,9.6,359.1,-1.0,132.91503810198017,37293543.51948467,28.53388608354772,7.2618189832818105,24314.01204125795,93.60000000000001,37.321606792046026
1306893713.04,9.0285414,3.6461849,800.12,57.3,9.6,0.5,-1.0,127.04996766653592,41377470.090016626,26.105058065466675,7.154316878231225,24969.763725177312,95.80000000000001,37.32308426361209
1306893713.26,9.0285346,3.6464718,800.33,57.3,9.6,1.9,-1.0,135.99682245060333,43735505.42881547,27.341320411717614,7.071605110978983,24841.37189109436,96.60000000000001,37.324577045764315
1306893713.47,9.0285365,3.6467445,800.52,57.2,9.6,3.1,-1.0,135.50207008308365,43615319.73889822,26.535170907164215,7.056994351167374,24778.38792019822,94.00000000000003,37.32606982791654
1306893713.68,9.0285462,3.6470028,800.7,57.0,9.5,4.5,-1.0,127.77846790260834,46908496.30159611,25.202309785841088,7.260345111097195,24316.57576581085,93.70000000000002,37.3275472994826
1306893713.89,9.0285643,3.647276,800.89,56.2,9.3,5.7,-1.0,136.11029480921405,49171666.44371406,23.74314909410928,7.50536927411099,24243.552285147154,91.9,37.32901711575557
1306893714.11,9.0285914,3.6475576,801.09,54.8,8.9,7.0,-1.0,133.9172567166138,45674389.8056162,25.82006943750054,7.567963478402364,24555.279366558105,91.8,37.330486932028535
1306893714.32,9.0286243,3.6478233,801.27,52.8,8.4,8.2,-1.0,132.66485575751918,47622127.70736319,27.573439969916645,7.470926088938318,25007.416499101117,90.0,37.331956748301494
1306893714.53,9.0286634,3.6480858,801.43,50.8,8.0,9.2,-1.0,131.15489818338807,49731157.56857047,27.29440447125048,7.4950923117027015,25253.55486805276,90.1,37.3334035986952
1306893714.75,9.0287108,3.6483601,801.59,48.6,7.6,10.2,-1.0,131.2526744946197,49639624.08011734,28.222186377377273,7.694352078560739,24864.13291229053,90.0,37.33481982791655
1306893714.97,9.0287634,3.6486299,801.74,46.4,7.3,11.2,-1.0,129.35507976135227,50774909.34156341,26.20402713531889,7.613177979123467,25173.295201076224,88.19999999999999,37.336205435965546
1306893715.18,9.0288211,3.6488976,801.87,44.2,7.0,12.1,-1.0,135.18561592954572,57075946.1208247,26.059610794641372,7.680276878187699,24485.673898997764,87.50000000000001,37.33754511225601
1306893715.39,9.0288837,3.6491646,801.99,42.1,6.7,12.8,-1.0,135.23888778589705,55442106.69519736,26.5243215675498,7.86960322053749,24218.438168899695,84.50000000000001,37.33881589090868
1306893715.61,9.0289513,3.649432,802.09,39.8,6.5,13.6,-1.0,129.15412869978024,53039850.10444769,25.495898109288046,7.875971914822241,24502.653248807637,86.9,37.34001777192354
1306893715.82,9.0290221,3.6496949,802.18,37.5,6.3,14.3,-1.0,133.90085503821845,55441059.490513206,26.964788753014624,7.683302929719088,24515.73139286595,86.10000000000002,37.34115075530062
1306893716.03,9.0290968,3.6499571,802.27,35.5,6.2,14.8,-1.0,133.78877709441093,51529300.47803406,26.356824258988773,7.7589720386012875,24736.10658664522,86.4,37.342207185746815
1306893716.24,9.0291724,3.65021,802.34,33.3,6.0,15.4,-1.0,129.01273866466278,50587586.81619925,25.046562553453242,7.751740817672473,24782.032809462424,85.99999999999999,37.34316409738286
1306893716.46,9.0292584,3.6504856,802.42,31.2,5.9,16.0,-1.0,135.02981174508122,54372110.61243185,23.125074546855437,7.766106354863126,24334.13374310415,84.8,37.34404445608802
1306893716.67,9.029341,3.6507396,802.49,29.4,5.8,16.5,-1.0,130.38527525447046,53724465.502158746,22.01651174841512,7.97189761833943,24926.84847008168,85.4,37.3448559171554
1306893716.9,9.0294347,3.6510175,802.56,27.3,5.8,17.0,-1.0,130.54038916925836,54524486.01692512,22.108366171232557,7.796108716321678,25047.22677675383,84.60000000000001,37.34559848058497
1306893717.11,9.029524,3.651274,802.63,25.6,5.7,17.4,-1.0,132.38160920248077,57647857.674437,21.440319064264628,8.116814898507657,25192.55399565401,86.00000000000001,37.34627980166983
1306893717.33,9.0296246,3.6515542,802.71,23.6,5.6,17.9,-1.0,138.81406394050785,55377414.021304645,23.14955393748809,7.965756422982326,25384.70553007633,87.50000000000001,37.34692284628925
1306893717.54,9.029716,3.6518023,802.79,22.0,5.6,18.2,-1.0,128.3859274259597,51367980.43099407,22.519166152819274,8.133315202862569,25613.899431437356,89.80000000000001,37.34753526973632
1306893717.75,9.0298144,3.6520632,802.88,20.5,5.6,18.5,-1.0,135.6759133095802,54482978.20840459,22.018523839296932,7.864192573589203,25409.782946850286,87.5,37.3481400378903
1306893717.96,9.0299105,3.6523128,802.97,19.0,5.5,18.9,-1.0,129.62785957979355,50650790.36687587,21.148992640367812,7.723297713311375,25426.75753725917,88.6,37.34874480604429
1306893718.17,9.0300092,3.6525643,803.07,17.6,5.5,19.1,-1.0,131.06266263985262,50407534.860022135,22.227148105009682,7.612980220848467,25761.32480610763,90.2,37.34935722949135
1306893718.59,9.030215,3.6530758,803.31,15.0,5.5,19.6,-1.0,133.74741141473814,54612656.7986567,22.823005816266747,7.676653288038596,25672.46853768508,88.80000000000003,37.35009979292093
1306893719.02,9.0304289,3.6535919,803.58,12.5,5.5,20.1,-1.0,132.0481164205321,54016387.89219637,24.729317951075323,7.671529583185022,25615.623266933904,91.7,37.350987806919164
1306893719.44,9.0306416,3.6540936,803.87,10.3,5.5,20.4,-1.0,131.71993362801607,54536929.18421877,25.224130762594513,7.583615994354428,25028.122067103603,91.0,37.35204423736537
1306893719.65,9.0307515,3.6543489,804.03,9.4,5.5,20.6,-1.0,134.26613494164116,55574334.67264795,23.61662709516054,7.365680632144163,24809.426023165703,91.3,37.353169565449356
1306893719.88,9.0308679,3.654617,804.21,8.3,5.5,20.7,-1.0,128.81831398181603,52987739.004719615,25.90988040447917,7.215542206651545,24497.548526705126,89.6,37.35437910175732
1306893720.09,9.0309799,3.654873,804.39,7.5,5.5,20.8,-1.0,135.1010131834904,51080564.52283392,24.591057878483614,7.357599546007329,24365.28290042879,88.69999999999999,37.35566519099616
1306893720.3,9.0310926,3.6551288,804.57,6.6,5.5,21.0,-1.0,134.9769082428339,50985300.796760954,23.742793168419713,7.219106002138682,24012.42189026583,89.8,37.357027833165894
1306893720.51,9.0312011,3.6553737,804.75,5.8,5.5,21.0,-1.0,128.98185236427324,47619524.858540386,23.47875924058423,7.200056191653979,24693.379281462927,88.9,37.358459372973414
1306893720.74,9.0313224,3.6556459,804.95,5.0,5.5,21.1,-1.0,131.10783585999297,50054469.88988154,23.325706493665336,7.415479498379675,24775.116349049422,87.10000000000001,37.35997512100491
1306893720.95,9.0314388,3.655906,805.15,4.2,5.5,21.2,-1.0,137.85142360955695,50029285.39976547,22.539195329078932,7.417457295278721,24101.065996805384,86.60000000000001,37.361567421967294
1306893721.16,9.0315498,3.6561529,805.34,3.6,5.5,21.3,-1.0,130.33423932371386,47520963.064636655,21.881161735878212,7.2919624497318445,23529.246466779223,89.5,37.36312144646422
1306893721.37,9.0316626,3.6564033,805.53,3.0,5.5,21.3,-1.0,132.37620735128684,50889899.848543845,19.798576847509374,7.293612650373048,23620.157805640454,86.5,37.36461422861645
1306893721.58,9.0317774,3.6566571,805.73,2.4,5.5,21.4,-1.0,134.49260400465008,50880951.063295126,20.579339510207443,7.1547208809712615,24039.71866432406,87.4,37.3660381131309
1306893721.79,9.0318869,3.656899,805.92,1.9,5.5,21.4,-1.0,127.62608332914277,47620967.42324889,22.37357213361213,7.223194249976324,24141.794923578447,87.39999999999999,37.3674849635246
1306893722.01,9.0320042,3.6571575,806.13,1.3,5.5,21.4,-1.0,130.44307170446186,52500633.15653082,20.97019664369788,7.326261840850356,24133.864880548248,87.1,37.36895477979756
1306893722.22,9.0321222,3.6574172,806.33,0.8,5.5,21.4,-1.0,137.7014625085077,53114782.04454176,21.986388203292265,7.140620375430328,24270.06769648865,87.4,37.37043990665671
1306893722.44,9.0322397,3.6576757,806.54,0.3,5.5,21.4,-1.0,130.5055115556239,48790945.607832946,23.866952629991157,7.015691701875917,24895.760576384797,84.39999999999999,37.37194799939511
1306893722.66,9.0323567,3.6579329,806.75,-0.1,5.5,21.4,-1.0,129.79785351525953,51353892.33649191,24.76618940381113,7.301915295165224,24710.903269091592,86.7,37.37347905801279
1306893722.87,9.0324732,3.6581889,806.95,-0.5,5.5,21.4,-1.0,135.65983922554025,51387667.56193363,25.214743852919554,7.276625301214684,24889.031174534517,86.7,37.375010116630456
1306893723.08,9.0325891,3.6584438,807.16,-0.9,5.5,21.4,-1.0,135.17939635551548,44921508.30711039,26.839062658189867,7.244488435641553,25460.074850438054,84.5,37.37654883054122
1306893723.3,9.0327044,3.6586974,807.37,-1.3,5.5,21.4,-1.0,127.8924614215083,46173914.39377768,27.101695422488575,7.328455746303609,25555.091917947288,84.2,37.37810285503816
1306893723.51,9.0328185,3.6589487,807.57,-1.6,5.5,21.4,-1.0,133.00870547949856,49315077.97299099,27.682683038198096,7.257197453501661,26001.709636341886,85.9,37.37966453482819
1306893723.72,9.032932,3.6591988,807.77,-1.9,5.5,21.4,-1.0,132.23726409694746,46469425.75631681,25.480183045689348,7.282964354487053,26017.170637988227,88.30000000000001,37.38122621461821
1306893723.93,9.0330458,3.6594502,807.98,-2.2,5.5,21.3,-1.0,133.13726926918739,48850672.428995445,24.019467138586503,7.451351586552638,26383.80810957318,88.9,37.38280320499442
1306893724.14,9.033159,3.6597004,808.18,-2.5,5.5,21.3,-1.0,132.23726409694746,51686750.62098082,24.237032919890506,7.467857418945357,26841.18074574585,91.20000000000002,37.38437254007753
1306893724.35,9.0332719,3.6599507,808.38,-2.7,5.5,21.3,-1.0,132.33016816298962,48894541.38410887,25.32057403048495,7.429852877261848,26615.13666634474,92.3,37.38594187516065
1306893724.56,9.0333841,3.6601998,808.58,-3.0,5.5,21.2,-1.0,131.6801647982501,48439616.91482999,22.92719742886613,7.378053381749101,26281.986749633128,95.4,37.387503554950676
1306893724.77,9.0334961,3.660449,808.78,-3.2,5.5,21.2,-1.0,131.70871168397497,50216398.182225525,23.859209654289234,7.2198449396519795,25986.620634814648,94.7,37.3890575794476
1306893724.98,9.0336067,3.6606959,808.98,-3.4,5.5,21.1,-1.0,130.34534414034943,49549511.42151241,24.331158493186493,7.052544253730187,25772.534779742193,96.4,37.39061160394454
1306893725.19,9.033723,3.6609559,809.19,-3.6,5.5,21.1,-1.0,137.63861436313138,49733359.81581357,23.951312757802455,7.131794948682157,25375.957222312685,96.9,37.392165628441475
1306893725.4,9.0338315,3.6611994,809.38,-3.8,5.5,21.0,-1.0,128.34973875290865,49215364.304508336,23.29501812917207,6.8998696785284706,25163.285173765933,97.0,37.39370434235224
1306893725.62,9.0339503,3.6614668,809.59,-3.9,5.5,21.0,-1.0,134.82853147850238,50064062.16108467,23.762987343316365,6.972117994217925,25180.11175023929,97.8,37.3952507115561
1306893725.83,9.0340619,3.6617188,809.79,-4.1,5.5,20.9,-1.0,133.05644925315244,48424278.763714,25.186241253248472,7.257531038603622,24977.286908372662,95.19999999999999,37.39679708075994
1306893726.05,9.0341773,3.6619804,810.0,-4.2,5.5,20.8,-1.0,131.623284403996,46796573.37337793,26.9016496632794,7.284704396275863,24853.50630090518,96.1,37.39834344996379
1306893726.26,9.0342846,3.6622242,810.19,-4.3,5.5,20.8,-1.0,128.3048025204386,48650501.02834316,26.43516882510465,7.03768261882998,24017.36454046164,94.19999999999999,37.39988216387455
1306893726.47,9.0343967,3.6624801,810.39,-4.5,5.5,20.7,-1.0,135.11177240420452,50951402.451518044,25.259527705347338,7.253608023233967,24418.55827559694,93.79999999999998,37.40142087778531
1306893726.68,9.0345079,3.6627349,810.59,-4.6,5.5,20.6,-1.0,134.2494402349425,49481394.5074857,25.263323002755428,7.464016868589621,24110.87695464069,91.3,37.402959591696074
1306893726.91,9.034624,3.6630018,810.8,-4.7,5.5,20.6,-1.0,128.1824431465995,50299575.89318543,23.73740117265974,7.532318818984049,24046.327606417435,92.50000000000001,37.404505960899925
1306893727.12,9.0347334,3.6632544,811.0,-4.7,5.5,20.5,-1.0,132.95433733080495,52342511.38831992,24.397730330841636,7.605612716280071,23993.332760122114,89.10000000000001,37.406052330103776
1306893727.33,9.034842,3.663506,811.2,-4.8,5.5,20.4,-1.0,132.40603882950165,47558026.23019993,25.357724298401962,7.561912756896884,24514.006337881143,89.8,37.40759104401453
1306893727.54,9.0349501,3.6637576,811.4,-4.9,5.5,20.4,-1.0,132.3351935856643,48449327.94221501,25.54099788014757,7.6147492992141315,24745.968392366092,90.10000000000001,37.40913741321838
1306893727.75,9.0350578,3.6640094,811.59,-4.9,5.5,20.3,-1.0,132.3213370700071,49130897.79047486,24.083721731442076,7.7284635804874755,24257.260106426314,88.00000000000001,37.41066847183606
1306893727.97,9.0351703,3.6642733,811.8,-5.0,5.5,20.2,-1.0,132.31186118394479,48009458.92427811,25.442413204680413,7.6240911114384495,24578.216560304303,89.80000000000001,37.412207185746816
1306893728.18,9.0352772,3.6645253,812.0,-5.0,5.5,20.1,-1.0,132.40195475488625,47428854.39809646,25.055354554891245,7.565401214980033,24157.134939370837,88.80000000000001,37.413738244364495
1306893728.41,9.0353939,3.6648014,812.21,-5.1,5.5,20.0,-1.0,132.39780832507645,49782560.945676014,26.647426921741268,7.710379989979556,24171.72155053469,91.9,37.41528461356834
1306893728.62,9.0354994,3.6650525,812.41,-5.1,5.5,20.0,-1.0,131.6692582629585,48987956.68519754,27.70678420374261,7.6660956317513715,23787.628905891488,89.00000000000001,37.41683098277219
1306893728.83,9.0356101,3.6653169,812.61,-5.1,5.5,19.9,-1.0,139.05442481984684,48941141.13185478,28.15972892317999,7.431940373517585,24652.711567513288,89.10000000000001,37.418377351976034
1306893729.04,9.0357149,3.6655682,812.81,-5.1,5.5,19.8,-1.0,131.80896979943236,48026987.50325637,29.187597884364717,7.448526946618279,24970.254193893656,89.4,37.419916065886795
1306893729.25,9.0358197,3.6658208,813.01,-5.1,5.5,19.7,-1.0,132.3110187059202,48207937.1702593,28.59172331386574,7.622529487235827,25058.602792442784,91.30000000000001,37.42145477979757
1306893729.46,9.0359216,3.6660675,813.2,-5.1,5.5,19.7,-1.0,129.1542531432186,48466703.59164969,28.22396887763405,7.758351289163302,24573.336164117805,93.1,37.42298583841524
1306893729.67,9.0360281,3.6663264,813.4,-5.1,5.5,19.6,-1.0,135.73729480062016,49641215.561990894,29.13758296762751,8.027887743186774,24924.59014320658,93.39999999999999,37.42451689703291
1306893729.88,9.0361316,3.6665794,813.6,-5.1,5.5,19.5,-1.0,132.32856109480656,50760743.82712816,31.11841826932339,7.945176209209207,25341.280766901065,96.4,37.42605561094366
1306893730.09,9.0362343,3.6668313,813.79,-5.1,5.5,19.4,-1.0,131.71224731089893,53208456.38083589,29.079344510045164,7.909815672836967,25175.359611898457,96.70000000000002,37.42757901426825
1306893730.3,9.036336,3.667082,813.99,-5.1,5.5,19.4,-1.0,131.02114465229994,52940824.659517154,28.600324063478705,7.932184441626066,24922.586435301586,99.4,37.42910241759284
1306893730.51,9.0364379,3.6673341,814.19,-5.1,5.5,19.3,-1.0,131.79741348727313,51994792.23540217,28.384207931087243,7.763785858602999,25267.83010852158,97.2,37.43061816562434
1306893730.72,9.0365393,3.6675863,814.38,-5.1,5.5,19.2,-1.0,131.6568839945163,52498441.48734452,28.19735112056044,7.781949186781534,25315.30210466167,99.30000000000001,37.432126258362736
1306893730.93,9.0366408,3.6678399,814.58,-5.0,5.5,19.1,-1.0,132.4049850464507,51348011.83784356,28.39606738777082,7.966755696928928,24795.67873958915,101.4,37.433634351101155
1306893731.14,9.0367438,3.6680983,814.78,-5.0,5.5,19.1,-1.0,135.1637341054557,51302788.55013954,28.762834884150525,7.99239709779202,24552.15616553114,98.7,37.43514244383956
1306893731.35,9.036845,3.6683533,814.98,-5.0,5.5,19.0,-1.0,133.0433661911383,49445316.9905965,29.355418657268014,8.06258108593315,24330.601643714173,99.30000000000001,37.436650536577964
1306893731.56,9.0369414,3.6685975,815.17,-4.9,5.5,18.9,-1.0,126.9819205996474,49894934.056835614,29.82099499137811,7.783785468444164,23922.2982489049,96.60000000000001,37.438158629316376
1306893731.77,9.0370422,3.6688538,815.37,-4.9,5.5,18.8,-1.0,133.74740374625762,50202120.79496727,30.03840204204119,7.553765946537831,23445.173958630643,93.99999999999999,37.43966672205478
1306893731.98,9.0371426,3.6691103,815.57,-4.9,5.5,18.8,-1.0,133.82663196198396,49348008.75742258,28.692920879648174,7.5739778661147295,22757.651680663304,93.0,37.441174814793186
1306893732.19,9.0372431,3.6693681,815.77,-4.8,5.5,18.7,-1.0,134.38851164173096,50177726.234824955,30.679601462353155,7.587635484327709,22193.686296602795,93.00000000000001,37.44269056282468
1306893732.4,9.0373422,3.6696236,815.96,-4.8,5.5,18.6,-1.0,133.07200293077452,51235064.75583803,30.79586769744063,7.447079735348939,22795.76237169406,89.50000000000001,37.44419865556309
1306893732.61,9.0374368,3.6698682,816.15,-4.7,5.5,18.6,-1.0,126.95594406081612,49287878.036214754,31.322515414902206,7.710843362494238,23313.76462690062,91.1,37.44569909300841
1306893732.82,9.0375347,3.6701227,816.35,-4.7,5.5,18.5,-1.0,132.41189157000318,50317772.88703914,29.706437274004045,7.716685371965148,23543.709077048927,92.50000000000001,37.44720718574682
1306893733.03,9.0376327,3.6703784,816.55,-4.6,5.5,18.4,-1.0,133.10218028229855,51525904.53067892,31.47985584451023,7.731742446950304,23806.70151133889,90.7,37.448715278485224
1306893733.24,9.0377303,3.6706343,816.75,-4.6,5.5,18.3,-1.0,133.06372551041883,51444350.83040986,30.1832399096279,7.719127751860331,23774.697777018668,93.7,37.450223371223636
1306893733.45,9.037828,3.6708914,816.94,-4.5,5.5,18.3,-1.0,133.75510042321605,51919201.897039786,30.52150100772988,7.732750343501913,24159.619126637896,91.89999999999999,37.45172380866896
1306893733.66,9.0379225,3.6711414,817.14,-4.5,5.5,18.2,-1.0,129.71712427135122,51497081.23648327,29.651092836328196,7.746349996311318,24164.356980969205,94.8,37.453231901407364
1306893733.87,9.0380222,3.671406,817.34,-4.4,5.5,18.1,-1.0,137.8022643787072,49870218.605349496,29.09063908629562,7.737655969431023,24469.70793937394,94.4,37.454739994145775
1306893734.08,9.0381165,3.6716574,817.54,-4.4,5.5,18.1,-1.0,130.4099748598422,47577768.76905605,30.914884356750626,7.749975422591881,24915.671075219845,95.4,37.45624808688417
1306893734.29,9.0382105,3.6719088,817.73,-4.3,5.5,18.0,-1.0,130.37087382721776,48448911.1863251,30.098293987015218,7.628023228768854,25700.763826371625,93.5,37.457748524329496
1306893734.51,9.0383127,3.6721835,817.94,-4.3,5.5,17.9,-1.0,136.30474272920827,50037288.160924174,29.949613632801153,7.54419066390853,25796.075845165353,96.10000000000002,37.459264272361
1306893734.72,9.0384055,3.6724339,818.13,-4.2,5.5,17.9,-1.0,129.61829956220737,50187887.76632341,28.059155529313625,7.317066603196235,25294.09168141339,96.20000000000002,37.46078002039249
1306893734.93,9.0385015,3.6726941,818.34,-4.2,5.5,17.8,-1.0,135.05744972864653,52469789.55907951,27.73022236625298,7.246508590521901,25821.256936571084,96.20000000000002,37.462303423717074
1306893735.14,9.038595,3.6729483,818.53,-4.1,5.5,17.8,-1.0,131.8162713553331,52439704.78081735,25.248840229348076,7.164218070212938,25914.44358230864,94.50000000000001,37.46381917174857
1306893735.35,9.0386868,3.6731989,818.72,-4.0,5.5,17.7,-1.0,129.65541128771247,50904063.29853837,27.63480285856528,6.977571008797407,26283.47367767917,93.80000000000001,37.46532726448698
1306893735.56,9.0387797,3.6734533,818.92,-4.0,5.5,17.6,-1.0,131.76919132248096,52323450.2365531,26.430313055993384,6.959144555109342,26723.414010397435,95.8,37.466843012518474
1306893735.78,9.0388797,3.6737284,819.13,-3.9,5.5,17.6,-1.0,136.30440453671088,53988156.448907025,27.32598331241275,6.938303787943873,27368.17335967545,94.00000000000001,37.46836641584306
1306893735.99,9.0389692,3.6739756,819.32,-3.9,5.5,17.5,-1.0,127.62775094027799,50108154.768857434,26.633263098110003,7.175628737706221,27340.66552644112,93.3,37.46988216387455
1306893736.21,9.0390664,3.6742448,819.53,-3.8,5.5,17.5,-1.0,133.16605272374994,53643854.92499857,24.883287045410103,7.040581885613089,26949.665759599982,90.60000000000001,37.47140556719914
1306893736.44,9.0391667,3.6745239,819.74,-3.7,5.5,17.4,-1.0,131.81864032032755,52608630.78866802,23.42785193238735,7.03582743170504,26505.060130386944,91.4,37.472944281109896
1306893736.66,9.0392632,3.6747933,819.95,-3.7,5.5,17.3,-1.0,132.9355409210813,49910756.13504626,24.16023784412977,7.080782633021541,26429.06128003295,91.29999999999998,37.47448299502065
1306893736.87,9.0393567,3.6750554,820.15,-3.6,5.5,17.3,-1.0,135.81170549123667,52233706.03415243,24.22724825012386,7.300590929275533,26456.283908607857,90.0,37.4760293642245
1306893737.08,9.0394451,3.6753042,820.34,-3.6,5.5,17.2,-1.0,128.42159973936967,49446995.96438972,24.117146131493808,7.157229888416203,26344.009581817198,89.5,37.47756042284218
1306893737.3,9.0395424,3.6755787,820.55,-3.5,5.5,17.2,-1.0,135.63567898445646,49880756.648172334,26.388330322534763,7.337709556943001,26435.847830107014,92.7,37.479106792046025
1306893737.51,9.0396307,3.6758288,820.75,-3.4,5.5,17.1,-1.0,128.94182465290694,49971429.5982597,24.5255685820029,7.433124122523187,26219.936801568874,90.69999999999999,37.480660816542965
1306893737.72,9.0397205,3.6760839,820.94,-3.4,5.5,17.1,-1.0,131.85999785614584,51707328.68894672,24.411577781241064,7.1217920042578315,26244.694121811364,91.39999999999999,37.482207185746816
1306893737.93,9.0398134,3.6763488,821.15,-3.3,5.5,17.0,-1.0,137.03318017891178,51932227.52874044,23.194382180349212,7.4191620688926125,25673.60786466988,93.3,37.48375355495067
1306893738.14,9.0399014,3.6766003,821.34,-3.3,5.5,17.0,-1.0,129.74864719172743,51644368.40116182,22.459507102532992,7.2335075621666896,25524.31604883498,94.1,37.48529992415452
1306893738.35,9.0399895,3.6768532,821.53,-3.2,5.5,16.9,-1.0,130.4002727621797,52054275.78290576,22.520951256381906,7.183421961962494,25696.934531710554,95.89999999999999,37.48683098277219
1306893738.57,9.0400846,3.6771268,821.74,-3.2,5.5,16.9,-1.0,135.05787972731508,52803271.33625774,23.614529587211504,7.422985460521275,25605.220889223136,96.1,37.48836204138986
1306893738.78,9.0401718,3.6773786,821.94,-3.1,5.5,16.8,-1.0,129.65104139098537,49878084.77058696,21.589297201459416,7.58409206701104,25310.94051222299,93.5,37.48988544471445
1306893739.0,9.0402655,3.6776499,822.14,-3.0,5.5,16.8,-1.0,133.74741432186812,51467472.168454416,22.766586407872712,7.576212680823472,24944.75156982321,92.5,37.49140884803903
1306893739.22,9.0403581,3.6779188,822.35,-3.0,5.5,16.7,-1.0,132.40810007417005,53406714.636682525,24.935322824396163,7.5654160550493526,25017.44090824174,91.3,37.49294756194979
1306893739.44,9.0404509,3.6781891,822.56,-2.9,5.5,16.7,-1.0,133.03285199733696,50361678.96555196,23.012033605254597,7.389221295848479,24270.046453287046,91.1,37.49448627586055
1306893739.86,9.0406277,3.6787065,822.95,-2.8,5.5,16.6,-1.0,133.46740342499447,52049085.209955595,22.992939787058756,7.594288545507794,24140.5536827254,92.1,37.496170440339995
1306893740.08,9.0407181,3.678972,823.16,-2.8,5.5,16.6,-1.0,130.38980043127725,52060861.40657034,24.276931983131114,7.6351839505207515,23218.247525472743,89.4,37.49786991540561
1306893740.29,9.0408049,3.6792277,823.35,-2.7,5.5,16.5,-1.0,131.77261570437068,50606598.83484056,23.284551700358495,7.501325094505928,23430.686917847277,88.4,37.49955407988506
1306893740.5,9.0408931,3.6794884,823.55,-2.7,5.5,16.5,-1.0,134.45975048647725,52628745.74949288,23.505167634356653,7.4470297342694804,23635.559293037455,90.00000000000001,37.501245899657576
1306893740.71,9.0409812,3.6797492,823.75,-2.6,5.5,16.4,-1.0,134.45975048647725,52823351.297310434,22.91296298294898,7.49952848604871,23596.568892915326,88.3,37.5029453747232
1306893741.13,9.0411521,3.6802574,824.14,-2.5,5.5,16.4,-1.0,130.72196805059878,51525868.31179577,23.35161689417306,7.309632566470128,23529.454662573233,88.5,37.5047826450644
1306893741.34,9.0412395,3.6805182,824.34,-2.5,5.5,16.3,-1.0,134.37887919561797,52018172.231319435,23.15143642527553,7.449926886773762,23057.47121894162,89.39999999999999,37.506619915405615
1306893741.56,9.0413276,3.6807816,824.54,-2.4,5.5,16.3,-1.0,129.27496835486707,48774076.65098371,22.862494906128518,7.501616261406375,23203.45516559169,89.39999999999999,37.50845718574682
1306893741.99,9.0415031,3.6813085,824.95,-2.3,5.5,16.2,-1.0,132.45162524174438,49781606.88741034,23.159948348132552,7.67532965263668,23055.208712621294,89.29999999999998,37.510447561949796
1306893742.2,9.0415902,3.6815708,825.15,-2.3,5.5,16.2,-1.0,135.13316900235932,50845639.05430122,24.510539002219247,7.7668240901198855,23361.288640574494,86.2,37.51243028285968
1306893742.41,9.041677,3.6818331,825.35,-2.2,5.5,16.2,-1.0,135.0872566589842,49959098.71480726,25.757400137757728,7.68347345041519,23711.946101224472,87.70000000000002,37.51426755320089
1306893742.62,9.0417597,3.6820832,825.54,-2.2,5.5,16.1,-1.0,128.35829491387372,51251222.548113346,23.95464188243644,7.915792659747764,23957.406365847284,90.60000000000001,37.516089512955915
1306893742.83,9.0418446,3.6823407,825.74,-2.1,5.5,16.1,-1.0,132.4461287100666,54162214.311676316,23.63648774928386,7.871375798029464,24235.50049639408,89.30000000000001,37.51791912800403
1306893743.26,9.0420172,3.6828656,826.14,-2.1,5.5,16.0,-1.0,131.7256938179896,52916812.280373625,24.85783265506993,7.827268409108714,24447.169280204624,87.5,37.519901848913925
1306893743.47,9.0421016,3.6831232,826.34,-2.0,5.5,16.0,-1.0,132.46213144695906,53658040.51525272,26.057208281671638,7.754310822495188,25010.491299404137,87.60000000000001,37.52188456982381
1306893743.91,9.0422796,3.6836679,826.75,-1.9,5.5,15.9,-1.0,133.69060349705924,55672726.436257266,23.992633073844015,7.657421985404381,25523.75093325592,86.4,37.523882601319876
1306893744.35,9.0424542,3.6842042,827.16,-1.9,5.5,15.9,-1.0,131.46956153850795,53099245.75899952,23.93379804300592,7.531834231374557,26149.705051453253,87.6,37.52604139397079
1306893744.57,9.0425411,3.6844717,827.37,-1.8,5.5,15.9,-1.0,131.0020187896533,52014272.42925197,24.719617821936268,7.547601607767257,25943.787226218534,90.00000000000001,37.5282078419148
1306893744.78,9.0426266,3.6847356,827.57,-1.8,5.5,15.8,-1.0,135.94512433500574,52045473.36168802,22.410258817091687,7.354379131380686,25683.473073850906,90.2,37.530213528703946
1306893745.0,9.0427124,3.6850008,827.77,-1.7,5.5,15.8,-1.0,129.69797454037476,49206489.95215061,21.318309289039036,7.276552757724917,26190.52599192223,91.4,37.5322192154931
1306893745.42,9.0428785,3.6855152,828.16,-1.7,5.5,15.7,-1.0,132.09018394988286,49490607.1459267,19.221880016349253,7.160097867958035,26137.279407304457,88.4,37.53437035285093
1306893745.63,9.0429623,3.6857756,828.36,-1.6,5.5,15.7,-1.0,133.79269681998727,51679900.09153254,18.78160659588586,7.077445727950683,26417.276601739723,86.7,37.53652914550185
1306893745.84,9.0430456,3.6860347,828.56,-1.6,5.5,15.7,-1.0,133.03133532448513,50849601.54138627,19.55654272346483,7.081886328012851,26303.487755072387,86.3,37.53868793815276
1306893746.28,9.0432193,3.6865764,828.98,-1.5,5.5,15.6,-1.0,132.74109288046236,52444771.984639354,18.07791829085155,7.108871854373539,25974.03428806175,85.99999999999999,37.54086204138986
1306893746.72,9.0433917,3.6871157,829.39,-1.5,5.5,15.6,-1.0,132.0940933087331,53383289.87810489,19.23571591087176,7.064307093377501,25625.803171283114,88.3,37.54319690578181
1306893746.94,9.0434776,3.6873848,829.59,-1.4,5.5,15.6,-1.0,131.82167837803968,52367849.74646597,20.621522185187246,7.055783179057726,25759.540828696314,86.80000000000001,37.54537100901891
1306893747.38,9.0436501,3.6879267,830.01,-1.4,5.5,15.5,-1.0,132.70275055253688,53095290.481008954,21.252964582858525,7.159232316715991,25752.21783462256,84.7,37.54755276754909
1306893747.6,9.0437368,3.6881995,830.23,-1.3,5.5,15.5,-1.0,133.80552187442342,54059001.94909544,19.711460736242532,7.022931575153804,26568.315606281692,81.8,37.54974218137236
1306893748.46,9.0440717,3.6892566,831.06,-1.2,5.5,15.4,-1.0,132.39139210899376,52136976.5514258,22.295894806104222,7.234775497449343,26244.121126451217,82.7,37.5524138786602
1306893748.89,9.0442382,3.6897841,831.47,-1.2,5.5,15.4,-1.0,132.0606361516065,52605121.84126415,22.924113109946656,7.380612447111774,25986.922956471357,81.9,37.5552463371029
1306893749.33,9.0444078,3.6903227,831.89,-1.1,5.5,15.4,-1.0,131.72644880996432,52369681.91237033,22.841628969883924,7.507997198575713,25801.57689168882,82.20000000000002,37.558101761424865
1306893750.2,9.044743,3.6913901,832.72,-1.0,5.5,15.4,-1.0,132.09803057034438,51556031.19531915,23.189162227819057,7.525502059055477,25297.577484518573,80.40000000000002,37.561439469211386
1306893751.06,9.0450767,3.6924566,833.53,-1.0,5.5,15.2,-1.0,133.554090955736,51628287.21325639,23.01436277810098,7.404313849314997,25004.49428011486,79.30000000000001,37.56524414987631
1306893752.34,9.0455647,3.6940229,834.73,-0.8,5.5,15.2,-1.0,131.62913092721007,51922966.83032472,23.08674136840108,7.6368517138979515,25185.888740392227,81.2,37.56964594340211
1306893754.48,9.0463843,3.6966679,836.74,-0.8,5.5,15.0,-1.0,133.0067874535902,52225019.36485667,21.83542160617287,7.880023359397236,24709.16189971684,79.3,37.575272583822056
1306893755.34,9.0467089,3.6977192,837.54,-0.6,5.5,15.0,-1.0,131.38215463750072,52516251.0430516,23.156809923657676,8.205192253531498,24303.07818132164,80.89999999999999,37.581358541827306
1306893756.61,9.0471889,3.6992778,838.73,-0.6,5.5,14.9,-1.0,131.95199690735697,52776471.7169006,22.255192046142785,8.0453593083197,23907.131390336173,81.7,37.58803395740036
1306893759.55,9.0483014,3.7029015,841.49,-0.6,5.5,14.8,-1.0,132.52917322923716,52730248.20967996,22.76255335296489,8.220351764373497,23912.361205631158,84.4,37.59665381741786
1306893759.98,9.0484643,3.7034334,841.9,-0.4,5.5,14.8,-1.0,133.0223278139881,52822693.209680185,20.29052408498393,8.128105415457815,24035.485124740448,82.5,37.604952155125645
1306893760.83,9.0487843,3.7044789,842.7,-0.4,5.5,14.8,-1.0,132.1887137963078,52818776.153675966,20.88886320722817,7.876582729789446,23709.75687657976,83.00000000000001,37.61354904926388
1306893762.95,9.0495817,3.7070887,844.69,-0.4,5.5,14.7,-1.0,132.31497789698446,52832421.84270851,23.004761929748042,7.922106697789742,23810.338288476185,83.2,37.62334782441698
1306893764.21,9.0500544,3.7086383,845.87,-0.3,5.5,14.7,-1.0,132.15058761566536,52729044.06430557,24.052757706966844,7.825581203466568,23829.13658472593,83.1,37.63341453482818
1306893767.18,9.0511707,3.7123032,848.66,-0.3,5.5,14.6,-1.0,132.63121539844104,52609241.3559947,25.27190498079922,7.767375688680811,24005.418586233434,84.39999999999999,37.64499699327088
1306893768.86,9.0517992,3.7143694,850.24,-0.3,5.5,14.6,-1.0,132.14256388534872,52665304.68758129,26.69469849171721,7.572658795401244,24006.219862225586,82.39999999999999,37.65687035285093
1306893774.35,9.0538557,3.7211364,855.39,-0.3,5.5,14.6,-1.0,132.4487419149989,52700475.9797327,26.25947139524505,7.423229401385984,24164.111648531743,82.60000000000001,37.67114747446073
1306893780.53,9.0561682,3.7287505,861.19,-0.3,5.5,14.6,-1.0,132.37847644512354,52775231.53604899,25.654751367289478,7.3653056442519365,23626.184088267248,84.3,37.689252242614714
1306893785.18,9.0579074,3.7344789,865.56,-0.3,5.5,14.3,-1.0,132.361196373179,52789789.453833185,28.23035713387298,7.290514554730288,23790.61267275401,87.0,37.70979139397079
1306893791.96,9.0604449,3.7428341,871.93,-0.3,5.5,14.2,-1.0,132.4088202695444,52790831.53634468,27.830444407971115,7.036338066045311,23131.05266216032,87.60000000000001,37.73309410613177
1306893800.47,9.0636348,3.7533277,879.93,-0.3,5.5,14.2,-1.0,132.50139170476186,52700090.370017484,28.973359958652523,7.064815625211735,23257.671005280794,87.60000000000001,37.76220718574682
1306893805.59,9.0655534,3.7596344,884.73,-0.3,5.5,14.0,-1.0,132.36099531107197,52678537.294895455,29.351227973114934,7.217029468859801,23464.08034413677,89.0,37.79438238259721
1306893806.87,9.0660329,3.7612094,885.94,-0.3,5.5,14.0,-1.0,132.22278918851777,52642840.55936727,29.91675039688118,6.979391574813582,23479.425337724264,89.10000000000001,37.825960466586714
1306893816.26,9.0695601,3.7727799,894.76,-0.3,5.5,14.0,-1.0,132.4205108773174,52602825.17754552,28.75018320276264,6.850388704367996,23950.144995045634,89.4,37.86338719449573
1306893817.53,9.07004,3.774351,896.19,-0.3,7.2,14.0,-1.0,133.03335340864805,52559063.53841312,29.389890798954564,6.86397078296126,24564.072485478624,91.60000000000001,37.89977280254472
1306893818.38,9.0703583,3.7753915,898.64,-0.3,7.7,14.0,-1.0,131.50247737569217,52515404.59788675,27.693990263415785,6.7992497977809006,24859.32840028694,94.0,37.936824421092396
1306893818.81,9.070519,3.775916,900.5,-0.3,8.7,14.0,-1.0,131.10829914857212,52583672.08647687,27.95181644819892,6.846081499304086,25280.499926706852,93.00000000000001,37.97135744821401
1306893819.23,9.0706783,3.776435,902.85,-0.3,8.4,14.0,-1.0,133.01265633263515,52668707.74324284,26.71801686156895,6.541738026232501,25951.95451231153,92.30000000000001,38.00324939922013
1306893819.66,9.0708425,3.7769683,905.58,-0.3,8.8,14.0,-1.0,133.55596525144293,52371397.31163998,25.58816298123827,6.74433996138441,26332.478773215236,90.69999999999999,38.033885882159765
1306893820.08,9.070999,3.7774755,908.51,-0.3,9.3,14.0,-1.0,129.8980716818818,52033845.41353052,27.282326480044162,6.791214708425425,26551.754135139425,90.20000000000002,38.061888944277
1306893820.5,9.0711585,3.7779908,911.84,-0.3,8.9,14.0,-1.0,132.1368454176331,52250685.97718557,25.921328761773097,6.77513951666379,26287.344799861374,90.5,38.08631698452197
1306893820.92,9.07132,3.7785107,915.39,-0.3,9.4,14.0,-1.0,133.52483748210298,51821573.82408834,24.940696331783286,6.545992879018546,25846.291129596735,90.9,38.1097881131309
1306893821.34,9.0714776,3.7790157,919.07,-0.3,9.6,14.0,-1.0,129.4342458927882,51511179.8407092,23.97218153055884,6.542995330777445,25627.72418889429,91.5,38.135150099132645
1306893821.76,9.0716376,3.7795266,923.01,-0.3,9.2,14.0,-1.0,131.15949587032586,52342405.50971163,25.476739172777414,6.604090409264975,25368.06023613175,92.89999999999999,38.15677630210727
1306893822.19,9.0718052,3.7800592,927.28,-0.3,10.5,14.0,-1.0,133.83886837338162,52100640.58505186,25.3259295041123,6.8118930639782835,24981.54803904336,92.3,38.180576608318994
1306893822.61,9.0719676,3.780573,931.78,-0.3,10.6,14.0,-1.0,132.12147715658148,51311934.92741644,27.56578839524529,6.83485216016007,24533.98555346862,89.7,38.20594624961383
1306893823.04,9.072132,3.7810901,936.61,-0.3,10.8,13.7,-1.0,129.85059384006365,51658696.62100668,27.670937088148133,6.8076652704028,24101.383961283904,91.5,38.233589512955916
1306893823.47,9.0722998,3.7816149,942.02,-0.3,14.2,13.7,-1.0,132.02811591117904,51484972.981904715,29.527621566069804,7.04706477760172,23660.524143913943,90.0,38.263575295983046
1306893823.89,9.0724649,3.7821278,948.41,-0.3,14.6,13.7,-1.0,132.47729433095012,50505840.279592976,29.70432478220784,6.819396065422202,23149.385029415815,87.99999999999999,38.29636291628051
1306893824.31,9.0726309,3.782639,955.63,-0.3,12.3,13.7,-1.0,132.38338612912523,51071651.46868132,28.758816912151957,6.889866737276895,22869.058182694407,88.39999999999999,38.332434657312874
1306893824.73,9.072794,3.783137,962.65,-0.3,9.7,13.7,-1.0,128.7220534688714,51288620.511696346,28.74646296958438,7.074181193193359,23165.577911003318,89.4,38.371331201494854
1306893825.15,9.0729622,3.7836456,969.06,-0.5,7.5,13.7,-1.0,131.55030102387497,51086263.81763831,29.5861792231361,7.2022036221817896,23830.173577247984,89.50000000000001,38.4124171595001
1306893825.57,9.073133,3.7841583,974.39,-0.5,7.4,13.7,-1.0,132.53307595331594,51000269.20294576,29.927217166002897,7.365581374037444,24172.238092494532,89.4,38.45476624086493
1306893825.99,9.0733054,3.7846723,978.99,-0.5,10.4,13.7,-1.0,132.75357015194203,50733925.3366115,28.218112813006556,7.368758282021128,23997.841995137802,88.50000000000001,38.49762057157359
1306893826.41,9.0734796,3.7851889,983.83,-0.7,11.4,13.6,-1.0,133.57010947855585,49932534.5379179,27.084932657081108,7.420920528908922,23984.105671788933,89.40000000000002,38.540911253988284
1306893826.83,9.0736514,3.7856956,989.02,-0.7,11.1,13.6,-1.0,130.92620285115612,48827193.48024966,25.923408953046213,7.541346332763611,24357.14530447687,92.30000000000003,38.58473015162609
1306893827.25,9.0738246,3.7862035,994.4,-0.7,9.4,13.6,-1.0,131.36589854166638,48765978.06165886,27.427104273923916,7.508480600314428,24636.035679805005,91.80000000000001,38.62897009038374
1306893827.67,9.0740028,3.7867227,999.65,-0.9,9.2,13.6,-1.0,134.58490956937598,49087414.35563261,27.26690356015913,7.280981923416774,25134.22913209154,91.5,38.673087544451974
1306893828.09,9.0741791,3.7872338,1004.59,-1.0,10.3,13.6,-1.0,132.27246323291726,49078273.56439968,26.75931648757286,7.427745059790043,25147.57071461388,91.80000000000001,38.71609498102241
1306893828.93,9.0745332,3.7882516,1014.74,-1.0,10.4,13.6,-1.0,131.81462101256446,49763359.63280311,26.1262359900841,7.334702765640428,25675.43116260161,90.6,38.761345418467734
1306893829.35,9.0747142,3.7887681,1019.95,-1.0,8.9,13.6,-1.0,134.0117192368501,50607376.56621253,28.68111719177183,7.166275898859499,26169.80729058344,91.3,38.80521024786405
1306893829.98,9.0749842,3.7895334,1027.03,-1.0,9.6,13.6,-1.0,132.17906958957187,49962983.3692151,28.941495173593264,7.232244786068565,26083.53175422516,90.9,38.8495879818973
1306893830.61,9.0752579,3.7903042,1034.07,-1.0,9.6,13.3,-1.0,133.35995230679714,50045462.364116676,26.753294443299918,7.007850391256689,25462.886624272855,91.10000000000001,38.89527477104866
1306893831.03,9.075441,3.7908176,1038.98,-1.0,9.8,13.3,-1.0,133.24222759923225,50062687.124007024,27.63624965294362,7.212130190744451,25644.773859805427,94.10000000000002,38.941198874285746
1306893831.46,9.0756284,3.7913406,1043.89,-1.6,9.1,13.3,-1.0,132.60080200710166,49553301.395847276,27.343331698069047,7.085064744553462,25572.29246776565,93.20000000000002,38.98717656457447
1306893831.88,9.0758092,3.791843,1048.44,-1.6,9.8,13.3,-1.0,130.28501052699343,50076658.56988917,26.202568880817804,7.037428527034814,25590.873866636568,92.4,39.032664316105524
1306893832.51,9.0760856,3.792608,1055.42,-1.8,9.8,13.1,-1.0,132.40095339124272,50981435.49355924,24.941316188745176,6.924675429417885,25547.103086179046,92.50000000000001,39.07937691453072
1306893833.15,9.0763721,3.7933971,1062.72,-1.9,8.5,13.1,-1.0,134.68507669110434,50848519.34840579,24.16568774451638,7.211436929062164,24945.78418978458,92.7,39.12765884803903
1306893833.59,9.0765647,3.7939251,1067.19,-1.9,7.0,13.1,-1.0,130.75160113214739,51042218.79419249,24.825804082391638,7.212197248034174,25294.60347521556,94.6,39.175580982772196
1306893833.8,9.0766578,3.7941797,1069.1,-2.0,6.5,13.1,-1.0,132.21984884664852,51736554.81303085,26.717963863442638,7.072010521262738,25550.904059433076,94.4,39.21719515600054
1306893834.45,9.0769501,3.7949771,1074.29,-2.0,8.7,12.9,-1.0,133.82704286656983,50850263.512426056,24.880118275876015,7.131062281828098,25310.30416286717,92.4,39.25879401864271
1306893835.3,9.0773282,3.7960081,1081.25,-2.3,10.0,12.9,-1.0,132.1837550432742,49987640.99612857,22.96801042694672,7.167011974182548,25355.323452749242,93.20000000000002,39.30030101776782
1306893835.73,9.0775199,3.7965308,1085.4,-2.3,13.6,12.9,-1.0,132.64446400631613,49695895.099500716,25.686069003612204,7.33715906022937,25590.369323115425,92.20000000000002,39.33959563719039
1306893835.95,9.0776201,3.7968041,1088.06,-2.3,15.5,12.6,-1.0,135.89811726350575,48919957.01758012,25.33343165155913,7.347010972363053,25683.613419318284,90.60000000000001,39.37716781566808
1306893836.16,9.0777124,3.7970557,1090.93,-2.3,16.4,12.5,-1.0,130.93091164530583,47122916.150993936,24.177034433942225,7.471328493765899,26074.242163097795,89.10000000000001,39.41317831435574
1306893836.39,9.0778159,3.7973377,1094.64,-2.3,17.3,12.5,-1.0,134.46455886205015,48672212.345148586,26.917122743097067,7.582069398696343,26156.30938031637,90.90000000000002,39.44854576842398
1306893836.61,9.0779099,3.7975932,1098.46,-2.3,18.1,12.4,-1.0,127.21650554510585,48659361.85442974,25.749546492905832,7.829591614585323,26609.698669594345,89.20000000000002,39.481494149876305
1306893837.03,9.0780974,3.7981012,1107.31,-2.3,19.1,12.4,-1.0,133.30098832142124,51006199.47759368,24.71066837677216,7.661076824955833,26806.978848305418,90.4,39.51562910175732
1306893837.24,9.0781898,3.7983502,1112.21,-2.1,18.7,12.2,-1.0,131.04267021338188,54010834.10052722,23.472811895885286,7.693025262876525,26749.865323224945,89.9,39.550093231241135
1306893837.87,9.0784671,3.7990901,1127.82,-2.0,13.7,12.2,-1.0,130.0947493979131,56326160.52266734,21.78249748251157,7.79318232701481,26125.146132656948,87.7,39.595045112256
1306893838.29,9.0786574,3.7995903,1137.81,-2.0,10.0,12.2,-1.0,132.0162754946197,57519080.86388902,21.371910658520687,7.908372839953693,26269.30999365434,87.0,39.64367153395329
1306893839.14,9.0790519,3.8006119,1153.25,-2.2,5.2,12.2,-1.0,132.54405651290992,56884297.320234515,23.253871305892076,8.049159783651938,25870.908061550468,86.5,39.69878964418951
1306893839.35,9.0791538,3.8008735,1155.97,-2.2,4.6,12.2,-1.0,137.05964261700422,54556468.99770999,21.10405709956139,7.935620814796266,26041.462837341853,85.7,39.752813047514096
1306893839.56,9.0792512,3.8011226,1158.12,-2.3,4.0,12.2,-1.0,130.04940216909955,49280372.737737216,21.267787673054006,7.759498034252934,26031.394090781767,86.39999999999999,39.80644603089117
