timestamp,longitude,latitude,altitude,roll,pitch,yaw,heading,air_speed,engine_0,temperature_in,humidity_in,pressure_in,heart_rate,oxygen_mask
1306893631.74,9.0233577,3.6329568,466.74,-1.0,1.3,-1.0,-1.0,74.83708283736742,7830065.567222012,22.816820165204934,7.580190482609086,24813.230931643724,94.7,33.895496255212265
1306893632.16,9.0235654,3.632746,466.84,-1.0,4.0,-1.0,-1.0,74.83708283736742,7021181.356035621,24.7545337431017,7.351244709063541,24628.296903088267,92.80000000000001,33.88320950980544
1306893632.58,9.0237708,3.6325375,466.9,-1.0,5.8,-1.0,-1.0,74.12901876081644,6220400.186630446,27.486354290851907,7.691379642774351,25255.137883260137,92.9,33.88217604523851
1306893633.01,9.023989,3.6323161,466.95,-1.0,7.0,-1.0,-1.0,76.69134272031464,5584972.070905885,28.667440791380912,7.505955510622805,25505.312777171537,92.30000000000001,33.881686106480856
1306893634.5,9.024785,3.6315082,467.03,-1.0,8.7,-1.0,-1.0,80.52926948372041,5334767.885678555,28.2224304138663,7.567414671019326,25152.77612303983,89.60000000000001,33.881540655912175
1306893634.92,9.025017,3.6312727,467.06,-1.0,9.0,-1.0,-1.0,83.18128846266701,5334767.885678554,28.2224304138663,7.567414671019325,25152.77612303983,89.60000000000001,33.881540655912175
1306893635.36,9.0252679,3.631018,467.22,-1.0,9.3,-1.0,-1.0,85.61358120910553,5584972.070905883,28.667440791380912,7.505955510622804,25505.312777171537,92.30000000000001,33.881686106480856
1306893635.79,9.0255179,3.6307642,467.59,-1.0,9.7,-1.0,-1.0,87.23211390883581,6220400.186630446,27.486354290851903,7.691379642774351,25255.137883260137,92.90000000000002,33.88217604523851
1306893636.22,9.0257713,3.6305069,468.25,-1.0,9.9,-1.0,-1.0,88.34609305431447,7021181.35603562,24.7545337431017,7.35124470906354,24628.29690308827,92.80000000000001,33.88320950980544
1306893639.24,9.027675,3.6285677,482.89,-1.0,10.1,-1.0,-1.0,94.50535571099894,7830065.567222013,22.81682016520493,7.580190482609086,24813.230931643728,94.70000000000002,33.895496255212265
1306893640.95,9.0288588,3.6273524,499.08,-0.2,10.1,-1.0,-1.0,109.36406038359853,8594926.268445069,21.772039793289146,7.778535770845459,24544.451772091,93.60000000000001,33.92025347306003
1306893641.79,9.0294742,3.626717,509.18,-0.2,9.9,-1.0,-1.0,115.77029804338785,9575914.077180738,19.588438909008257,8.003118788722281,24118.121323969626,96.4,33.95266598399617
1306893642.64,9.0301145,3.6260531,520.73,-0.4,9.9,143.5,-1.0,119.13337636684591,10958007.81268201,19.036060122923917,7.98672085194484,23486.96390198551,96.10000000000001,33.99387442669083
1306893643.9,9.0311045,3.6250211,540.3,-0.6,9.7,143.5,-1.0,124.43427406033392,12920126.102204109,20.14635818955211,7.90734477488983,23407.403576262055,95.2,34.05002600149398
1306893644.33,9.0314495,3.6246601,547.51,-0.7,9.7,143.5,-1.0,127.27155743210041,15498831.946689984,21.330447552134693,7.714138978971569,23947.128474811365,95.50000000000001,34.111635800269134
1306893644.75,9.0317965,3.6242964,554.83,-0.8,9.5,143.4,-1.0,130.9664259363879,18491174.38814254,23.302197153659655,7.735151917148692,24209.755772971723,97.20000000000002,34.178826307705705
1306893645.18,9.032159,3.6239157,562.39,-0.9,9.2,143.4,-1.0,133.43607867993475,21490935.71945984,24.275070092970093,7.592843733932109,24389.041900195403,97.10000000000001,34.25168173202766
1306893645.62,9.03253,3.6235255,569.92,-1.0,9.0,143.4,-1.0,133.64076319498474,24289273.670463346,24.293597525018978,7.385538174538861,24738.369951108867,97.70000000000002,34.330018346200895
1306893646.04,9.0328917,3.6231447,576.93,-1.1,8.8,143.4,-1.0,136.16646322590438,26604221.74173424,24.841798963622605,7.3675590652506875,24882.44987090727,94.30000000000001,34.41321607148523
1306893646.47,9.0332681,3.6227478,583.83,-1.1,8.8,143.3,-1.0,138.30132743467294,28456975.126458347,26.51690378238046,7.404657092243294,24805.824290086042,92.5,34.490488599919175
1306893646.89,9.0336485,3.6223465,590.36,-1.4,8.4,143.3,-1.0,142.62951410776876,29974525.899245497,27.841118082850535,7.233308821567566,25430.82295528798,91.60000000000002,34.56036611522976
1306893647.31,9.0340264,3.6219477,596.39,-1.5,8.3,143.3,-1.0,141.7651575858427,31508959.683108624,29.59821870040143,6.955879652900153,25751.30615758795,89.50000000000001,34.62712792625339
1306893648.15,9.0348089,3.6211221,607.49,-1.8,8.3,143.3,-1.0,146.24970097388382,32747895.011912953,29.351565577799494,6.945560091362803,25858.39365643642,89.60000000000001,34.69354524908803
1306893648.58,9.0352237,3.6206848,612.75,-1.9,8.4,143.3,-1.0,150.77261844037454,34159013.338413745,27.916118695819605,6.999397346457268,25663.213602260843,90.8,34.74900784751323
1306893649.0,9.0356265,3.6202607,617.67,-1.9,8.6,143.1,-1.0,149.840366229154,35953880.586408764,27.20603657076662,7.22379372914607,25468.243756990338,92.20000000000002,34.80271738382119
1306893649.44,9.0360637,3.6198018,623.0,-1.9,8.9,143.1,-1.0,154.63438802694301,37440862.226023436,25.822933681390616,7.366998590426407,25336.02152352567,91.50000000000001,34.85490351680456
1306893649.86,9.0364889,3.6193572,628.31,-1.9,9.1,143.1,-1.0,157.03393023785554,39352547.13583582,26.475921491048133,7.629301405979522,25429.291828749254,91.60000000000001,34.90536720884306
1306893650.29,9.0369415,3.6188857,634.18,-1.9,9.3,142.9,-1.0,162.41879371289775,41449936.16889154,25.894228593220422,7.886973800608866,25282.819445875193,88.4,34.95456012222889
1306893650.71,9.0373823,3.6184282,640.17,-1.9,9.5,142.9,-1.0,161.75944517234893,43724629.553091384,26.231883139381356,8.147234228859286,25211.007927655228,90.50000000000001,35.00297219571971
1306893651.15,9.0378512,3.6179435,646.84,-1.9,9.6,142.9,-1.0,163.6539268924854,45787813.64204387,23.88889535765169,7.867727445105999,25450.312738980647,92.4,35.051208197469485
1306893651.58,9.0383142,3.6174667,653.69,-1.9,9.6,142.7,-1.0,164.99189039985023,48149856.22372473,22.350563633122633,8.14125707573257,25380.062807098766,95.4,35.09968916859809
1306893652.0,9.0387772,3.6169917,660.76,-1.9,9.6,142.7,-1.0,168.36841267291837,49881919.48636253,21.65069868830381,8.293834457578876,25583.543869744633,96.80000000000001,35.148966290207895
1306893652.43,9.0392588,3.6164993,668.34,-3.8,11.0,142.7,-1.0,170.55372715966675,51322552.26866075,20.181810655929887,8.181129614148448,26121.80375756363,94.00000000000001,35.19554874865059
1306893652.85,9.0397416,3.6160099,676.63,-21.8,11.5,142.2,-1.0,173.97241839539976,52870746.75083262,19.57612798511123,8.25883545416303,26161.37877088828,94.4,35.244450760899056
1306893653.28,9.0402392,3.6155191,685.55,-38.4,10.4,141.3,-1.0,172.41030497569497,54460108.424613886,19.99001740639623,8.292452723130792,26334.516176133144,94.7,35.29641489038288
1306893653.72,9.0407678,3.6150159,694.55,-41.7,9.1,140.4,-1.0,174.68719968874,55599776.40521969,20.36675035273867,8.127176826699396,26262.07855840054,95.79999999999998,35.35118851243011
1306893654.14,9.0412772,3.6145454,702.36,-46.4,8.3,139.7,-1.0,172.97562330474508,56151160.68717506,20.820664429741893,8.13679954923584,26038.446053360356,96.2,35.407875957749454
1306893654.56,9.0417976,3.6140785,709.38,-52.0,8.1,138.9,-1.0,173.4458704487983,56033612.68793489,21.076474092691317,8.046516566066305,26624.495734979177,96.89999999999999,35.46544376177394
1306893654.99,9.0423332,3.6136152,715.64,-54.0,7.7,137.9,-1.0,170.49826142067155,54770911.130202785,20.85542685762355,8.117276241766376,26950.11674299404,98.30000000000001,35.523218258711836
1306893655.41,9.0428772,3.6131633,721.08,-55.3,7.4,136.7,-1.0,173.04065691701672,53061654.955508985,22.970805992678027,8.373255253214229,26743.581011271763,98.1,35.58005115459984
1306893655.84,9.043429,3.6127249,725.76,-57.1,7.4,135.4,-1.0,167.38504320027113,51470660.670362666,24.42295542655649,8.27378428167063,26123.69969138519,94.79999999999998,35.63522285188768
1306893656.26,9.043994,3.6122987,729.81,-58.1,7.4,133.9,-1.0,170.47718487589765,50199317.71778992,25.375712815748816,8.230285501854132,25893.654276305882,92.0,35.688082650662835
1306893656.68,9.0445743,3.6118851,733.31,-58.5,7.4,132.3,-1.0,170.05246160124778,49031175.294123024,27.802653459805434,8.078073427563234,25446.188573940573,93.4,35.737819089857936
1306893656.89,9.0448714,3.6116829,734.88,-58.8,7.4,131.5,-1.0,170.27560852896076,48120582.25429735,27.408423756640634,8.010856818248184,25385.5549954456,93.8,35.78241117209765
1306893657.32,9.0454812,3.611288,737.7,-59.3,7.4,129.7,-1.0,166.89916026772514,46969923.71334404,26.110779531262693,7.733530540687403,25008.62374637974,94.30000000000001,35.82233352555347
1306893657.74,9.0461051,3.6109114,740.12,-59.5,7.4,127.7,-1.0,169.5513286847154,46401281.41424698,27.52804357861968,7.531953894296482,25626.802912284194,94.20000000000002,35.85721869615715
1306893658.18,9.0467658,3.6105421,742.26,-59.7,7.4,125.6,-1.0,166.3861370910062,46001786.82809651,25.585714911346084,7.321555166102379,25366.1545082018,92.10000000000001,35.88776331557972
1306893658.61,9.047416,3.6102073,744.03,-59.9,7.4,123.6,-1.0,162.94321358761758,47028099.30729991,28.251542190017013,7.330933729620538,25356.757280123562,94.20000000000002,35.914288906130906
1306893659.05,9.0481097,3.6098802,745.62,-59.9,7.5,121.3,-1.0,164.85353973186096,49861370.692326345,28.35099852849458,7.304177821175196,25356.76370094004,94.10000000000001,35.93723947480982
1306893659.48,9.0487954,3.6095865,746.95,-59.9,7.6,118.9,-1.0,162.4975063310973,52333086.336336724,27.52532119496348,7.054588805161556,25375.440955121692,93.50000000000001,35.95704371802942
1306893659.9,9.0494832,3.6093202,748.08,-59.9,7.7,116.6,-1.0,162.59801405693594,56210540.15950665,26.381173744527317,6.854191615855563,25645.953753486683,95.4,35.97413033220264
1306893660.33,9.0501892,3.6090757,749.09,-60.1,7.8,114.2,-1.0,159.35221245802947,59787928.7305261,24.536618160457234,6.774056028111992,25703.871994590212,98.4,35.988889737277006
1306893660.75,9.0508787,3.6088643,749.95,-60.1,8.0,111.8,-1.0,156.13020347477718,63155495.70683216,22.529497392299483,6.949411315175133,25331.08050285186,99.7,36.001628144976046
1306893661.17,9.0515785,3.6086769,750.72,-60.1,8.1,109.3,-1.0,155.40209666282163,66586348.62600379,23.03543676154277,7.230884946977659,25245.826510064147,98.80000000000001,36.01375412922802
1306893661.6,9.0523006,3.6085116,751.42,-60.1,8.3,106.7,-1.0,153.6682466522854,70546518.91966484,25.920422921515243,7.249905336645469,24993.024770536926,97.19999999999999,36.02425719134525
1306893662.03,9.0530269,3.6083737,752.06,-60.1,8.5,104.1,-1.0,152.3097167747527,73547324.19159411,26.03254866872122,7.320249590513541,24767.181530330537,97.0,36.033397611292756
1306893662.5,9.0538215,3.608255,752.7,-60.1,8.7,101.1,-1.0,150.1886582221339,76340668.02611083,25.610407295176312,7.390676003858366,25176.164525299584,95.30000000000001,36.04138973727701
1306893662.94,9.0545627,3.6081747,753.24,-60.1,8.9,98.3,-1.0,147.8648453747418,78363576.79849051,24.708299567710654,7.3596447734905635,24634.68353818272,93.00000000000001,36.0484402622114
1306893663.36,9.0552657,3.6081255,753.73,-60.1,9.0,95.6,-1.0,145.5793241891952,79317115.42312591,26.75788913814807,7.058581324265056,24866.371400322547,91.70000000000002,36.05464870490606
1306893663.79,9.0559825,3.6081028,754.2,-60.1,9.2,92.8,-1.0,143.8793457141667,80324640.71881776,26.2404865904675,7.352304374243734,24245.823748101273,92.30000000000001,36.06019879239511
1306893664.22,9.0566877,3.608108,754.65,-60.1,9.5,89.9,-1.0,141.07290261234454,80602659.0419168,26.605088379972642,7.563475395633742,24643.82397070658,91.30000000000001,36.06522831995417
1306893664.65,9.057391,3.608141,755.08,-60.1,9.7,87.1,-1.0,140.47529013469165,80939193.0574701,27.88739573532299,7.781802446586027,24778.57152420671,92.0,36.06981384051411
1306893665.07,9.058079,3.608201,755.5,-59.9,9.7,84.2,-1.0,140.67032176600767,80640996.95656097,27.123130408119227,7.53413828542142,25649.401103767537,89.7,36.07406252817815
1306893665.49,9.0587424,3.6082858,755.89,-59.5,9.7,81.4,-1.0,136.19417929579305,79122455.7871277,26.449193708329418,7.16426413025918,25795.251715691196,89.10000000000001,36.07802031470483
1306893665.91,9.0593873,3.6083942,756.27,-59.0,9.7,78.6,-1.0,133.3150030860471,77669320.06708081,24.440662169546457,7.082953052281289,25824.641502420756,90.4,36.08173313185268
1306893666.35,9.0600577,3.6085348,756.65,-58.4,9.7,75.6,-1.0,133.3459677605348,75738769.85586546,22.231912699545276,7.165369681295607,25748.4819465317,90.10000000000001,36.085246911380246
1306893666.77,9.060684,3.6086926,757.0,-57.9,9.7,72.9,-1.0,132.07169157459765,73240765.13200514,21.90994499727879,6.975344443660015,24900.556525133165,90.50000000000001,36.088538687408246
1306893667.21,9.0613209,3.6088802,757.35,-57.4,9.7,70.1,-1.0,130.03253126699397,70982688.64251783,20.592944111771825,6.923402941773152,24606.521715825107,90.90000000000002,36.09168501286756
1306893667.65,9.061952,3.609094,757.69,-57.0,9.7,67.3,-1.0,131.13309512503898,68208141.67180946,20.60679645969034,7.153866064895518,23819.118720904982,89.0,36.094716508930546
1306893705.11,9.0342818,3.6372321,792.35,56.6,9.7,310.9,-1.0,95.12280610339727,64059180.27223281,19.643204485769477,6.792987832256603,24415.643170563737,87.1,36.12392145206265
1306893705.32,9.0340075,3.6374138,792.6,56.7,9.7,312.2,-1.0,138.46355051587582,56983740.70559762,19.243815640183335,6.861936497076294,24180.724150455564,87.50000000000001,36.152973289333
1306893705.54,9.0337345,3.6376026,792.86,56.8,9.7,313.6,-1.0,133.46456112792166,26057004.790095553,17.205495317288005,6.9717908637720205,24362.66806698049,85.0,36.18189498662084
1306893705.75,9.033467,3.6377959,793.1,56.9,9.7,314.8,-1.0,140.19309448002508,9525006.64292095,19.625579354699447,7.025512650429699,23878.570379177334,84.8,36.21067888863308
1306893705.97,9.0332052,3.6379936,793.35,56.9,9.7,316.1,-1.0,133.4378604459371,45730745.25235304,20.98313800032828,7.257380661585294,24254.854224263996,85.2,36.23935561654209
1306893706.19,9.0329363,3.6382061,793.6,57.0,9.7,317.5,-1.0,140.32789569747356,80179394.0981808,20.90615683096375,7.2909099243558835,24405.547306540902,84.60000000000001,36.267932825640955
1306893706.4,9.0326981,3.6384028,793.82,57.0,9.7,318.9,-1.0,133.02327298437294,92285521.11483055,20.907646639803247,7.323378129423353,24054.4232151884,81.4,36.296387550050405
1306893706.63,9.0324374,3.638628,794.07,57.1,9.7,320.2,-1.0,136.2826196611946,78526885.37496832,20.969797967082897,7.581057633973034,24789.859136543822,83.9,36.324765721528976
1306893706.84,9.032197,3.6388457,794.3,57.1,9.7,321.6,-1.0,141.7238624803677,60638652.14811044,20.82077418359837,7.454139343858553,24685.241224830283,82.60000000000001,36.35305202949048
1306893707.05,9.031978,3.639053,794.51,57.1,9.7,322.8,-1.0,131.99823722926746,40433269.48047305,18.55243078026202,7.2828301546999,24726.75829294011,82.9,36.381238818641826
1306893707.26,9.0317515,3.6392772,794.73,57.2,9.7,324.2,-1.0,140.70366210114736,16761347.526549576,20.948590690451994,7.635360059743749,24254.10438296549,86.1,36.38306077839686
1306893707.48,9.031534,3.639503,794.95,57.2,9.7,325.6,-1.0,132.5642363868305,16417306.29821889,21.562566526482634,7.650941972118455,23957.66635207921,88.0,36.38485977227263
1306893707.7,9.0313223,3.6397333,795.17,57.2,9.7,326.9,-1.0,132.75482360356807,13848979.46903423,23.185052055462602,7.361935111023593,23912.723444424457,90.2,36.386628144976044
1306893707.91,9.0311175,3.6399671,795.38,57.2,9.7,328.2,-1.0,139.8645308089729,11512312.034232426,23.231648983638053,7.343281593902292,23655.48291366407,91.4,36.388373551800186
1306893708.12,9.0309281,3.6401944,795.58,57.2,9.7,329.6,-1.0,133.17039945736929,9790168.400187567,23.28772029944776,7.2228473447913615,23189.466806926568,89.5,36.3900806821589
1306893708.34,9.0307358,3.6404368,795.8,57.3,9.7,330.9,-1.0,133.9207589162316,9348209.605828576,22.71337834292377,7.220265984922255,23127.086785371805,89.3,36.39176484663834
1306893708.56,9.0305426,3.6406937,796.02,57.3,9.7,332.3,-1.0,140.31797089033964,8539005.504216319,23.913994208647434,7.146268768048794,23088.457806831877,90.1,36.393449011117774
1306893708.77,9.0303752,3.6409286,796.21,57.3,9.7,333.6,-1.0,132.31245466579426,7994125.498767435,25.091516391454356,6.845623748763587,22317.33276374805,90.1,36.39508724383869
1306893708.99,9.0302055,3.64118,796.42,57.3,9.6,335.0,-1.0,133.48108658488064,9050409.229792433,26.276359713085405,7.012066985531997,22431.323985188643,93.19999999999999,36.396710165973424
1306893709.21,9.0300444,3.6414329,796.62,57.3,9.6,336.3,-1.0,132.7323332042991,11545852.634441247,27.91132546194138,6.981431753043624,23062.369195141677,95.10000000000002,36.398325432815064
1306893709.42,9.0298917,3.6416873,796.83,57.3,9.6,337.7,-1.0,138.71061460858587,12043654.523676349,25.469404400074875,6.979029865204806,22874.131153151946,94.00000000000001,36.39993304436363
1306893709.63,9.0297489,3.6419404,797.03,57.3,9.6,339.1,-1.0,136.4763194280249,14169557.339143667,24.62289384361241,6.917220530629086,22960.367274968678,94.0,36.401525345326
1306893709.84,9.0296198,3.6421836,797.21,57.3,9.6,340.4,-1.0,129.32780273975882,16778544.993302282,22.873643321806036,7.210059532554533,22804.378213026157,92.5,36.40308702511603
1306893710.06,9.0294867,3.6424518,797.42,57.3,9.6,341.7,-1.0,135.626523345995,17755863.092462126,22.625975502588616,7.3611136442053295,23288.15958286051,92.2,36.40464870490606
1306893710.27,9.0293675,3.6427099,797.62,57.3,9.6,343.0,-1.0,135.4066695827556,18693004.304351076,22.864145612498803,7.3558532711847615,24060.347005322496,95.4,36.40621038469608
1306893710.48,9.0292566,3.6429685,797.81,57.3,9.6,344.4,-1.0,134.5971763333564,21306074.248005632,24.173468541211424,7.600457488580549,24154.26989084365,95.70000000000002,36.40774909860684
1306893710.69,9.0291535,3.6432287,798.0,57.3,9.6,345.6,-1.0,134.647077577801,23539241.883930657,23.87588405813677,7.6049911246509305,24217.142287604285,97.30000000000001,36.409264846638344
1306893710.9,9.0290591,3.6434879,798.19,57.3,9.6,347.0,-1.0,132.93366536139737,25085128.922963914,24.678087197163862,7.687096885176003,25000.006904916507,98.20000000000002,36.41078059466984
1306893711.11,9.0289723,3.6437485,798.38,57.3,9.6,348.3,-1.0,132.9767780093474,26661106.503252044,25.75942196085129,7.7970239509067625,25457.55747020404,98.30000000000001,36.41228103211515
1306893711.32,9.0288941,3.6440077,798.57,57.3,9.6,349.7,-1.0,131.5068210065494,30406817.402449746,25.178058675582452,7.958197140542644,25119.85752447437,99.30000000000001,36.41377381426739
1306893711.54,9.0288206,3.6442793,798.77,57.3,9.6,351.0,-1.0,130.6954597571252,32177857.874358222,26.982852434804713,7.668997627818554,25420.454456109703,99.6,36.415258941126524
1306893711.76,9.0287525,3.6445646,798.97,57.3,9.6,352.4,-1.0,137.23747689925585,34590820.80819266,27.24875979009901,7.804758107789171,26135.996595871547,96.10000000000001,36.41674406798567
1306893711.97,9.0286968,3.6448343,799.17,57.3,9.6,353.7,-1.0,135.46788335044772,36181258.14612111,29.766293588557545,7.507524272326017,25523.51076808452,97.9,36.41824450543099
1306893712.18,9.0286516,3.6450906,799.35,57.3,9.6,355.1,-1.0,127.67473427527915,35898364.21821362,28.48256337187185,7.456880167550203,25364.40221112946,97.49999999999999,36.41972197699704
1306893712.39,9.0286114,3.6453641,799.54,57.3,9.6,356.3,-1.0,136.39624591799193,38041533.70802842,29.38037814105658,7.711792859793264,24555.663637271857,96.1,36.421191793270005
1306893712.61,9.0285786,3.6456481,799.74,57.3,9.6,357.7,-1.0,134.99655407199842,36193668.52099894,30.123280427501843,7.618988134887811,24471.124653514344,96.2,36.42266926483606
1306893712.82,9.028556,3.6459158,799.93,57.3,9.6,359.1,-1.0,132.91503810198017,37293543.51948467,30.759226178366827,7.8675455902407085,24531.39093118196,94.8,36.424146736402115
1306893713.04,9.0285414,3.6461849,800.12,57.3,9.6,0.5,-1.0,127.04996766653592,41377470.090016626,31.002132590198915,7.992433183733381,23749.55319964452,92.6,36.42562420796817
1306893713.26,9.0285346,3.6464718,800.33,57.3,9.6,1.9,-1.0,135.99682245060333,43735505.42881547,28.753521457737797,7.799723710915547,23629.10276880082,90.19999999999999,36.42711699012041
1306893713.47,9.0285365,3.6467445,800.52,57.2,9.6,3.1,-1.0,135.50207008308365,43615319.73889822,28.25449287483134,7.815882934000747,24180.68689568164,86.99999999999999,36.42860977227264
1306893713.68,9.0285462,3.6470028,800.7,57.0,9.5,4.5,-1.0,127.77846790260834,46908496.30159611,28.639152678961718,7.975633105652488,24259.915491952463,86.2,36.430087243838685
1306893713.89,9.0285643,3.647276,800.89,56.2,9.3,5.7,-1.0,136.11029480921405,49171666.44371406,29.80456095494012,7.867648390973505,24183.704435160736,86.30000000000001,36.43155706011165
1306893714.11,9.0285914,3.6475576,801.09,54.8,8.9,7.0,-1.0,133.9172567166138,45674389.8056162,29.264915450522714,8.095043613464357,24623.01818749427,83.5,36.433026876384616
1306893714.32,9.0286243,3.6478233,801.27,52.8,8.4,8.2,-1.0,132.66485575751918,47622127.70736319,30.658066674832032,8.190668836679343,24743.094798173555,85.2,36.43449669265758
1306893714.53,9.0286634,3.6480858,801.43,50.8,8.0,9.2,-1.0,131.15489818338807,49731157.56857047,30.33572487773433,8.063897419762144,25054.11303831565,85.80000000000001,36.43594354305129
1306893714.75,9.0287108,3.6483601,801.59,48.6,7.6,10.2,-1.0,131.2526744946197,49639624.08011734,29.688475293500304,8.103411195803423,25170.519659342684,85.4,36.437359772272636
1306893714.97,9.0287634,3.6486299,801.74,46.4,7.3,11.2,-1.0,129.35507976135227,50774909.34156341,28.993796202832225,7.793959925001782,25614.73955753203,87.3,36.43874538032163
1306893715.18,9.0288211,3.6488976,801.87,44.2,7.0,12.1,-1.0,135.18561592954572,57075946.1208247,28.083550582857224,7.713574392790459,26456.594235963625,86.2,36.440085056612084
1306893715.39,9.0288837,3.6491646,801.99,42.1,6.7,12.8,-1.0,135.23888778589705,55442106.69519736,28.467504223364703,7.89575634365969,26029.93160616373,86.2,36.44135583526476
1306893715.61,9.0289513,3.649432,802.09,39.8,6.5,13.6,-1.0,129.15412869978024,53039850.10444769,27.55325838492734,7.714603929255751,25272.114352100984,87.99999999999999,36.44255771627964
1306893715.82,9.0290221,3.6496949,802.18,37.5,6.3,14.3,-1.0,133.90085503821845,55441059.490513206,26.7982903931249,7.664123651841276,24917.41933139385,89.39999999999999,36.44369069965671
1306893716.03,9.0290968,3.6499571,802.27,35.5,6.2,14.8,-1.0,133.78877709441093,51529300.47803406,24.78638182879712,7.557181360294947,24422.212611354367,92.5,36.4447471301029
1306893716.24,9.0291724,3.65021,802.34,33.3,6.0,15.4,-1.0,129.01273866466278,50587586.81619925,22.91120094987925,7.616803023316313,24664.394610937503,94.8,36.44570404173895
1306893716.46,9.0292584,3.6504856,802.42,31.2,5.9,16.0,-1.0,135.02981174508122,54372110.61243185,21.82259357742877,7.636305115524887,24805.367295380776,92.39999999999999,36.44658440044411
1306893716.67,9.029341,3.6507396,802.49,29.4,5.8,16.5,-1.0,130.38527525447046,53724465.502158746,21.244424028935086,7.5172643603746,25104.048117089995,91.99999999999999,36.447395861511474
1306893716.9,9.0294347,3.6510175,802.56,27.3,5.8,17.0,-1.0,130.54038916925836,54524486.01692512,19.975377630653043,7.339306083588744,25212.684700445112,90.8,36.44813842494104
1306893717.11,9.029524,3.651274,802.63,25.6,5.7,17.4,-1.0,132.38160920248077,57647857.674437,19.06659681118317,7.490577723232395,25130.988923914036,88.2,36.448819746025904
1306893717.33,9.0296246,3.6515542,802.71,23.6,5.6,17.9,-1.0,138.81406394050785,55377414.021304645,19.742316960825473,7.550453859619788,25152.47331153772,88.7,36.449462790645335
1306893717.54,9.029716,3.6518023,802.79,22.0,5.6,18.2,-1.0,128.3859274259597,51367980.43099407,18.885078342270948,7.452452257523519,25647.945605796755,88.9,36.4500752140924
1306893717.75,9.0298144,3.6520632,802.88,20.5,5.6,18.5,-1.0,135.6759133095802,54482978.20840459,21.47074450088919,7.4106468666566325,26103.70229691041,89.8,36.45067998224638
1306893717.96,9.0299105,3.6523128,802.97,19.0,5.5,18.9,-1.0,129.62785957979355,50650790.36687587,22.364579090251503,7.3662322596517615,26272.462068440247,86.9,36.451284750400355
1306893718.17,9.0300092,3.6525643,803.07,17.6,5.5,19.1,-1.0,131.06266263985262,50407534.860022135,23.553405780494636,7.452024189974326,26512.0307253714,84.30000000000001,36.45189717384743
1306893718.59,9.030215,3.6530758,803.31,15.0,5.5,19.6,-1.0,133.74741141473814,54612656.7986567,24.35906161776129,7.139970634240984,26067.897535956363,81.0,36.452639737277
1306893719.02,9.0304289,3.6535919,803.58,12.5,5.5,20.1,-1.0,132.0481164205321,54016387.89219637,24.74163242899793,6.907247755797075,25934.09506017209,83.0,36.45352775127526
1306893719.44,9.0306416,3.6540936,803.87,10.3,5.5,20.4,-1.0,131.71993362801607,54536929.18421877,23.758604105459074,7.168674872058917,26090.510647813753,84.1,36.45458418172145
1306893719.65,9.0307515,3.6543489,804.03,9.4,5.5,20.6,-1.0,134.26613494164116,55574334.67264795,23.873690131612513,7.3827191774793395,26074.03105164113,86.19999999999999,36.45570950980544
1306893719.88,9.0308679,3.654617,804.21,8.3,5.5,20.7,-1.0,128.81831398181603,52987739.004719615,25.662942967246543,7.537898834088255,25571.304355573906,86.30000000000001,36.4569190461134
1306893720.09,9.0309799,3.654873,804.39,7.5,5.5,20.8,-1.0,135.1010131834904,51080564.52283392,23.410602672490374,7.5280552255829845,25697.87391730877,85.30000000000001,36.458205135352244
1306893720.3,9.0310926,3.6551288,804.57,6.6,5.5,21.0,-1.0,134.9769082428339,50985300.796760954,24.969922958822803,7.475967684987422,25547.19679872624,87.60000000000001,36.459567777521976
1306893720.51,9.0312011,3.6553737,804.75,5.8,5.5,21.0,-1.0,128.98185236427324,47619524.858540386,22.294962661392102,7.5755399413772935,25217.683865123174,86.2,36.4609993173295
1306893720.74,9.0313224,3.6556459,804.95,5.0,5.5,21.1,-1.0,131.10783585999297,50054469.88988154,20.14060014549651,7.739793239107672,25212.063098855622,88.5,36.462515065360996
1306893720.95,9.0314388,3.655906,805.15,4.2,5.5,21.2,-1.0,137.85142360955695,50029285.39976547,19.069501186578208,7.587803415680679,24890.18736693815,89.0,36.464107366323375
1306893721.16,9.0315498,3.6561529,805.34,3.6,5.5,21.3,-1.0,130.33423932371386,47520963.064636655,20.59710214085681,7.579024486739264,25192.812518949213,91.60000000000002,36.465661390820316
1306893721.37,9.0316626,3.6564033,805.53,3.0,5.5,21.3,-1.0,132.37620735128684,50889899.848543845,19.194407470569743,7.9005225881028025,25083.631501541968,91.1,36.46715417297254
1306893721.58,9.0317774,3.6566571,805.73,2.4,5.5,21.4,-1.0,134.49260400465008,50880951.063295126,18.524471645943827,7.691020367997204,24981.537750385647,90.2,36.46857805748698
1306893721.79,9.0318869,3.656899,805.92,1.9,5.5,21.4,-1.0,127.62608332914277,47620967.42324889,19.371866304977196,7.430373324416199,24721.110805565608,87.3,36.470024907880685
1306893722.01,9.0320042,3.6571575,806.13,1.3,5.5,21.4,-1.0,130.44307170446186,52500633.15653082,18.20515928560349,7.069409527129517,24947.169666771046,89.1,36.471494724153644
1306893722.22,9.0321222,3.6574172,806.33,0.8,5.5,21.4,-1.0,137.7014625085077,53114782.04454176,19.305107292437413,7.144875336053304,24613.4860975111,90.5,36.472979851012795
1306893722.44,9.0322397,3.6576757,806.54,0.3,5.5,21.4,-1.0,130.5055115556239,48790945.607832946,19.94453727810362,7.264364865177632,24314.267920734226,87.40000000000002,36.4744879437512
1306893722.66,9.0323567,3.6579329,806.75,-0.1,5.5,21.4,-1.0,129.79785351525953,51353892.33649191,22.589536730081583,7.355828429442781,24080.70251400712,87.50000000000001,36.47601900236887
1306893722.87,9.0324732,3.6581889,806.95,-0.5,5.5,21.4,-1.0,135.65983922554025,51387667.56193363,23.83433680574027,7.2698487125419105,23855.19492036302,87.5,36.47755006098654
1306893723.08,9.0325891,3.6584438,807.16,-0.9,5.5,21.4,-1.0,135.17939635551548,44921508.30711039,25.551423658878686,7.311382849460181,23828.93826588331,89.90000000000002,36.479088774897306
1306893723.3,9.0327044,3.6586974,807.37,-1.3,5.5,21.4,-1.0,127.8924614215083,46173914.39377768,25.63898459862672,7.250436005641528,24265.337064093397,91.1,36.48064279939424
1306893723.51,9.0328185,3.6589487,807.57,-1.6,5.5,21.4,-1.0,133.00870547949856,49315077.97299099,25.746223982136705,7.195281553179524,24101.54146220617,91.4,36.48220447918427
1306893723.72,9.032932,3.6591988,807.77,-1.9,5.5,21.4,-1.0,132.23726409694746,46469425.75631681,26.03831394884083,7.3996494215464255,23517.458439876238,92.30000000000001,36.4837661589743
1306893723.93,9.0330458,3.6594502,807.98,-2.2,5.5,21.3,-1.0,133.13726926918739,48850672.428995445,25.52479954870355,7.681895521569881,24011.597573404175,92.20000000000002,36.4853431493505
1306893724.14,9.033159,3.6597004,808.18,-2.5,5.5,21.3,-1.0,132.23726409694746,51686750.62098082,25.905154251782946,7.800933495472345,23814.333392111235,90.6,36.48691248443362
1306893724.35,9.0332719,3.6599507,808.38,-2.7,5.5,21.3,-1.0,132.33016816298962,48894541.38410887,25.63865324629402,7.863952353558116,23841.074278803346,92.2,36.48848181951672
1306893724.56,9.0333841,3.6601998,808.58,-3.0,5.5,21.2,-1.0,131.6801647982501,48439616.91482999,25.84496592077813,7.920171655715054,24633.011044973726,93.5,36.49004349930675
1306893724.77,9.0334961,3.660449,808.78,-3.2,5.5,21.2,-1.0,131.70871168397497,50216398.182225525,24.92790103724862,8.013247450383084,25072.403072282912,93.6,36.491597523803684
1306893724.98,9.0336067,3.6606959,808.98,-3.4,5.5,21.1,-1.0,130.34534414034943,49549511.42151241,25.885150826676302,8.176118997494674,25696.870839437557,92.1,36.493151548300624
1306893725.19,9.033723,3.6609559,809.19,-3.6,5.5,21.1,-1.0,137.63861436313138,49733359.81581357,25.839422377924837,8.078089780171604,26253.96379561394,88.5,36.49470557279757
1306893725.4,9.0338315,3.6611994,809.38,-3.8,5.5,21.0,-1.0,128.34973875290865,49215364.304508336,25.254566104672,8.085234327178485,25845.59779103973,84.8,36.49624428670832
1306893725.62,9.0339503,3.6614668,809.59,-3.9,5.5,21.0,-1.0,134.82853147850238,50064062.16108467,25.509565000861254,7.795518957236262,25581.59772047698,85.8,36.497790655912176
1306893725.83,9.0340619,3.6617188,809.79,-4.1,5.5,20.9,-1.0,133.05644925315244,48424278.763714,26.878744325972825,7.451039796450646,26315.119764460178,84.90000000000002,36.49933702511602
1306893726.05,9.0341773,3.6619804,810.0,-4.2,5.5,20.8,-1.0,131.623284403996,46796573.37337793,26.165969048523916,7.168975209950716,26365.61668194693,88.00000000000003,36.50088339431987
1306893726.26,9.0342846,3.6622242,810.19,-4.3,5.5,20.8,-1.0,128.3048025204386,48650501.02834316,26.73657724787647,7.320642838256957,26393.744057182637,88.4,36.50242210823064
1306893726.47,9.0343967,3.6624801,810.39,-4.5,5.5,20.7,-1.0,135.11177240420452,50951402.451518044,26.430993638151033,7.219298994359352,25941.495311032133,88.4,36.5039608221414
1306893726.68,9.0345079,3.6627349,810.59,-4.6,5.5,20.6,-1.0,134.2494402349425,49481394.5074857,24.944020581988376,6.86469855157414,25633.1486371392,88.2,36.50549953605216
1306893726.91,9.034624,3.6630018,810.8,-4.7,5.5,20.6,-1.0,128.1824431465995,50299575.89318543,24.16460569454145,6.7298875553263935,25970.8978720569,87.10000000000001,36.50704590525601
1306893727.12,9.0347334,3.6632544,811.0,-4.7,5.5,20.5,-1.0,132.95433733080495,52342511.38831992,22.835474860654305,6.503750140116631,25325.072490172413,86.60000000000001,36.50859227445986
1306893727.33,9.034842,3.663506,811.2,-4.8,5.5,20.4,-1.0,132.40603882950165,47558026.23019993,23.556562202016206,6.473698747021839,24933.293073667577,88.9,36.51013098837062
1306893727.54,9.0349501,3.6637576,811.4,-4.9,5.5,20.4,-1.0,132.3351935856643,48449327.94221501,22.49458454423218,6.863108019338358,24883.61364614449,90.39999999999999,36.51167735757447
1306893727.75,9.0350578,3.6640094,811.59,-4.9,5.5,20.3,-1.0,132.3213370700071,49130897.79047486,22.37157125287628,6.850789863277412,25129.789312350833,90.2,36.51320841619214
1306893727.97,9.0351703,3.6642733,811.8,-5.0,5.5,20.2,-1.0,132.31186118394479,48009458.92427811,22.12057039639316,7.181815439493464,24701.209873051852,90.60000000000002,36.514747130102904
1306893728.18,9.0352772,3.6645253,812.0,-5.0,5.5,20.1,-1.0,132.40195475488625,47428854.39809646,23.42689685975562,7.3471350863794225,24481.035690297533,89.6,36.51627818872058
1306893728.41,9.0353939,3.6648014,812.21,-5.1,5.5,20.0,-1.0,132.39780832507645,49782560.945676014,22.612396996140244,7.444333894093346,24428.18826854875,91.3,36.51782455792442
1306893728.62,9.0354994,3.6650525,812.41,-5.1,5.5,20.0,-1.0,131.6692582629585,48987956.68519754,22.17796511143035,7.237800450411782,24592.03499434642,90.70000000000002,36.51937092712828
1306893728.83,9.0356101,3.6653169,812.61,-5.1,5.5,19.9,-1.0,139.05442481984684,48941141.13185478,21.921210355265345,7.527668918934183,24739.3007174003,91.9,36.52091729633213
1306893729.04,9.0357149,3.6655682,812.81,-5.1,5.5,19.8,-1.0,131.80896979943236,48026987.50325637,21.232052803501222,7.61331378960487,24803.11442717141,94.30000000000001,36.522456010242884
1306893729.25,9.0358197,3.6658208,813.01,-5.1,5.5,19.7,-1.0,132.3110187059202,48207937.1702593,22.67872343583188,7.526704495987555,25190.930017382216,93.60000000000002,36.523994724153646
1306893729.46,9.0359216,3.6660675,813.2,-5.1,5.5,19.7,-1.0,129.1542531432186,48466703.59164969,22.522214742740783,7.823818494638428,24960.213656973076,91.6,36.525525782771325
1306893729.67,9.0360281,3.6663264,813.4,-5.1,5.5,19.6,-1.0,135.73729480062016,49641215.561990894,22.33084122407208,7.484240832486607,25148.52828593583,90.50000000000001,36.527056841389
1306893729.88,9.0361316,3.6665794,813.6,-5.1,5.5,19.5,-1.0,132.32856109480656,50760743.82712816,22.165093066126204,7.813261250042174,25706.457118373994,88.80000000000001,36.52859555529976
1306893730.09,9.0362343,3.6668313,813.79,-5.1,5.5,19.4,-1.0,131.71224731089893,53208456.38083589,21.185564295655283,7.461360525577851,25234.447811506772,89.10000000000001,36.530118958624335
1306893730.3,9.036336,3.667082,813.99,-5.1,5.5,19.4,-1.0,131.02114465229994,52940824.659517154,20.242094289953734,7.450206362535464,24708.199415411582,88.3,36.53164236194892
1306893730.51,9.0364379,3.6673341,814.19,-5.1,5.5,19.3,-1.0,131.79741348727313,51994792.23540217,19.376203828505307,7.388633387555618,24655.87944276419,87.69999999999999,36.53315810998043
1306893730.72,9.0365393,3.6675863,814.38,-5.1,5.5,19.2,-1.0,131.6568839945163,52498441.48734452,21.484818820930258,7.471980318630778,24395.877233259824,88.5,36.53466620271883
1306893730.93,9.0366408,3.6678399,814.58,-5.0,5.5,19.1,-1.0,132.4049850464507,51348011.83784356,23.334379165561003,7.535424026879495,23701.218027581006,88.0,36.53617429545723
1306893731.14,9.0367438,3.6680983,814.78,-5.0,5.5,19.1,-1.0,135.1637341054557,51302788.55013954,24.44595814034404,7.595235018156568,22900.72190183987,85.1,36.53768238819564
1306893731.35,9.036845,3.6683533,814.98,-5.0,5.5,19.0,-1.0,133.0433661911383,49445316.9905965,23.70526245601943,7.5697181104360745,23116.205375686008,87.7,36.53919048093405
1306893731.56,9.0369414,3.6685975,815.17,-4.9,5.5,18.9,-1.0,126.9819205996474,49894934.056835614,23.651303421474907,7.537464211928373,23623.338882537177,88.10000000000001,36.54069857367246
1306893731.77,9.0370422,3.6688538,815.37,-4.9,5.5,18.8,-1.0,133.74740374625762,50202120.79496727,23.17468616463839,7.843707569077223,23530.53714100503,91.30000000000001,36.54220666641086
1306893731.98,9.0371426,3.6691103,815.57,-4.9,5.5,18.8,-1.0,133.82663196198396,49348008.75742258,24.957236934063822,7.510363115763934,23464.262659278436,91.50000000000003,36.543714759149275
1306893732.19,9.0372431,3.6693681,815.77,-4.8,5.5,18.7,-1.0,134.38851164173096,50177726.234824955,25.237396635480682,7.579811915275175,23667.68496315044,90.9,36.54523050718077
1306893732.4,9.0373422,3.6696236,815.96,-4.8,5.5,18.6,-1.0,133.07200293077452,51235064.75583803,27.54331895090331,7.663144899532201,23622.706160889957,93.3,36.54673859991918
1306893732.61,9.0374368,3.6698682,816.15,-4.7,5.5,18.6,-1.0,126.95594406081612,49287878.036214754,30.373253444652445,7.71989387335262,23722.736580716613,93.60000000000002,36.548239037364496
1306893732.82,9.0375347,3.6701227,816.35,-4.7,5.5,18.5,-1.0,132.41189157000318,50317772.88703914,28.301107092975688,7.966850030067404,24302.658534832648,92.10000000000002,36.54974713010291
1306893733.03,9.0376327,3.6703784,816.55,-4.6,5.5,18.4,-1.0,133.10218028229855,51525904.53067892,28.532210081798677,7.684622856186676,25125.91103756041,90.30000000000003,36.55125522284131
1306893733.24,9.0377303,3.6706343,816.75,-4.6,5.5,18.3,-1.0,133.06372551041883,51444350.83040986,28.9434068541713,7.473426700249466,25515.992884339197,90.80000000000003,36.55276331557972
1306893733.45,9.037828,3.6708914,816.94,-4.5,5.5,18.3,-1.0,133.75510042321605,51919201.897039786,27.295438984558526,7.598997445166256,24922.506886019433,90.60000000000001,36.55426375302505
1306893733.66,9.0379225,3.6711414,817.14,-4.5,5.5,18.2,-1.0,129.71712427135122,51497081.23648327,26.945141385782758,7.615551648643837,24583.788933930657,90.5,36.555771845763445
1306893733.87,9.0380222,3.671406,817.34,-4.4,5.5,18.1,-1.0,137.8022643787072,49870218.605349496,29.097447202378937,7.284299575008657,24751.925971055487,87.60000000000001,36.55727993850185
1306893734.08,9.0381165,3.6716574,817.54,-4.4,5.5,18.1,-1.0,130.4099748598422,47577768.76905605,29.37082609027762,7.42927275945701,24056.42662471947,87.4,36.55878803124027
1306893734.29,9.0382105,3.6719088,817.73,-4.3,5.5,18.0,-1.0,130.37087382721776,48448911.1863251,30.56909876624411,7.719656631523608,24721.377642037158,86.60000000000001,36.56028846868558
1306893734.51,9.0383127,3.6721835,817.94,-4.3,5.5,17.9,-1.0,136.30474272920827,50037288.160924174,28.57690112108814,7.460750032322958,25179.7547409352,85.39999999999999,36.56180421671708
1306893734.72,9.0384055,3.6724339,818.13,-4.2,5.5,17.9,-1.0,129.61829956220737,50187887.76632341,26.495693492857608,7.407168891962092,25683.008225446058,84.1,36.56331996474857
1306893734.93,9.0385015,3.6726941,818.34,-4.2,5.5,17.8,-1.0,135.05744972864653,52469789.55907951,27.489367344345784,7.075352990348633,25417.386148312326,85.5,36.56484336807316
1306893735.14,9.038595,3.6729483,818.53,-4.1,5.5,17.8,-1.0,131.8162713553331,52439704.78081735,26.99249586192794,7.224857664118883,25331.77443593532,87.4,36.56635911610466
1306893735.35,9.0386868,3.6731989,818.72,-4.0,5.5,17.7,-1.0,129.65541128771247,50904063.29853837,26.112262366509796,7.41192707135385,25060.537006853614,89.7,36.56786720884306
1306893735.56,9.0387797,3.6734533,818.92,-4.0,5.5,17.6,-1.0,131.76919132248096,52323450.2365531,27.73686214400167,7.553617452335547,25578.729421659373,90.4,36.569382956874556
1306893735.78,9.0388797,3.6737284,819.13,-3.9,5.5,17.6,-1.0,136.30440453671088,53988156.448907025,27.69280861929196,7.541467305173808,25584.378490697127,91.89999999999999,36.570906360199146
1306893735.99,9.0389692,3.6739756,819.32,-3.9,5.5,17.5,-1.0,127.62775094027799,50108154.768857434,26.083215043059607,7.581612645585345,25048.053823810173,92.4,36.57242210823064
1306893736.21,9.0390664,3.6742448,819.53,-3.8,5.5,17.5,-1.0,133.16605272374994,53643854.92499857,24.737978327380944,7.75339566514824,25804.328442619248,90.9,36.57394551155522
1306893736.44,9.0391667,3.6745239,819.74,-3.7,5.5,17.4,-1.0,131.81864032032755,52608630.78866802,22.9024448474056,7.369823151489387,25499.188546236288,91.80000000000001,36.57548422546598
1306893736.66,9.0392632,3.6747933,819.95,-3.7,5.5,17.3,-1.0,132.9355409210813,49910756.13504626,24.324420562896712,7.434505678600693,25482.2226201034,93.00000000000001,36.57702293937675
1306893736.87,9.0393567,3.6750554,820.15,-3.6,5.5,17.3,-1.0,135.81170549123667,52233706.03415243,26.135175467252495,7.427439546057872,25175.589284185186,94.30000000000001,36.57856930858059
1306893737.08,9.0394451,3.6753042,820.34,-3.6,5.5,17.2,-1.0,128.42159973936967,49446995.96438972,25.796938971366455,7.669401046569703,25032.696205037868,91.60000000000002,36.58010036719826
1306893737.3,9.0395424,3.6755787,820.55,-3.5,5.5,17.2,-1.0,135.63567898445646,49880756.648172334,23.588442265760435,7.6462122522814715,24558.299398113013,91.90000000000002,36.58164673640212
1306893737.51,9.0396307,3.6758288,820.75,-3.4,5.5,17.1,-1.0,128.94182465290694,49971429.5982597,23.269363828359754,7.42725189524693,25221.44504380365,91.90000000000002,36.583200760899054
1306893737.72,9.0397205,3.6760839,820.94,-3.4,5.5,17.1,-1.0,131.85999785614584,51707328.68894672,22.212806350454926,7.42018435369853,25328.64913865817,92.0,36.584747130102905
1306893737.93,9.0398134,3.6763488,821.15,-3.3,5.5,17.0,-1.0,137.03318017891178,51932227.52874044,20.850746596668316,7.529493698843389,25455.388633143266,92.99999999999999,36.58629349930675
1306893738.14,9.0399014,3.6766003,821.34,-3.3,5.5,17.0,-1.0,129.74864719172743,51644368.40116182,21.550196567159986,7.570350347793402,26038.937378476996,91.9,36.5878398685106
1306893738.35,9.0399895,3.6768532,821.53,-3.2,5.5,16.9,-1.0,130.4002727621797,52054275.78290576,21.45104851583504,7.364643778398564,25878.212930841164,94.60000000000001,36.58937092712827
1306893738.57,9.0400846,3.6771268,821.74,-3.2,5.5,16.9,-1.0,135.05787972731508,52803271.33625774,23.411551100725973,7.414603133363109,25669.500280250475,92.10000000000001,36.590901985745944
1306893738.78,9.0401718,3.6773786,821.94,-3.1,5.5,16.8,-1.0,129.65104139098537,49878084.77058696,23.16750362881088,7.532669832081451,25223.832988397688,89.30000000000003,36.592425389070534
1306893739.0,9.0402655,3.6776499,822.14,-3.0,5.5,16.8,-1.0,133.74741432186812,51467472.168454416,21.486400974890977,7.239225022095853,24873.67770711266,88.70000000000002,36.59394879239511
1306893739.22,9.0403581,3.6779188,822.35,-3.0,5.5,16.7,-1.0,132.40810007417005,53406714.636682525,22.4691375112573,7.1757878718458725,24879.07556879962,89.60000000000001,36.59548750630587
1306893739.44,9.0404509,3.6781891,822.56,-2.9,5.5,16.7,-1.0,133.03285199733696,50361678.96555196,23.24366785495968,6.992443776886692,25189.302410490975,88.2,36.59702622021664
1306893739.86,9.0406277,3.6787065,822.95,-2.8,5.5,16.6,-1.0,133.46740342499447,52049085.209955595,25.44634316311085,7.110440616992742,24403.25607713602,86.5,36.598710384696076
1306893740.08,9.0407181,3.678972,823.16,-2.8,5.5,16.6,-1.0,130.38980043127725,52060861.40657034,27.625496292419243,7.166868710277235,24736.27526183287,85.89999999999999,36.60040985976169
1306893740.29,9.0408049,3.6792277,823.35,-2.7,5.5,16.5,-1.0,131.77261570437068,50606598.83484056,28.187119223774374,6.976465935213396,24829.479017147904,85.5,36.60209402424113
1306893740.5,9.0408931,3.6794884,823.55,-2.7,5.5,16.5,-1.0,134.45975048647725,52628745.74949288,27.902794029386094,6.99427052556406,24512.49387282402,85.5,36.603785844013665
1306893740.71,9.0409812,3.6797492,823.75,-2.6,5.5,16.4,-1.0,134.45975048647725,52823351.297310434,29.361119456174436,7.186438522485054,24570.345592005215,85.80000000000001,36.60548531907928
1306893741.13,9.0411521,3.6802574,824.14,-2.5,5.5,16.4,-1.0,130.72196805059878,51525868.31179577,29.685695039725317,7.223144538808036,25168.267643108706,86.99999999999999,36.60732258942049
1306893741.34,9.0412395,3.6805182,824.34,-2.5,5.5,16.3,-1.0,134.37887919561797,52018172.231319435,29.595391407496585,7.125098055663189,25649.249619601993,87.1,36.6091598597617
1306893741.56,9.0413276,3.6807816,824.54,-2.4,5.5,16.3,-1.0,129.27496835486707,48774076.65098371,31.244462538529405,7.1635271628092205,25662.007626090424,86.7,36.6109971301029
1306893741.99,9.0415031,3.6813085,824.95,-2.3,5.5,16.2,-1.0,132.45162524174438,49781606.88741034,31.637205776057684,7.318528942995767,25458.736078841615,89.0,36.61298750630588
1306893742.2,9.0415902,3.6815708,825.15,-2.3,5.5,16.2,-1.0,135.13316900235932,50845639.05430122,32.74751675470661,7.526126929616705,25614.62133959155,91.3,36.614970227215764
1306893742.41,9.041677,3.6818331,825.35,-2.2,5.5,16.2,-1.0,135.0872566589842,49959098.71480726,32.45251399595157,7.553743620530525,26035.973137991165,93.79999999999998,36.61680749755697
1306893742.62,9.0417597,3.6820832,825.54,-2.2,5.5,16.1,-1.0,128.35829491387372,51251222.548113346,30.54277389723994,7.567706883244124,25510.475822026016,91.8,36.61862945731201
1306893742.83,9.0418446,3.6823407,825.74,-2.1,5.5,16.1,-1.0,132.4461287100666,54162214.311676316,29.901117406698862,7.409171591957095,25797.50276780084,92.5,36.62045907236012
1306893743.26,9.0420172,3.6828656,826.14,-2.1,5.5,16.0,-1.0,131.7256938179896,52916812.280373625,29.69768537252219,7.389153108195432,26173.221560533726,95.50000000000001,36.622441793270006
1306893743.47,9.0421016,3.6831232,826.34,-2.0,5.5,16.0,-1.0,132.46213144695906,53658040.51525272,28.18862899262936,7.480038067390815,26235.974362412548,93.80000000000001,36.62442451417989
1306893743.91,9.0422796,3.6836679,826.75,-1.9,5.5,15.9,-1.0,133.69060349705924,55672726.436257266,25.789847914374263,7.7034158277284055,25932.95617674675,95.19999999999999,36.62642254567595
1306893744.35,9.0424542,3.6842042,827.16,-1.9,5.5,15.9,-1.0,131.46956153850795,53099245.75899952,24.5876472271449,7.7150242642993,25608.689090939155,96.60000000000001,36.62858133832687
1306893744.57,9.0425411,3.6844717,827.37,-1.8,5.5,15.9,-1.0,131.0020187896533,52014272.42925197,23.515346508370957,7.957788312134674,25937.73282136336,96.70000000000002,36.63074778627088
1306893744.78,9.0426266,3.6847356,827.57,-1.8,5.5,15.8,-1.0,135.94512433500574,52045473.36168802,21.330138895498816,7.613703859083296,25940.71493885918,95.4,36.632753473060035
1306893745.0,9.0427124,3.6850008,827.77,-1.7,5.5,15.8,-1.0,129.69797454037476,49206489.95215061,20.95788782291652,7.748678473099508,25435.252726475373,92.50000000000001,36.63475915984918
1306893745.42,9.0428785,3.6855152,828.16,-1.7,5.5,15.7,-1.0,132.09018394988286,49490607.1459267,18.34698929897106,7.766741310968506,25412.157582241125,92.60000000000001,36.63691029720701
1306893745.63,9.0429623,3.6857756,828.36,-1.6,5.5,15.7,-1.0,133.79269681998727,51679900.09153254,19.528834571597855,7.63723277381492,25910.19383963497,92.90000000000002,36.639069089857934
1306893745.84,9.0430456,3.6860347,828.56,-1.6,5.5,15.7,-1.0,133.03133532448513,50849601.54138627,20.80963627965453,7.945677744501535,25251.426296181005,92.9,36.64122788250886
1306893746.28,9.0432193,3.6865764,828.98,-1.5,5.5,15.6,-1.0,132.74109288046236,52444771.984639354,21.516218650487453,8.055049236855615,24681.35707359337,92.6,36.64340198574595
1306893746.72,9.0433917,3.6871157,829.39,-1.5,5.5,15.6,-1.0,132.0940933087331,53383289.87810489,21.23357598492246,7.916264554818887,24433.684023722868,91.60000000000001,36.6457368501379
1306893746.94,9.0434776,3.6873848,829.59,-1.4,5.5,15.6,-1.0,131.82167837803968,52367849.74646597,21.16869555352023,7.906055392119437,24190.37361600516,90.50000000000001,36.64791095337499
1306893747.38,9.0436501,3.6879267,830.01,-1.4,5.5,15.5,-1.0,132.70275055253688,53095290.481008954,22.935444559005,8.016781882343027,24694.363912478057,89.10000000000001,36.650092711905174
1306893747.6,9.0437368,3.6881995,830.23,-1.3,5.5,15.5,-1.0,133.80552187442342,54059001.94909544,23.70950019561162,8.060122323598572,24634.11543042725,91.10000000000001,36.65228212572845
1306893748.46,9.0440717,3.6892566,831.06,-1.2,5.5,15.4,-1.0,132.39139210899376,52136976.5514258,25.37242303162878,8.202762718251718,24981.913908142342,92.00000000000001,36.654953823016285
1306893748.89,9.0442382,3.6897841,831.47,-1.2,5.5,15.4,-1.0,132.0606361516065,52605121.84126415,24.827183358063195,7.9391015926906485,25158.696960193636,92.60000000000001,36.657786281458975
1306893749.33,9.0444078,3.6903227,831.89,-1.1,5.5,15.4,-1.0,131.72644880996432,52369681.91237033,26.55895234649796,7.859041956001694,24819.32917578643,89.5,36.66064170578094
1306893750.2,9.044743,3.6913901,832.72,-1.0,5.5,15.4,-1.0,132.09803057034438,51556031.19531915,24.951505071374175,7.940821285916038,24463.106002965927,90.4,36.66397941356747
1306893751.06,9.0450767,3.6924566,833.53,-1.0,5.5,15.2,-1.0,133.554090955736,51628287.21325639,25.1564165294356,7.781707278946756,24695.079214394176,86.9,36.66778409423239
1306893752.34,9.0455647,3.6940229,834.73,-0.8,5.5,15.2,-1.0,131.62913092721007,51922966.83032472,24.99877701383565,7.57470997173009,24398.607988606993,86.9,36.6721858877582
1306893754.48,9.0463843,3.6966679,836.74,-0.8,5.5,15.0,-1.0,133.0067874535902,52225019.36485667,25.025166929834143,7.572769897804643,23925.351437175825,86.60000000000001,36.677812528178144
1306893755.34,9.0467089,3.6977192,837.54,-0.6,5.5,15.0,-1.0,131.38215463750072,52516251.0430516,27.494695332013805,7.511265303589413,24387.925437375125,86.2,36.683898486183395
1306893756.61,9.0471889,3.6992778,838.73,-0.6,5.5,14.9,-1.0,131.95199690735697,52776471.7169006,25.913360261033283,7.533735941080766,23924.610127814347,87.10000000000001,36.690573901756444
1306893759.55,9.0483014,3.7029015,841.49,-0.6,5.5,14.8,-1.0,132.52917322923716,52730248.20967996,24.0166454204908,7.420730828143473,23873.164515102722,84.30000000000001,36.69919376177394
1306893759.98,9.0484643,3.7034334,841.9,-0.4,5.5,14.8,-1.0,133.0223278139881,52822693.209680185,23.55371739651571,7.324124814566778,23507.523758870328,83.70000000000002,36.70749209948173
1306893760.83,9.0487843,3.7044789,842.7,-0.4,5.5,14.8,-1.0,132.1887137963078,52818776.153675966,23.729852931650683,7.461616564436342,23318.09729785218,85.19999999999999,36.71608899361996
1306893762.95,9.0495817,3.7070887,844.69,-0.4,5.5,14.7,-1.0,132.31497789698446,52832421.84270851,23.18592403969158,7.400520303659839,23276.051317217527,85.30000000000001,36.72588776877306
1306893764.21,9.0500544,3.7086383,845.87,-0.3,5.5,14.7,-1.0,132.15058761566536,52729044.06430557,23.2008943950565,7.185742798990029,23173.121906693792,85.10000000000001,36.735954479184265
1306893767.18,9.0511707,3.7123032,848.66,-0.3,5.5,14.6,-1.0,132.63121539844104,52609241.3559947,22.084572986460792,7.02718813101932,22929.595358612525,85.0,36.74753693762696
1306893768.86,9.0517992,3.7143694,850.24,-0.3,5.5,14.6,-1.0,132.14256388534872,52665304.68758129,22.872452564024627,7.350971882405259,23361.854172678133,85.5,36.75941029720701
1306893774.35,9.0538557,3.7211364,855.39,-0.3,5.5,14.6,-1.0,132.4487419149989,52700475.9797327,24.595034612147398,7.392338730190804,24187.23818047694,87.3,36.773687418816806
1306893780.53,9.0561682,3.7287505,861.19,-0.3,5.5,14.6,-1.0,132.37847644512354,52775231.53604899,23.19043639625158,7.547154609578361,23612.210267518087,89.2,36.791792186970795
1306893785.18,9.0579074,3.7344789,865.56,-0.3,5.5,14.3,-1.0,132.361196373179,52789789.453833185,24.712208476992057,7.443803192104399,23411.236038651863,90.4,36.81233133832688
1306893791.96,9.0604449,3.7428341,871.93,-0.3,5.5,14.2,-1.0,132.4088202695444,52790831.53634468,26.71695916539591,7.412343009932363,23414.3500657334,90.90000000000002,36.835634050487855
1306893800.47,9.0636348,3.7533277,879.93,-0.3,5.5,14.2,-1.0,132.50139170476186,52700090.370017484,26.094150667890943,7.486075521651076,23477.296669671632,89.39999999999999,36.8647471301029
1306893805.59,9.0655534,3.7596344,884.73,-0.3,5.5,14.0,-1.0,132.36099531107197,52678537.294895455,26.154398027434613,7.551190712564969,24005.529845279274,90.8,36.896922326953295
1306893806.87,9.0660329,3.7612094,885.94,-0.3,5.5,14.0,-1.0,132.22278918851777,52642840.55936727,27.367529165256155,7.840086009812897,24433.88444814291,93.0,36.9285004109428
1306893816.26,9.0695601,3.7727799,894.76,-0.3,5.5,14.0,-1.0,132.4205108773174,52602825.17754552,28.549437290018666,7.871961008564995,24940.742433585732,93.1,36.96592713885181
1306893817.53,9.07004,3.774351,896.19,-0.3,7.2,14.0,-1.0,133.03335340864805,52559063.53841312,27.706799511969677,7.957981621194479,25540.945484379685,94.39999999999999,37.002312746900806
1306893818.38,9.0703583,3.7753915,898.64,-0.3,7.7,14.0,-1.0,131.50247737569217,52515404.59788675,25.37686485532807,7.686420060082083,26014.565466602122,91.1,37.039364365448485
1306893818.81,9.070519,3.775916,900.5,-0.3,8.7,14.0,-1.0,131.10829914857212,52583672.08647687,25.536060364993077,7.543761873329364,25225.501704667007,89.6,37.073897392570096
1306893819.23,9.0706783,3.776435,902.85,-0.3,8.4,14.0,-1.0,133.01265633263515,52668707.74324284,24.851306440344988,7.149231520567229,25826.5529341687,87.2,37.10578934357622
1306893819.66,9.0708425,3.7769683,905.58,-0.3,8.8,14.0,-1.0,133.55596525144293,52371397.31163998,22.943497147468584,7.033850879102625,26317.680796142842,84.4,37.136425826515854
1306893820.08,9.070999,3.7774755,908.51,-0.3,9.3,14.0,-1.0,129.8980716818818,52033845.41353052,21.12256284133728,7.071985285645086,26636.222757306845,85.2,37.16442888863308
1306893820.5,9.0711585,3.7779908,911.84,-0.3,8.9,14.0,-1.0,132.1368454176331,52250685.97718557,22.87742163720945,7.248824100390495,26939.266101581157,84.7,37.18885692887805
1306893820.92,9.07132,3.7785107,915.39,-0.3,9.4,14.0,-1.0,133.52483748210298,51821573.82408834,23.15415478848436,7.076790617680034,26556.45375581137,83.8,37.21232805748698
1306893821.34,9.0714776,3.7790157,919.07,-0.3,9.6,14.0,-1.0,129.4342458927882,51511179.8407092,23.585097535819717,6.915174609781533,26560.221720568705,84.6,37.237690043488726
1306893821.76,9.0716376,3.7795266,923.01,-0.3,9.2,14.0,-1.0,131.15949587032586,52342405.50971163,22.696207593443116,7.002111566434975,26502.522229063692,86.4,37.259316246463364
1306893822.19,9.0718052,3.7800592,927.28,-0.3,10.5,14.0,-1.0,133.83886837338162,52100640.58505186,24.525591063273808,6.999696169968152,25851.834724201268,87.80000000000001,37.28311655267508
1306893822.61,9.0719676,3.780573,931.78,-0.3,10.6,14.0,-1.0,132.12147715658148,51311934.92741644,27.115002928262317,7.08856561231982,25327.348338266267,91.30000000000001,37.30848619396993
1306893823.04,9.072132,3.7810901,936.61,-0.3,10.8,13.7,-1.0,129.85059384006365,51658696.62100668,24.656405033437657,7.086148846033029,25232.276005147905,94.0,37.336129457312005
1306893823.47,9.0722998,3.7816149,942.02,-0.3,14.2,13.7,-1.0,132.02811591117904,51484972.981904715,26.518285498510256,7.298452942598824,25034.792344766316,93.7,37.36611524033913
1306893823.89,9.0724649,3.7821278,948.41,-0.3,14.6,13.7,-1.0,132.47729433095012,50505840.279592976,26.909134157900617,7.532199055730377,24804.265988917323,95.5,37.39890286063658
1306893824.31,9.0726309,3.782639,955.63,-0.3,12.3,13.7,-1.0,132.38338612912523,51071651.46868132,28.63674583578222,7.410857865879046,25024.11862082532,93.9,37.434974601668955
1306893824.73,9.072794,3.783137,962.65,-0.3,9.7,13.7,-1.0,128.7220534688714,51288620.511696346,26.493280441861327,7.215900388299096,25031.08453163638,96.2,37.473871145850936
1306893825.15,9.0729622,3.7836456,969.06,-0.5,7.5,13.7,-1.0,131.55030102387497,51086263.81763831,26.26254007523549,7.329232157090908,24881.57260853972,96.60000000000002,37.51495710385618
1306893825.57,9.073133,3.7841583,974.39,-0.5,7.4,13.7,-1.0,132.53307595331594,51000269.20294576,24.374360177682384,7.489461554100293,24880.28730391738,96.10000000000002,37.557306185221016
1306893825.99,9.0733054,3.7846723,978.99,-0.5,10.4,13.7,-1.0,132.75357015194203,50733925.3366115,24.973510948763465,7.37793613548987,24653.689452800318,96.00000000000001,37.60016051592967
1306893826.41,9.0734796,3.7851889,983.83,-0.7,11.4,13.6,-1.0,133.57010947855585,49932534.5379179,23.28646677166751,7.597982240388187,25045.479669579086,93.39999999999999,37.64345119834437
1306893826.83,9.0736514,3.7856956,989.02,-0.7,11.1,13.6,-1.0,130.92620285115612,48827193.48024966,22.665343345040068,7.488874105547728,25024.1772558193,91.99999999999999,37.687270095982164
1306893827.25,9.0738246,3.7862035,994.4,-0.7,9.4,13.6,-1.0,131.36589854166638,48765978.06165886,24.33687858083347,7.608911335266062,25182.184158743097,90.7,37.73151003473982
1306893827.67,9.0740028,3.7867227,999.65,-0.9,9.2,13.6,-1.0,134.58490956937598,49087414.35563261,23.07766822960905,7.621200040540592,24778.827629250503,93.8,37.77562748880807
1306893828.09,9.0741791,3.7872338,1004.59,-1.0,10.3,13.6,-1.0,132.27246323291726,49078273.56439968,24.10464668921943,7.644961246373503,25200.179342243075,94.7,37.81863492537849
1306893828.93,9.0745332,3.7882516,1014.74,-1.0,10.4,13.6,-1.0,131.81462101256446,49763359.63280311,23.87134671616706,7.77548199188678,24654.687542367377,95.39999999999999,37.863885362823815
1306893829.35,9.0747142,3.7887681,1019.95,-1.0,8.9,13.6,-1.0,134.0117192368501,50607376.56621253,24.251905651442346,7.6898401425215175,24396.945881291627,95.1,37.90775019222014
1306893829.98,9.0749842,3.7895334,1027.03,-1.0,9.6,13.6,-1.0,132.17906958957187,49962983.3692151,22.81609242994971,7.8241087454974725,24307.880964570362,92.80000000000001,37.95212792625339
1306893830.61,9.0752579,3.7903042,1034.07,-1.0,9.6,13.3,-1.0,133.35995230679714,50045462.364116676,23.273717769805003,7.554816106143512,24406.410060837592,92.7,37.99781471540474
1306893831.03,9.075441,3.7908176,1038.98,-1.0,9.8,13.3,-1.0,133.24222759923225,50062687.124007024,21.786966440339395,7.783242078503478,24508.257233448247,90.19999999999999,38.04373881864184
1306893831.46,9.0756284,3.7913406,1043.89,-1.6,9.1,13.3,-1.0,132.60080200710166,49553301.395847276,23.701045233707884,7.460193365840246,24834.716961517763,93.3,38.08971650893055
1306893831.88,9.0758092,3.791843,1048.44,-1.6,9.8,13.3,-1.0,130.28501052699343,50076658.56988917,23.065492523864428,7.72507378159079,24499.989350543423,92.80000000000001,38.135204260461606
1306893832.51,9.0760856,3.792608,1055.42,-1.8,9.8,13.1,-1.0,132.40095339124272,50981435.49355924,21.969588680309556,7.617655705965312,24429.2336017473,94.80000000000001,38.18191685888681
1306893833.15,9.0763721,3.7933971,1062.72,-1.9,8.5,13.1,-1.0,134.68507669110434,50848519.34840579,22.98927391486907,7.6460199879367305,24306.83883833067,92.80000000000001,38.230198792395115
1306893833.59,9.0765647,3.7939251,1067.19,-1.9,7.0,13.1,-1.0,130.75160113214739,51042218.79419249,22.55329788455343,7.6892068861087415,23589.603705733225,92.50000000000001,38.27812092712828
1306893833.8,9.0766578,3.7941797,1069.1,-2.0,6.5,13.1,-1.0,132.21984884664852,51736554.81303085,21.386743703028017,7.555598485193159,23826.331951167944,91.80000000000001,38.319735100356624
1306893834.45,9.0769501,3.7949771,1074.29,-2.0,8.7,12.9,-1.0,133.82704286656983,50850263.512426056,22.472804548856907,7.716636491769049,24361.374097831736,91.40000000000002,38.36133396299879
1306893835.3,9.0773282,3.7960081,1081.25,-2.3,10.0,12.9,-1.0,132.1837550432742,49987640.99612857,22.989887711501524,7.418137129595045,24582.59206925024,91.60000000000002,38.4028409621239
1306893835.73,9.0775199,3.7965308,1085.4,-2.3,13.6,12.9,-1.0,132.64446400631613,49695895.099500716,24.129628695401703,7.682624497844316,24603.755055302223,88.8,38.442135581546474
1306893835.95,9.0776201,3.7968041,1088.06,-2.3,15.5,12.6,-1.0,135.89811726350575,48919957.01758012,26.625785045827175,7.620335670692332,24635.673774933133,89.5,38.47970776002416
1306893836.16,9.0777124,3.7970557,1090.93,-2.3,16.4,12.5,-1.0,130.93091164530583,47122916.150993936,24.706875276409406,8.006681708400341,24110.546005843127,88.30000000000001,38.51571825871183
1306893836.39,9.0778159,3.7973377,1094.64,-2.3,17.3,12.5,-1.0,134.46455886205015,48672212.345148586,23.727982445231454,7.902631213850871,24786.76859792771,88.30000000000001,38.551085712780065
1306893836.61,9.0779099,3.7975932,1098.46,-2.3,18.1,12.4,-1.0,127.21650554510585,48659361.85442974,23.638668217227096,7.9380144015104985,24906.101123459346,87.50000000000001,38.584034094232386
1306893837.03,9.0780974,3.7981012,1107.31,-2.3,19.1,12.4,-1.0,133.30098832142124,51006199.47759368,21.668395302127244,7.773935260491287,25088.79650548065,89.20000000000002,38.618169046113394
1306893837.24,9.0781898,3.7983502,1112.21,-2.1,18.7,12.2,-1.0,131.04267021338188,54010834.10052722,21.753566892850326,7.671931478705401,25566.652658212348,88.30000000000001,38.65263317559722
1306893837.87,9.0784671,3.7990901,1127.82,-2.0,13.7,12.2,-1.0,130.0947493979131,56326160.52266734,21.229797336096592,7.655607955362541,25894.364730984475,90.6,38.69758505661209
1306893838.29,9.0786574,3.7995903,1137.81,-2.0,10.0,12.2,-1.0,132.0162754946197,57519080.86388902,21.39183018989093,7.767225193866157,25706.76365241434,89.30000000000001,38.74621147830938
1306893839.14,9.0790519,3.8006119,1153.25,-2.2,5.2,12.2,-1.0,132.54405651290992,56884297.320234515,23.10610563751701,7.98065450895967,25399.079977103098,90.70000000000002,38.8013295885456
1306893839.35,9.0791538,3.8008735,1155.97,-2.2,4.6,12.2,-1.0,137.05964261700422,54556468.99770999,21.065508210392167,7.680995710588181,25322.15192085789,93.10000000000002,38.855352991870184
