timestamp,longitude,latitude,altitude,roll,pitch,yaw,heading,air_speed,engine_0,engine_1,temperature_in,humidity_in,pressure_in,heart_rate,oxygen_mask
1306893600.43,2.9899856,7.0891938,1997.55,-0.8,0.6,-1.0,-1.0,205.71302799072274,59593711.49293571,59593711.49293571,24.19484272442441,7.3936731635212585,24237.72796184202,87.40000000000002,45.92358969211028
1306893600.86,2.9910887,7.0892646,1996.47,-1.0,1.0,-1.0,-1.0,205.71302799072274,59037620.37396236,59037620.37396236,25.162774325099527,7.378849944451491,24087.868019349786,84.10000000000001,45.93024214180407
1306893601.28,2.9921831,7.0893351,1995.1,-0.2,1.3,-1.0,-1.0,208.89969100756312,58275001.30830589,58275001.30830589,25.649827248691814,7.303471847089285,23517.67207067756,84.5,45.93566974460372
1306893601.71,2.9932848,7.0894061,1993.63,-0.2,1.6,-1.0,-1.0,205.52068169676272,57659389.03573894,57659389.03573894,25.918720498710407,7.038212083033006,23645.729656527594,82.39999999999999,45.9391758688382
1306893602.13,2.9943813,7.0894768,1992.22,-0.3,1.8,-1.0,-1.0,209.266826981519,57515065.71410795,57515065.71410795,24.342055176442827,7.183239312172678,22971.337782827806,80.5,45.9409518968347
1306893602.55,2.9954573,7.0895463,1990.97,-0.2,2.1,-1.0,-1.0,205.45366953056921,57515065.71410795,57515065.71410795,24.342055176442827,7.183239312172678,22971.337782827803,80.49999999999999,45.9409518968347
1306893602.97,2.9965543,7.0896171,1989.9,-0.0,2.3,-1.0,-1.0,209.42640869458123,57659389.03573894,57659389.03573894,25.9187204987104,7.038212083033006,23645.72965652759,82.4,45.9391758688382
1306893603.4,2.9976542,7.0896882,1989.05,-0.1,2.5,-1.0,-1.0,205.1347065948093,58275001.30830589,58275001.30830589,25.649827248691818,7.303471847089285,23517.67207067756,84.5,45.93566974460373
1306893604.26,2.9998841,7.0898323,1988.01,-0.1,2.5,-1.0,-1.0,207.88360998239784,59037620.37396235,59037620.37396235,25.162774325099523,7.37884994445149,24087.868019349782,84.10000000000001,45.93024214180408
1306893605.11,3.0020924,7.0899751,1987.78,-0.2,2.5,-1.0,-1.0,208.2476475002271,59593711.4929357,59593711.4929357,24.194842724424415,7.3936731635212585,24237.727961842018,87.4,45.92358969211029
1306893606.81,3.0064993,7.0902607,1988.98,-0.2,2.5,-1.0,-1.0,207.84857414523646,60084212.85903717,60084212.85903717,23.35983506998271,7.256790264362518,24598.7078327967,90.1,45.91702910593356
1306893608.92,3.011992,7.0906178,1991.75,-0.2,2.9,-1.0,-1.0,208.6946533905475,60579457.67459398,60579457.67459398,21.861549359875948,7.347148143120287,25111.557508033162,90.6,45.91341580759585
1306893612.8,3.022047,7.091276,1996.18,-0.2,2.7,-1.0,-1.0,207.77622202833783,60554820.052398674,60554820.052398674,22.6319746125722,7.633396933259218,25364.957722465668,90.4,45.91424257924939
1306893613.66,3.0242642,7.091422,1996.84,-0.2,2.7,84.3,-1.0,206.7504210978116,60642263.97560407,60642263.97560407,23.411333984914556,7.540199949719125,25901.238612887166,94.10000000000001,45.91669992833075
1306893618.37,3.0364961,7.0922326,1998.97,-0.2,2.7,84.3,-1.0,208.2170639228182,60394689.65309728,60394689.65309728,24.78777651727766,7.302849201106316,26289.18181460791,96.49999999999999,45.921867251165395
1306893619.68,3.0398995,7.0924595,1999.25,-0.2,2.7,84.3,-1.0,208.2988852674,60724316.17828296,60724316.17828296,23.42176033002879,7.320689410504256,26624.677432761382,95.3,45.92820583384257
1306893622.01,3.0459384,7.0928633,1999.58,-0.2,2.7,84.2,-1.0,207.80966300216667,60364129.318983205,60364129.318983205,23.708125252736128,7.512362618086994,26812.556493582895,95.6,45.93561615755211
1306893622.22,3.0464883,7.0929002,1999.6,-0.2,2.5,84.2,-1.0,209.968301462666,60646460.53178236,60646460.53178236,25.229760128811748,7.384595356560638,27247.121933932453,96.9,45.94369249176034
1306893624.18,3.0515568,7.0932401,1999.75,-0.1,2.5,84.2,-1.0,207.34372404623423,59906481.44414945,59906481.44414945,24.383340653657104,7.323909297577261,26697.607269012966,95.5,45.952679805846074
1306893636.22,3.0827895,7.0953439,1999.75,-0.1,2.5,84.2,-1.0,207.99439372042394,59198434.94298464,59198434.94298464,25.408399511159086,7.37306263365069,26706.963288729334,92.60000000000002,45.96184319167284
1306893721.58,3.3042466,7.1100879,1999.75,-0.1,2.5,84.4,-1.0,207.9857420603902,58508567.21530337,58508567.21530337,23.513175097347588,7.4923235687309315,26663.58586955222,90.90000000000002,45.97008794232901
1306893774.79,3.4423026,7.1190569,1999.75,-0.1,2.5,84.5,-1.0,207.94734258261613,57804050.9852952,57804050.9852952,25.05151006016327,7.236461181471238,26152.957388129897,91.2,45.976212176799706
1306893934.25,3.856211,7.1449165,1999.75,-0.1,2.5,84.8,-1.0,207.96716195467405,57820655.13443629,57820655.13443629,23.740459546053145,7.100481921441287,26370.211197574485,92.00000000000001,45.97894511643225
1306894252.29,4.6823069,7.1919138,1999.75,-0.1,2.5,85.4,-1.0,207.97490717962555,58521997.837572314,58521997.837572314,22.98789781033178,7.366524304904178,25519.65197811747,89.00000000000001,45.98117280672096
1306894305.39,4.8202767,7.1991644,1999.75,-0.1,2.5,85.5,-1.0,207.95927114423532,59137369.560840525,59137369.560840525,23.830282454086166,7.6312466440334985,25648.51133045459,88.8,45.98176991958186
1306894334.0,4.8946262,7.2030006,1999.75,0.3,2.5,85.5,-1.0,207.97868399505936,59766565.11956345,59766565.11956345,25.450745734486453,7.508203081323089,25246.393128147593,88.1,45.982152684236276
1306894334.42,4.8957177,7.2030562,1999.75,13.7,2.6,85.6,-1.0,207.93898838446916,60407656.08033185,60407656.08033185,25.51398474648487,7.397211918511341,25151.260542059215,84.80000000000001,45.98228282421878
1306894334.63,4.8962609,7.2030828,2000.01,24.8,2.9,85.8,-1.0,207.0758516600198,60336629.09575573,60336629.09575573,25.282071560293954,7.138942155588009,24687.307792562366,83.7,45.9825966912354
1306894335.05,4.8973661,7.2031304,2000.08,40.6,3.9,86.8,-1.0,210.47213073820865,60602730.22458337,60602730.22458337,26.283041369035097,7.441882749739962,25015.83520428352,85.0,45.982849315907316
1306894335.47,4.8984357,7.2031635,2000.2,42.3,3.9,88.0,-1.0,203.86743950782218,60312898.604643226,60312898.604643226,25.37753187104546,7.3499098710568695,24685.13727784801,87.20000000000002,45.98319380409629
1306894335.89,4.8995319,7.2031829,2000.38,45.1,4.3,89.2,-1.0,208.903634373502,61019120.13093558,61019120.13093558,25.749565384178993,7.338106299952005,24134.952346661146,85.50000000000001,45.98367608756085
1306894336.32,4.9006516,7.2031859,2000.61,52.1,5.2,90.8,-1.0,208.5021946756785,60795646.00877088,60795646.00877088,25.77505412883957,7.353286242433603,24526.049926796568,85.5,45.984334442766446
1306894336.76,4.9018174,7.2031666,2000.92,54.8,5.6,92.8,-1.0,212.46738171291463,60409047.52035855,60409047.52035855,24.875141501755667,7.391131187873745,24345.839235570045,86.0,45.98523011205779
1306894336.98,4.9023683,7.2031486,2001.08,54.8,5.5,93.8,-1.0,201.4638732181845,59813622.138122015,59813622.138122015,24.679484172330056,7.436151263888291,24424.39319112703,88.10000000000001,45.986248266038544
1306894337.42,4.9035255,7.2030923,2001.44,55.6,5.6,95.8,-1.0,211.8645029625131,62385459.47631575,62385459.47631575,23.102281190741632,7.178638597863944,23877.826757685052,85.60000000000001,45.98754201057048
1306894337.84,4.9046116,7.2030158,2001.79,57.7,6.0,97.8,-1.0,209.19847963483895,63218504.31954151,63218504.31954151,21.92269111294193,7.280640357131446,23821.347896626736,85.0,45.9891036903605
1306894338.26,4.9056775,7.2029167,2002.15,58.5,6.0,99.9,-1.0,206.40563786541907,65535797.133970834,65535797.133970834,20.948702674554,7.183651093598699,23276.62217018402,85.6,45.99094096070171
1306894338.89,4.9073054,7.2027172,2002.71,58.6,6.0,103.1,-1.0,211.782122581631,69084316.92787156,69084316.92787156,21.801191743363677,7.359098041629632,23676.26721854592,87.1,45.99300788983557
1306894339.1,4.9078332,7.2026397,2002.88,58.9,6.0,104.2,-1.0,207.626977514785,68564037.82781796,68564037.82781796,20.535488014151042,7.343597644903096,23418.673448105677,85.29999999999998,45.995151371900306
1306894339.52,4.9088846,7.2024662,2003.22,59.5,6.0,106.4,-1.0,208.23559524712297,68937126.58092646,68937126.58092646,21.153020872640145,7.356315385980734,23569.556098558023,86.60000000000001,45.99746327041299
1306894339.95,4.9099557,7.2022619,2003.56,59.5,6.2,108.6,-1.0,209.31437218796214,69380955.11941908,69380955.11941908,23.34366854282642,7.488203947621549,23900.11604433498,89.00000000000003,45.99989765361509
1306894340.37,4.9110123,7.2020323,2003.88,59.5,6.2,110.9,-1.0,213.62989155245174,68685189.88201351,68685189.88201351,23.498138715200284,7.6727912257048825,23689.99834470848,89.50000000000001,46.00240093445499
1306894340.79,4.912024,7.2017855,2004.17,59.8,6.2,113.0,-1.0,207.40085255433274,66892968.004582904,66892968.004582904,23.968223820063585,7.550666591156722,24251.92986469811,89.89999999999999,46.00488890470871
1306894341.21,4.9130336,7.2015116,2004.45,59.8,6.3,115.3,-1.0,209.7538365423346,68420386.35631008,68420386.35631008,25.555679257723586,7.250247466652524,24211.615051984525,89.1,46.00746873847949
1306894341.63,4.914025,7.2012144,2004.7,59.8,6.3,117.5,-1.0,209.21407495152636,66155580.77243573,66155580.77243573,26.88461346179782,7.214968005066445,24709.53275212899,91.7,46.009964364026295
1306894342.05,4.9149995,7.2008938,2004.94,59.8,6.3,119.8,-1.0,209.0964687748857,64726468.28282203,64726468.28282203,26.67569212636019,7.340884831170391,24599.810437179687,93.10000000000001,46.01237578134912
1306894342.7,4.9164722,7.200352,2005.28,59.8,6.3,123.3,-1.0,209.04675685157022,64325224.114912115,64325224.114912115,26.853869333478926,7.330784390952395,24701.047380171305,93.70000000000002,46.01477188808578
1306894343.12,4.9173974,7.1999738,2005.48,59.8,6.3,125.5,-1.0,208.65593734866775,62632892.27161295,62632892.27161295,26.4137750492831,7.314248749273337,24916.677180921615,90.4,46.01689240427125
1306894343.54,4.9183116,7.199569,2005.68,59.8,6.3,127.8,-1.0,210.7239013460716,61994121.2212219,61994121.2212219,28.694089803615462,7.3526582286355655,25364.23080988532,94.10000000000001,46.019035886336006
1306894343.96,4.9191858,7.199151,2005.85,59.8,6.3,130.1,-1.0,206.65394924038264,61047351.31537287,61047351.31537287,29.26656196030583,7.489198077663064,25582.898046793154,92.9,46.02104922841825
1306894344.17,4.9196202,7.1989312,2005.94,59.8,6.3,131.1,-1.0,209.24240520930837,60132028.545046344,60132028.545046344,28.48952416321867,7.470293355005215,25767.396090640515,92.70000000000002,46.02287118817328
1306894344.81,4.9209087,7.1982283,2006.19,59.8,6.3,134.6,-1.0,209.38417956790525,58398278.553450026,58398278.553450026,27.172688920574018,7.492723974213382,25510.81184388182,94.80000000000003,46.02463956087669
1306894345.02,4.9213053,7.1979954,2006.27,59.8,6.3,135.8,-1.0,202.783551117613,57329522.209747985,57329522.209747985,28.974287598302894,7.413630258879869,24728.704318472443,92.50000000000001,46.02624717242524
1306894345.44,4.9220939,7.1975067,2006.41,59.8,6.3,138.0,-1.0,206.12028087588078,57830751.336004786,57830751.336004786,29.21213549254608,7.740901095825291,24702.546313842162,93.70000000000002,46.02774760987056
1306894345.65,4.9224833,7.1972521,2006.49,59.8,6.3,139.1,-1.0,208.5795146962823,57650566.46291687,57650566.46291687,29.91152010386071,7.75021637971664,24386.187058844924,91.50000000000001,46.02911790733338
1306894346.28,4.9235952,7.1964706,2006.7,59.8,6.3,142.6,-1.0,205.8516564407335,57361687.77694685,57361687.77694685,32.08208950112477,7.793842771383155,24908.82407364999,90.70000000000002,46.03046523891693
1306894346.91,4.9246526,7.1956419,2006.9,59.8,6.3,145.9,-1.0,207.43442372628942,57199320.06664712,57199320.06664712,31.023973292814265,7.8796937367175355,25028.324448001018,91.20000000000002,46.03170539639724
1306894347.12,4.9249745,7.1953704,2006.96,59.8,6.3,147.1,-1.0,198.24292649040694,55705926.83930665,55705926.83930665,30.631094153369386,8.079479986589511,24704.660714769707,92.50000000000001,46.03283837977432
1306894347.75,4.9259317,7.194501,2007.16,59.8,6.3,150.4,-1.0,205.23364048503126,54216776.60852015,54216776.60852015,29.55135666060586,7.874663034069664,25097.689973778753,90.80000000000001,46.0339713631514
1306894348.38,4.9268058,7.1936101,2007.34,59.8,6.3,153.9,-1.0,202.31440185438723,52999732.57404379,52999732.57404379,27.73402010078076,7.625821993828446,24599.718776476162,90.2,46.035112001821574
1306894348.59,4.9270825,7.1933047,2007.4,59.8,6.3,155.0,-1.0,203.11471627714866,51734455.94177914,51734455.94177914,26.433888588354776,7.622150130957709,24639.54232168623,91.2,46.03622967461248
1306894349.22,4.9278555,7.1923777,2007.58,59.8,6.3,158.4,-1.0,201.13042921642764,51365464.83033177,51365464.83033177,25.772700820713677,7.527256162223924,24451.279199774603,90.80000000000001,46.03729376035176
1306894349.86,4.9285578,7.1914165,2007.76,59.8,6.3,161.9,-1.0,199.26913346548787,51287192.09636305,51287192.09636305,24.037646055998525,7.728118168306819,25047.812595183277,90.60000000000001,46.038434399021924
1306894350.07,4.9287734,7.1910921,2007.82,59.1,6.0,163.0,-1.0,201.13985349093971,50369966.24542867,50369966.24542867,22.186917599805714,7.589941062624051,25168.135522100678,89.9,46.03951379534738
1306894350.49,4.929174,7.1904456,2007.92,55.8,5.2,165.0,-1.0,198.29274341926987,51693904.73692237,51693904.73692237,21.419107696697306,7.935884848004705,24943.72626409445,91.80000000000001,46.04060850225902
1306894350.71,4.9293728,7.1901021,2007.96,53.3,4.8,165.9,-1.0,198.99548520788645,51829920.67065457,51829920.67065457,21.64753690707554,7.75038264940809,24410.327866111227,94.80000000000001,46.04157306918815
1306894351.35,4.9299131,7.1890895,2007.97,46.5,3.9,168.2,-1.0,199.53409573292367,52171458.63113947,52171458.63113947,21.381034137846353,7.69937177931958,24814.865654615383,96.3,46.04239218554861
1306894351.56,4.9300729,7.1887669,2007.93,44.3,3.7,168.9,-1.0,192.44174859076097,52945105.55626732,52945105.55626732,20.027462497466612,7.546734010004051,25091.277992893378,94.50000000000001,46.043134748978176
1306894351.99,4.9303943,7.188085,2007.82,39.9,3.3,170.1,-1.0,197.38144423184687,50949448.008038715,50949448.008038715,18.398625669525714,7.528793271078887,24521.17300955762,96.2,46.04363999832201
1306894352.23,4.9305604,7.1877146,2007.74,37.4,3.2,170.6,-1.0,191.5117844963684,48327768.286230266,48327768.286230266,18.259863814926494,7.692764298610595,24579.301330161743,97.30000000000001,46.043946210045554
1306894352.86,4.9309837,7.1867146,2007.46,31.3,2.9,172.0,-1.0,195.75243482870138,45105089.38786882,45105089.38786882,19.80194051606059,7.654162974920951,24226.756663281678,94.80000000000001,46.043992141804075
1306894353.08,4.9311262,7.1863599,2007.36,29.5,2.9,172.4,-1.0,197.88606311361,41237904.040015176,41237904.040015176,21.65401469445651,7.660130904500895,24709.470551791335,95.30000000000001,46.04382372535613
1306894353.5,4.9313869,7.1856862,2007.15,26.1,2.9,173.1,-1.0,196.42712332276156,39645753.495890655,39645753.495890655,21.399461547444968,7.456610969576929,24213.327904643258,97.70000000000002,46.043356752477735
1306894353.71,4.9315098,7.1853577,2007.06,24.6,2.7,173.4,-1.0,191.42584522500684,40185276.94209558,40185276.94209558,22.694873270505198,7.454760507363481,24478.68374097035,97.20000000000002,46.04277495020302
1306894354.34,4.931873,7.1843472,2006.8,20.2,2.7,174.2,-1.0,195.54000191147802,39777143.44730499,39777143.44730499,22.851982023187205,7.358557588310079,24592.782784361876,95.00000000000001,46.041917557377126
1306894354.55,4.9319897,7.1840101,2006.73,19.0,2.7,174.4,-1.0,195.2743765819956,41520901.085320294,41520901.085320294,22.613438952052906,7.5128788023364965,25139.949965436994,94.9,46.04097595632726
1306894354.97,4.9322143,7.183345,2006.62,16.6,2.7,174.9,-1.0,192.53545118850022,42224711.435883924,42224711.435883924,23.188553541147822,7.5272515747556366,24637.43114293444,93.60000000000001,46.03994249176033
1306894355.18,4.9323251,7.1830091,2006.57,15.4,2.7,175.1,-1.0,194.15034360485,40099292.54917147,40099292.54917147,25.657717231824215,7.335585883623504,24386.634252768683,94.2,46.03890137190031
1306894355.82,4.9326547,7.1819816,2006.5,12.4,2.7,175.6,-1.0,194.54617892395373,40953025.32949557,40953025.32949557,25.896687132740762,7.516133634001303,24213.94274437555,91.7,46.037890873212646
1306894356.03,4.9327604,7.1816437,2006.49,11.6,2.7,175.7,-1.0,194.70239474136287,41495009.8020904,41495009.8020904,28.382923631794302,7.665688070075254,24860.5354782172,89.2,46.0369339615766
1306894356.45,4.9329659,7.1809759,2006.5,9.9,2.7,176.0,-1.0,192.4085328333239,42076104.297520705,42076104.297520705,27.311366072547862,7.69273281805447,24818.255805119254,92.00000000000001,46.03619905344012
1306894356.66,4.9330684,7.1806379,2006.51,9.1,2.7,176.1,-1.0,194.55783929963906,43592372.97593361,43592372.97593361,26.53154754122966,7.928605381997711,25203.39814370061,89.60000000000001,46.03554835352761
1306894357.29,4.9333689,7.17963,2006.59,7.1,2.7,176.4,-1.0,193.27528255145572,45589826.48689718,45589826.48689718,28.104948793841682,8.275801904217664,25809.802026625533,87.60000000000001,46.03511965711466
1306894357.93,4.9336673,7.1786074,2006.72,5.4,2.7,176.6,-1.0,192.90999969864185,45284106.68448805,45284106.68448805,28.341566746577566,8.421357616989617,25606.79034224778,88.30000000000001,46.03485937714966
1306894358.15,4.9337699,7.1782516,2006.77,4.9,2.7,176.7,-1.0,195.0423381046939,45168426.860351466,45168426.860351466,26.54217473824307,8.181043190757684,25473.02172116149,89.40000000000002,46.03483641127039
1306894358.79,4.9340629,7.1772255,2006.93,3.5,2.7,176.7,-1.0,193.3447615478261,46131194.67031632,46131194.67031632,24.37909480742478,8.003750657379458,25108.394273807513,89.20000000000002,46.03498951713216
1306894359.43,4.9343546,7.176193,2007.1,2.4,2.7,176.7,-1.0,194.42030449792958,46094315.57541236,46094315.57541236,24.070018084364655,7.911000894992542,24831.50976722215,88.30000000000001,46.0353569712004
1306894359.64,4.9344478,7.175861,2007.16,2.0,2.7,176.7,-1.0,190.6715482465352,46199964.22436166,46199964.22436166,23.40238688771424,7.90972574363173,24678.52796576689,90.50000000000001,46.035808633492614
1306894360.27,4.9347296,7.174854,2007.34,1.1,2.7,176.7,-1.0,192.66254060925158,45295719.678022124,45295719.678022124,24.329131886907227,7.737906930863376,25445.496784511874,92.3,46.03645167811204
1306894360.9,4.9350118,7.1738422,2007.53,0.4,2.7,176.7,-1.0,193.50399806203708,44048735.34457642,44048735.34457642,24.547186102262014,7.446532633757566,25345.47033964652,92.4,46.03724782859322
1306894361.12,4.9351096,7.173491,2007.59,0.1,2.7,176.7,-1.0,192.36694355218407,41932187.05302868,41932187.05302868,25.417421412418882,7.192326610593489,25151.972745885076,89.0,46.038082255539855
1306894361.75,4.9353906,7.1724824,2007.78,-0.4,2.7,176.7,-1.0,192.90771623219868,40208944.48826866,40208944.48826866,24.834610290070945,6.853956349575695,24819.289894772566,88.6,46.03905447776207
1306894362.38,4.9356745,7.1714643,2007.96,-0.9,2.7,176.7,-1.0,194.6488097768844,39486646.07912558,39486646.07912558,23.78079726943575,6.616007445889506,24786.754788413356,87.10000000000001,46.04010325291517
1306894362.59,4.9357686,7.1711276,2008.02,-1.0,2.7,176.7,-1.0,193.17862367393693,40013173.16127206,40013173.16127206,24.25409907863678,6.411132705337104,24942.24158552813,85.7,46.041098441016665
1306894363.01,4.935957,7.1704542,2008.15,-1.3,2.7,176.7,-1.0,193.22733900258297,40522624.40076806,40522624.40076806,26.29905967874045,6.73420845919683,25488.87577211674,84.0,46.04215487146286
1306894363.22,4.9360491,7.1701255,2008.21,-1.4,2.7,176.9,-1.0,188.91053368163446,41120833.35604422,41120833.35604422,26.914563481499794,6.957828768952554,25246.259404551052,82.5,46.043134748978176
1306894363.85,4.9363368,7.1691026,2008.39,-1.7,2.7,176.9,-1.0,195.55088259590468,40700457.23474272,40700457.23474272,28.75984251721058,7.010056236559566,25797.73831133734,84.8,46.04412228178658
1306894364.06,4.9364286,7.1687772,2008.45,-1.8,2.7,176.9,-1.0,187.1741028088232,39538450.99986268,39538450.99986268,27.174049807930814,7.151929892276702,25566.1660417058,84.7,46.045109814594966
1306894364.48,4.9366191,7.1681039,2008.57,-1.8,2.7,176.9,-1.0,193.25722548074611,36006762.118820705,36006762.118820705,27.427465848696222,7.316078209824634,24790.82464288105,85.60000000000001,46.04605141564484
1306894364.69,4.9367141,7.1677689,2008.63,-2.0,2.7,176.9,-1.0,192.4259591030251,34013222.12770619,34013222.12770619,25.63947740241464,7.403200287557189,24199.064936903967,88.70000000000002,46.04689349788456
1306894365.32,4.9370027,7.1667558,2008.81,-2.2,2.7,176.7,-1.0,193.88868847113181,32845106.054968253,32845106.054968253,25.429432170190683,7.628392218727322,24245.041870752688,89.70000000000002,46.04782744364134
1306894365.74,4.9371974,7.1660762,2008.93,-2.3,2.7,176.7,-1.0,195.06309288927895,32595130.073248483,32595130.073248483,26.03734747471632,7.914344967087269,24375.473518843704,89.2,46.048707802346506
1306894366.38,4.9374906,7.1650584,2009.11,-2.4,2.7,176.7,-1.0,191.92499551222048,34821335.836356156,34821335.836356156,27.103370308191945,7.846424582082285,23978.253408963727,92.9,46.04958816105167
1306894368.06,4.9382781,7.1623598,2009.59,-2.5,2.7,176.7,-1.0,193.87008320125773,38032222.65392545,38032222.65392545,25.839675629804102,7.910980194867864,24186.663676398766,93.10000000000001,46.05079004206655
1306894368.48,4.9384754,7.1616916,2009.71,-2.4,2.7,176.7,-1.0,192.21944427080697,40668564.44364708,40668564.44364708,23.344446414652595,7.797028788117855,23883.361395204323,96.4,46.05198426778833
1306894369.96,4.939185,7.1593141,2010.14,-2.4,2.7,176.1,-1.0,194.05157743286486,41610725.34679032,41610725.34679032,22.656830302498946,7.758814859256337,23986.91558134143,97.80000000000001,46.05346173935438
1306894371.44,4.9399058,7.1569372,2010.56,-2.2,2.7,175.9,-1.0,194.1352672306919,43023104.15729313,43023104.15729313,21.29025237477016,7.900534994598088,23877.324854055838,96.5,46.05512293795455
1306894372.28,4.9403151,7.1556032,2010.8,-2.1,2.7,175.8,-1.0,192.17969557602453,41776988.196899526,41776988.196899526,23.601886998897847,8.122514306029736,24512.091344209857,94.9,46.05692193183032
1306894373.12,4.9407326,7.1542534,2011.04,-2.0,2.7,175.7,-1.0,194.39166942102185,41572404.197991185,41572404.197991185,22.513877597425886,8.146478866726367,24618.48723773544,91.6,46.05881278922315
1306894373.97,4.9411562,7.1528941,2011.28,-1.9,2.7,175.7,-1.0,193.59190709849764,41489245.64950045,41489245.64950045,23.520185685720513,8.201666576775901,25397.97714496656,88.89999999999999,46.060841441891554
1306894374.18,4.9412609,7.1525595,2011.34,-1.9,2.7,175.6,-1.0,192.89559328940186,41729912.25975994,41729912.25975994,23.717466351366916,7.973091233777858,25319.419757758842,90.0,46.06277823104292
1306894378.42,4.9434205,7.1457737,2012.55,-1.3,2.7,175.6,-1.0,160.25153734566067,41854981.323222704,41854981.323222704,24.820525109205,7.931630168865946,24668.367181651007,91.10000000000001,46.0655494471409
1306894378.63,4.94353,7.1454345,2012.61,-1.3,2.7,175.2,-1.0,162.2037001666551,40802209.84866416,40802209.84866416,23.40376823471879,7.950558575478949,24528.034911474944,87.5,46.06822879972184
1306894379.05,4.9437442,7.1447721,2012.73,-1.2,2.7,175.2,-1.0,157.77130469041404,39310347.28094944,39310347.28094944,23.442521265451035,7.85561537570492,24589.8177225341,86.4,46.07063256175158
1306894380.95,4.944738,7.1417165,2013.28,-1.0,2.7,175.2,-1.0,161.39364588062335,35764555.9275537,35764555.9275537,24.464686952730727,7.987802076432129,24346.962817704985,86.50000000000001,46.07336550138413
1306894382.0,4.9452827,7.1400529,2013.58,-1.0,2.7,175.0,-1.0,158.7619606338357,31754665.12265185,31754665.12265185,25.844116865815117,7.80890228973181,24438.06842824466,83.00000000000001,46.07599892220653
1306894382.85,4.945731,7.1386886,2013.82,-0.8,2.7,175.0,-1.0,161.13902580507886,27825589.770751227,27825589.770751227,25.69287651209775,7.681084996760221,24043.99840553038,81.09999999999998,46.07849454775333
1306894385.16,4.9469508,7.1349958,2014.48,-0.6,2.7,175.0,-1.0,160.49135463871093,24394193.023103464,24394193.023103464,22.9998912983715,7.617539532116545,23294.54571857073,83.1,46.08131169560985
1306894387.05,4.9479542,7.1319751,2015.02,-0.6,2.7,174.8,-1.0,160.5280835253089,22298108.636458855,22298108.636458855,22.7535496489191,7.334985836287432,23210.794016971755,83.0,46.084358502259015
1306894388.32,4.9486311,7.1299444,2015.38,-0.4,2.7,174.8,-1.0,160.63499578094704,21616401.406800207,21616401.406800207,22.917719130583862,7.253178421692165,23313.702151043173,82.30000000000001,46.087497172425245
1306894390.21,4.9496427,7.1269177,2015.92,-0.3,2.7,174.8,-1.0,160.97302573201154,21756703.179230988,21756703.179230988,23.077205732002923,7.448098641752404,23944.53383903625,82.80000000000001,46.091003296659714
1306894391.89,4.9505438,7.1242285,2016.41,-0.3,2.7,174.7,-1.0,160.898471545944,21935591.08189867,21935591.08189867,23.67589096348987,7.5361540708727155,23883.36774635156,84.40000000000002,46.093958239791824
1306894392.73,4.9509934,7.1228888,2016.65,-0.2,2.7,174.7,-1.0,160.29619438804986,22427282.23006179,22427282.23006179,24.703114893426115,7.544960902858705,24214.190687171453,86.30000000000001,46.09705097819952
1306894396.51,4.9530241,7.1168489,2017.73,-0.1,2.7,174.7,-1.0,160.62146573450053,22293570.575524572,22293570.575524572,24.84646254659445,7.571537655858573,23632.163519527745,87.30000000000001,46.10087862474371
1306894735.79,5.1348739,6.574482,2115.19,-0.1,3.8,174.7,-1.0,160.76889859391525,22285230.651105497,22285230.651105497,24.59049596728176,7.225253395058349,24083.461627058874,83.60000000000001,46.17889371660722
1306894736.0,5.1349856,6.5741464,2115.43,-0.1,4.6,174.7,-1.0,160.72003549303693,22072688.41492004,22072688.41492004,23.74349571209027,7.359207937041014,24300.627743778387,85.9,46.256862876712205
1306894736.64,5.1353259,6.5731241,2117.47,-0.1,6.5,174.7,-1.0,160.62193512496142,21970826.265992746,21970826.265992746,24.726353119499223,7.536722272386211,24531.025430515867,85.8,46.3362099895731
1306894737.27,5.1356628,6.5721135,2122.01,-0.1,7.9,174.7,-1.0,161.61459009201397,21874752.180565115,21874752.180565115,25.143827703636504,7.434003124328521,24649.79276653443,85.4,46.41852735615228
1306894737.48,5.1357742,6.5717794,2124.09,-0.1,8.3,174.7,-1.0,160.20957514692952,21887496.157925364,21887496.157925364,26.45161197407956,7.443476262321405,25430.394134380258,85.5,46.502023637867076
1306894738.11,5.1361067,6.5707841,2131.92,-0.1,9.1,174.7,-1.0,159.15333908457583,21507300.001095917,21507300.001095917,25.425777481964555,7.615151020419254,25172.923277159873,88.6,46.59123842351886
1306894738.74,5.1364408,6.5697858,2141.85,-0.1,9.5,174.7,-1.0,159.99367560818033,21025400.93726869,21025400.93726869,26.29003708032066,7.516941392071269,24265.38589468188,88.19999999999999,46.68764152938063
1306894738.95,5.1365534,6.5694496,2145.58,-0.1,9.6,174.7,-1.0,162.08604627668396,20600583.7740103,20600583.7740103,26.184013716493897,7.297706616938936,24840.2698317841,86.50000000000001,46.786524950203024
1306894739.37,5.1367742,6.5687907,2153.31,0.3,9.6,174.7,-1.0,158.50906198286864,20540111.087650657,20540111.087650657,24.11330798093961,7.502897399620485,24961.36753608731,84.30000000000001,46.8911421855486
1306894740.02,5.1371154,6.567773,2166.05,0.3,9.5,174.7,-1.0,158.361676790412,20289108.469432496,20289108.469432496,23.601530369148456,7.567473724563207,25303.878070043935,84.9,47.00468549263522
1306894740.65,5.1374482,6.5667804,2178.93,0.3,9.2,174.7,-1.0,159.50780746052857,20475559.39046782,20475559.39046782,23.509213175608924,7.6187385151632565,25508.06799381568,88.80000000000001,47.05348033078045
1306894741.29,5.1377843,6.5657774,2191.97,0.3,8.8,174.7,-1.0,158.56110776862312,20817699.9420057,20817699.9420057,22.88659045121655,7.410183356850431,25138.837358151908,89.00000000000001,47.112073944078794
1306894741.72,5.1380118,6.5650977,2200.63,0.3,8.4,174.7,-1.0,160.09098126693738,20516245.882646993,20516245.882646993,21.612272371919268,7.195113883822393,25489.684337281506,89.90000000000002,47.17573536140163
1306894741.93,5.1381211,6.5647711,2204.71,0.3,8.3,174.7,-1.0,157.05197474668307,20487091.40305855,20487091.40305855,21.194149505169566,7.3181411308989395,25475.09936680148,88.70000000000002,47.239044635242394
1306894742.35,5.1383432,6.5641066,2212.8,0.3,7.9,174.7,-1.0,160.14370104681467,19885657.61486465,19885657.61486465,22.13967677368354,7.38813965535289,25019.4120364347,88.50000000000001,47.306954740229266
1306894742.56,5.138453,6.563778,2216.68,0.3,7.8,174.7,-1.0,157.96129114332015,19548077.076192517,19548077.076192517,23.11971771110748,7.43867136311955,24843.178900651666,86.4,47.37184100444624
1306894743.19,5.1387827,6.5627898,2227.83,0.3,7.2,174.7,-1.0,158.35674846911795,18759250.79355619,18759250.79355619,21.816473863936174,7.313409427482622,25508.710384648588,84.4,47.43766121442
1306894743.41,5.1388966,6.5624479,2231.49,0.3,7.1,174.7,-1.0,156.57548109983563,18416660.451793466,18416660.451793466,20.430926037184193,7.167332290893286,25181.124830876433,83.69999999999999,47.50342783734212
1306894743.83,5.1391192,6.5617793,2238.35,0.3,6.7,174.7,-1.0,160.83165260838783,17727249.97000769,17727249.97000769,21.66979453334815,6.910469164206774,25503.94579797328,87.29999999999998,47.56852844976557
1306894744.04,5.1392295,6.5614479,2241.59,0.3,6.6,174.7,-1.0,159.20185440341226,17903386.90390163,17903386.90390163,22.897766625259948,6.731570489889336,25843.7015415172,88.89999999999998,47.62635653375507
1306894744.67,5.1395593,6.5604553,2250.69,0.3,6.1,174.7,-1.0,158.74625835376528,17935369.519651998,17935369.519651998,23.173403934017742,6.762508572893263,26060.301734052417,88.2,47.68129091695717
1306894745.09,5.1397809,6.5597872,2256.29,0.1,5.8,174.7,-1.0,160.40215396829151,18334817.939555977,18334817.939555977,24.734773033106627,6.995666979379834,26383.623917864905,89.10000000000001,47.73052976210153
1306894745.72,5.1401099,6.5587947,2263.87,0.1,5.4,174.7,-1.0,158.52210726562308,19596398.85872793,19596398.85872793,24.682739330518338,7.282197445096493,25864.502405333173,91.7,47.77894183559235
1306894745.94,5.1402261,6.5584439,2266.34,0.0,5.2,174.7,-1.0,160.58239449071044,19830561.84451042,19830561.84451042,26.006712200508648,7.1623772290064736,25885.828801066484,92.0,47.826121406895936
1306894746.37,5.1404516,6.5577623,2270.85,0.0,5.0,174.7,-1.0,159.53662228707987,20809029.58345884,20809029.58345884,25.133604244778756,7.3253597525383185,25467.20762512615,94.60000000000001,47.87056038327389
1306894746.58,5.1405652,6.5574189,2272.98,0.0,4.9,174.7,-1.0,165.16901140923994,21551112.701912582,21551112.701912582,23.640214302872554,7.308868715811762,25307.574385741722,96.4,47.91365968336138
1306894747.21,5.1408957,6.5564195,2278.67,0.0,4.6,174.7,-1.0,159.5650682622697,23733309.493892353,23733309.493892353,22.541223363310028,7.328870552944256,25435.82336544482,97.80000000000001,47.95257919342262
1306894747.42,5.1410073,6.5560818,2280.42,0.0,4.5,174.7,-1.0,161.95661759424974,24925747.021325015,24925747.021325015,21.946806981087605,7.608262897923033,25574.408116535087,100.00000000000001,47.99003654250399
1306894747.84,5.141229,6.555411,2283.68,-0.2,4.3,174.7,-1.0,160.69169588143268,26990899.08546764,26990899.08546764,21.696100325066507,7.667456342010103,24788.172343058584,98.9,48.024737986073546
1306894748.05,5.141338,6.555081,2285.18,-0.2,4.2,174.7,-1.0,157.80137088347874,28132413.36462095,28132413.36462095,19.960709253763326,7.854562060570553,24463.391946797346,96.9,48.058107408645725
1306894748.89,5.1417807,6.553741,2290.59,-0.2,3.9,174.7,-1.0,160.40821826961582,26958035.864690654,26958035.864690654,20.1895933475773,7.979594848335295,24201.46823700872,95.19999999999999,48.0886520280683
1306894749.52,5.1421135,6.5527337,2294.03,-0.2,3.7,174.7,-1.0,160.8050265464014,25064214.142971095,25064214.142971095,19.550445369533055,7.899288401451677,23924.248556156534,93.2,48.11754310418378
1306894750.15,5.1424466,6.551726,2297.0,-0.2,3.5,174.7,-1.0,160.84813447092012,22859044.887995213,22859044.887995213,21.131962246236895,7.861368740400888,23693.606991461296,91.7,48.14290509018552
1306894750.99,5.1428908,6.5503826,2300.32,-0.2,3.3,174.7,-1.0,160.81041711478062,20687138.335875943,20687138.335875943,22.392769674645216,7.757701555966883,23494.343031183867,93.5,48.16891777609979
1306894751.62,5.1432201,6.5493873,2302.39,-0.2,3.2,174.7,-1.0,158.63251175974898,19307756.592893492,19307756.592893492,21.93062762408523,7.657653672122314,24052.243106527814,94.3,48.19306257050048
1306894752.26,5.1435597,6.5483615,2304.21,-0.2,3.1,174.7,-1.0,161.18418784042444,19909388.942133125,19909388.942133125,23.287235109367078,7.6269471561317665,24315.485065022913,93.1,48.21697005081545
1306894752.47,5.1436719,6.5480227,2304.76,-0.2,3.1,174.7,-1.0,162.40086972420625,20045906.765496053,20045906.765496053,25.758201944037488,7.724573385747118,23589.8377511687,91.8,48.23694271048299
1306894753.95,5.1444567,6.5456546,2307.86,-0.2,2.9,174.7,-1.0,160.90087056695765,21120952.88244987,21120952.88244987,26.0254782232778,7.754524551732027,23274.56280140756,90.6,48.25794883471746
1306894756.07,5.1455798,6.5422699,2310.73,-0.1,2.9,174.7,-1.0,160.5102688697562,21985272.46201907,21985272.46201907,25.518301075084377,7.763541016855733,23092.118268700233,92.0,48.27865640252149
1306894756.7,5.1459137,6.5412647,2311.33,-0.1,2.7,174.7,-1.0,160.4312251117837,22267370.170998655,22267370.170998655,25.442525151551894,7.835951676525075,23510.87221333593,92.60000000000001,48.29867499394756
1306894854.92,5.1980164,6.3842277,2311.33,-0.1,2.7,174.8,-1.0,160.78888796720707,22700759.69860556,22700759.69860556,25.534296297863158,7.856956615503637,23630.18865181435,92.50000000000001,48.31455207181281
1306895313.53,5.4383514,5.6509294,2311.33,-0.1,2.6,174.8,-1.0,160.79316365961083,22605168.66441396,22605168.66441396,27.22236718575951,7.951324361225445,24181.64012350818,93.70000000000002,48.32779572885569
1306895313.97,5.4385784,5.6502258,2315.09,-0.1,3.4,174.8,-1.0,160.93882395548954,22234490.926346883,22234490.926346883,25.285423155521393,7.934572571414311,24939.804888152135,91.70000000000002,48.34164415405254
1306895314.41,5.4388053,5.6495224,2315.53,-0.1,4.0,174.8,-1.0,160.69399194001863,21935687.97488605,21935687.97488605,24.346215898164594,7.935631756367856,25804.688984675093,88.89999999999999,48.35328785483994
1306895314.83,5.4390233,5.6488464,2316.45,-0.1,4.5,174.8,-1.0,161.9350578661007,21438791.81673303,21438791.81673303,25.435690020531613,8.038357133023965,25457.030993520963,88.70000000000002,48.364051196922176
1306895315.25,5.4392417,5.6481692,2317.89,-0.1,4.8,174.8,-1.0,162.29435225469072,21360716.360637948,21360716.360637948,25.94342709420204,7.954441451084385,25850.865204592104,89.3,48.374523637867064
1306895315.67,5.4394559,5.6475052,2319.79,-0.1,5.0,174.8,-1.0,158.7483909949331,21698209.84002864,21698209.84002864,25.359490450417255,8.115048402624996,26567.834199285582,89.0,48.386029543378875
1306895318.61,5.4409675,5.6428275,2339.3,-0.1,5.0,174.8,-1.0,159.96959565763586,21489448.835058942,21489448.835058942,25.05051672714997,7.938900383879912,27366.860573581325,90.0,48.41009778484869
1306895319.88,5.4416189,5.6408074,2348.89,-0.1,4.4,174.8,-1.0,159.94005073713842,21262767.522940297,21262767.522940297,27.328391254312407,7.915656358068161,27735.082917197797,87.60000000000001,48.43931038327389
1306895320.3,5.4418345,5.6401376,2351.93,-0.1,3.7,174.8,-1.0,160.30496064810285,20823630.403737254,20823630.403737254,27.631799745150943,7.709119573149978,27222.162931327162,87.9,48.47039087321265
1306895320.72,5.44205,5.6394676,2354.52,-0.1,3.1,174.8,-1.0,160.3914345274533,20167626.760699764,20167626.760699764,26.87573338378436,7.588497480716755,26786.333626357235,86.8,48.50345408406128
1306895321.14,5.4422647,5.6387987,2356.55,-0.1,2.5,174.8,-1.0,160.02702817962765,19928846.84356062,19928846.84356062,24.5659267028622,7.363867959988439,26203.64107595932,88.0,48.538071319406875
1306895321.56,5.4424793,5.6381292,2357.97,-0.1,2.1,174.8,-1.0,160.0994125079794,20129011.615895133,20129011.615895133,24.595233328968384,7.357153969063934,25573.704552602874,88.8,48.57089721616978
1306895321.98,5.4426947,5.637456,2358.79,-0.1,1.7,174.8,-1.0,161.06380418351233,20351115.330299262,20351115.330299262,25.543076407261488,7.376250935144473,25385.04952955553,88.5,48.60401401407004
1306895322.4,5.4429104,5.6367807,2359.03,-0.1,1.4,174.8,-1.0,161.67876670619452,20865756.258958276,20865756.258958276,24.006952982483057,7.206331140215897,25409.28725735824,86.39999999999999,48.6366102520403
1306895322.82,5.4431214,5.6361191,2358.76,-0.1,1.2,174.8,-1.0,157.79288086216093,21515983.07632624,21515983.07632624,23.30214055845223,7.34867339146734,25279.101534821664,85.69999999999999,48.66789743489244
1306895323.24,5.4433383,5.6354379,2358.04,-0.2,1.0,174.8,-1.0,163.23192886489113,21197921.22769023,21197921.22769023,23.88376306947859,7.388489380241264,25078.14831999285,86.99999999999999,48.69717893095543
1306895324.08,5.4437624,5.6341044,2355.6,-0.2,1.3,174.8,-1.0,159.2395865945857,21669347.68240042,21669347.68240042,25.971667332519424,7.573619832328074,24706.987349039675,85.1,48.70965705868946
1306895324.5,5.4439758,5.6334329,2354.2,-0.2,1.7,174.8,-1.0,160.59078195492842,21712153.379494496,21712153.379494496,25.378840743070878,7.806907945182195,24726.91520916163,85.8,48.713722019319384
1306895324.92,5.4441931,5.6327502,2352.91,-0.3,2.2,174.8,-1.0,163.61556359761101,21727216.63240045,21727216.63240045,25.698972748778594,7.892686037988237,24434.359798295405,86.9,48.71447223804204
1306895325.34,5.4444038,5.6320898,2351.92,-0.3,2.7,174.8,-1.0,157.52418140026984,22623814.821625534,22623814.821625534,25.912671683627305,7.7780611338727965,24200.590193751865,90.19999999999999,48.712481861839066
1306895325.76,5.4446174,5.6314214,2351.28,-0.3,3.1,174.8,-1.0,159.76468373985054,22438538.44533165,22438538.44533165,25.566977579081687,8.08475200215367,24166.77442491801,87.4,48.7084475223815
1306895326.18,5.4448357,5.6307403,2351.05,-0.3,3.4,174.8,-1.0,163.27940544642632,22044933.120972343,22044933.120972343,28.216293758847602,7.954256511927785,24755.144528378605,90.30000000000001,48.70315005956436
1306895326.61,5.4450546,5.6300591,2351.25,-0.3,3.7,174.8,-1.0,158.91196162386743,22390769.94124984,22390769.94124984,26.819601420289324,7.845030077203665,24874.35429194061,91.60000000000001,48.69737796857573
1306895327.03,5.4452704,5.6293893,2351.85,-0.3,3.8,174.8,-1.0,160.25682467394097,21655133.246179953,21655133.246179953,26.577232628161223,8.072318548269749,24999.870280399482,93.80000000000001,48.691881468138284
1306895327.88,5.4457111,5.6280245,2354.02,-0.2,3.8,174.8,-1.0,161.51931863682822,20903381.126463007,20903381.126463007,26.57373739378266,7.992576435023555,25027.15156232198,92.3,48.6882528592144
1306895328.3,5.4459255,5.6273616,2355.31,-0.2,3.1,174.8,-1.0,158.394940233848,21539864.730407167,21539864.730407167,24.596030979468242,7.77086146211472,24903.566107019156,94.0,48.68616296420128
1306895328.72,5.4461425,5.6266908,2356.45,-0.2,2.2,174.8,-1.0,160.60453195163953,20714594.25651428,20714594.25651428,22.575328633063105,7.497914289737045,24911.664778808154,97.0,48.686813664113785
1306895329.14,5.4463598,5.6260183,2357.13,-0.2,1.4,174.8,-1.0,161.02771472340837,20383896.102222234,20383896.102222234,22.79429068629649,7.250294026276842,25157.894319994084,96.00000000000001,48.68905666498868
1306895329.58,5.4465867,5.6253153,2357.15,-0.2,0.8,174.8,-1.0,160.56552308489665,20994320.829465117,20994320.829465117,24.557412325911777,7.237023991774398,25813.644627930888,95.20000000000002,48.69230250925815
1306895330.02,5.4468132,5.6246121,2356.44,-0.2,0.4,174.7,-1.0,160.65716135541155,20500403.312377285,20500403.312377285,25.047677974666797,7.560800729571342,26172.67869511418,93.8,48.69576270173408
1306895330.45,5.4470343,5.6239247,2355.08,-0.2,0.1,174.7,-1.0,160.61284830349675,20612987.055468094,20612987.055468094,26.879265591122287,7.522896030332339,26482.480589985676,93.39999999999999,48.69867171310766
1306895332.14,5.4479037,5.6212192,2345.38,-0.2,0.2,174.7,-1.0,161.00231592011673,21397987.712928426,21397987.712928426,26.609756305233617,7.5789416833846674,26594.806531660382,91.8,48.694331161926556
1306895332.56,5.4481213,5.6205434,2342.48,-0.2,0.4,174.7,-1.0,161.98967022757813,21302366.419049744,21302366.419049744,25.20358530235808,7.6823668245843955,25871.00753071885,91.8,48.68761746988806
1306895332.98,5.4483345,5.6198819,2339.68,-0.2,0.6,174.7,-1.0,158.1211065788936,21479098.05904491,21479098.05904491,27.326645985354705,7.367142028518441,25917.551344219428,89.2,48.678300978199516
1306895333.4,5.448553,5.6192045,2336.92,-0.2,0.8,174.7,-1.0,162.48146270496588,21260943.261711992,21260943.261711992,25.620316948426957,7.424284812830744,25735.599152503724,89.7,48.66521042701842
1306895333.82,5.4487685,5.6185366,2334.38,-0.1,1.0,174.7,-1.0,159.81781585415263,21187589.90743052,21187589.90743052,26.681244915849685,7.511608379716451,25221.688532011136,88.2,48.64918789858448
1306895334.24,5.4489875,5.617859,2331.99,-0.1,1.2,174.7,-1.0,162.47942819557252,21013537.890444264,21013537.890444264,27.213443959698676,7.790469958454509,25501.623416425387,84.80000000000001,48.63046305169034
1306895334.67,5.4492068,5.6171814,2329.81,-0.1,1.4,174.7,-1.0,158.2007447714663,21125898.828685753,21125898.828685753,27.54419345437812,7.734211863515881,25188.373762793715,85.30000000000001,48.60954879097293
1306895335.51,5.4496418,5.6158405,2326.14,-0.1,1.7,174.7,-1.0,160.55979580295946,21001599.25315052,21001599.25315052,26.005645493041786,7.702231557730253,24812.13145950855,84.30000000000001,48.58580972710591
1306895335.93,5.4498606,5.6151676,2324.6,-0.1,1.8,174.7,-1.0,161.1953712345998,20979686.03172072,20979686.03172072,25.64833134696729,7.729815459603338,25076.85859599925,82.80000000000001,48.561435273912565
1306895336.35,5.4500818,5.6144883,2323.24,-0.1,1.9,174.7,-1.0,163.03983267827465,20805603.164276313,20805603.164276313,26.032071013014264,7.652174644737503,25089.63021936242,83.2,48.53706082071922
1306895336.77,5.4503002,5.6138185,2322.06,-0.1,2.0,174.7,-1.0,160.3779321975919,20893118.68126071,20893118.68126071,25.46654051531221,7.421523443975604,24547.663514277694,84.30000000000001,48.519208677237145
1306895337.19,5.4505172,5.6131535,2321.05,-0.1,2.1,174.7,-1.0,159.055370459546,20982854.47388086,20982854.47388086,26.27891382290185,7.644877297647048,24895.031281556076,85.80000000000001,48.50280338414879
1306895340.14,5.4520634,5.6084346,2316.95,-0.1,2.4,174.7,-1.0,161.0042660947836,20769522.9467154,20769522.9467154,24.89983168853784,7.867793462228188,24480.380496597798,88.0,48.48540290295893
1306895343.29,5.4537164,5.6033942,2315.62,-0.1,2.5,174.7,-1.0,161.07198991412668,20948309.82749464,20948309.82749464,25.525042437245258,7.651634447912474,24002.343023491852,88.1,48.469097128680716
1306895345.4,5.4548206,5.6000226,2315.32,0.2,2.5,174.7,-1.0,160.79138656590752,20426573.0747517,20426573.0747517,24.48725638676488,7.771899172640202,24679.432446301747,87.5,48.45450614005429
1306895349.62,5.4570256,5.593276,2315.11,0.1,2.5,174.7,-1.0,160.86809156773353,20337392.840738013,20337392.840738013,24.74559238129666,7.633383374832098,24510.640979142634,89.7,48.44158400532114
1306895353.43,5.4590053,5.5871893,2315.11,0.1,2.8,174.7,-1.0,160.67845788016265,20213177.139252633,20213177.139252633,23.578672017682663,7.908487211638759,24772.431980190173,90.7,48.43033072448124
1306895353.85,5.459223,5.5865178,2315.2,0.1,3.6,174.7,-1.0,160.79125447781868,20390837.504080333,20390837.504080333,23.177878893340996,7.7684400295345855,25275.935514518118,92.80000000000001,48.421955833842574
1306895354.27,5.4594412,5.5858449,2315.76,0.1,4.2,174.7,-1.0,161.1030357693838,20633859.236442164,20633859.236442164,22.570105723948934,7.593110004831153,24761.35758946491,93.60000000000002,48.415188554752454
1306895354.69,5.4596586,5.5851739,2316.83,0.1,4.6,174.7,-1.0,160.72364533888404,21204333.031752806,21204333.031752806,22.760504549635087,7.616818668560462,24885.84632209582,94.50000000000001,48.410281511882815
1306895355.95,5.4603091,5.5831601,2322.85,0.1,5.1,174.7,-1.0,160.7289377781804,21383193.887154773,21383193.887154773,23.150091731238277,7.714924722095129,25205.826065103392,93.4,48.41088628003679
1306895356.79,5.4607379,5.5818266,2328.48,0.1,5.4,174.7,-1.0,159.54252588369496,21367485.84728367,21367485.84728367,23.208069884063498,7.728214050942247,24819.631199279105,90.39999999999999,48.416574162801446
1306895357.21,5.4609528,5.5811565,2331.71,0.1,5.7,174.7,-1.0,160.43535724106746,21267972.072931018,21267972.072931018,23.93179569568599,7.756736980083959,25405.61606201926,88.6,48.42787337539988
1306895357.63,5.4611672,5.5804869,2335.24,0.1,5.8,174.7,-1.0,160.32789382225445,21204561.78662934,21204561.78662934,25.358682125036204,7.72186366756385,26118.598511955555,90.2,48.442893060439246
1306895358.05,5.4613805,5.5798208,2338.94,0.1,5.0,174.7,-1.0,159.39739048643995,21115652.23638158,21115652.23638158,25.405116437760732,7.376101678567348,26035.39193510048,89.3,48.46097486271396
1306895358.47,5.4615928,5.5791579,2342.47,0.1,4.2,174.7,-1.0,158.47607453763777,20935876.148363132,20935876.148363132,26.589409530384188,7.293467514090741,26338.247131647575,87.5,48.48191974460373
1306895358.89,5.4618104,5.578479,2345.68,0.1,3.6,174.7,-1.0,162.84479318203955,20691667.504016116,20691667.504016116,25.372926858663586,7.293648223423829,26368.20155202574,85.5,48.50532197557485
1306895359.31,5.4620217,5.5778205,2348.25,0.1,3.0,174.7,-1.0,157.22140392522874,21063318.13175624,21063318.13175624,26.275997623788616,7.3820991361809405,26065.134053883496,82.19999999999999,48.53062271923189
1306895359.73,5.4622389,5.577144,2350.29,0.1,2.5,174.7,-1.0,162.0685649482756,20647999.453678202,20647999.453678202,27.548814076437953,7.316725105425415,26828.77458041002,83.99999999999999,48.55705644626602
1306895360.15,5.4624526,5.5764781,2351.69,0.1,2.1,174.7,-1.0,159.18806268292607,20987841.728008177,20987841.728008177,27.089698320155854,7.134372846429729,26756.83964744675,85.30000000000001,48.58374279797206
1306895361.0,5.4628886,5.5751159,2352.87,-0.1,1.8,174.7,-1.0,161.07510826187556,21249487.22642167,21249487.22642167,25.293741980313712,7.066125309734093,26831.683805982077,85.9,48.60672398782333
1306895361.42,5.4630992,5.5744562,2352.85,-0.1,1.6,174.7,-1.0,157.38696295355285,21100111.86971465,21100111.86971465,25.526632098135636,6.918066858208817,27107.945910341314,89.00000000000001,48.62537993707967
1306895361.84,5.4633156,5.5737768,2352.49,-0.1,1.8,174.7,-1.0,162.68822478478143,20695201.507111378,20695201.507111378,23.940611622158933,7.0170885894589095,27381.291367015394,90.40000000000002,48.64128763611728
1306895362.26,5.4635264,5.5731132,2352.01,-0.2,3.0,174.7,-1.0,158.41125964203138,21114589.06205506,21114589.06205506,22.224291883568917,7.215321662650027,27079.918341736426,88.20000000000002,48.65412556262647
1306895362.68,5.4637412,5.5724352,2351.86,-0.2,4.0,174.7,-1.0,162.26824329839278,20555082.884127706,20555082.884127706,21.78506806626243,7.593597527599116,26988.503706630647,87.9,48.66401620129665
1306895363.1,5.4639535,5.5717636,2352.36,-0.2,4.8,174.7,-1.0,160.49602963455547,20632597.459015116,20632597.459015116,21.20775581606255,7.683612256210208,26959.09777051145,88.4,48.671587286161035
1306895363.52,5.4641649,5.5710954,2353.64,-0.2,5.7,174.7,-1.0,159.61974135225734,21475953.356246263,21475953.356246263,23.647923007935127,7.571746403783372,26791.679609793464,87.99999999999999,48.677680899459375
1306895363.94,5.464378,5.570423,2355.83,-0.2,7.3,174.7,-1.0,160.82897292532533,21215720.296299852,21215720.296299852,22.243104720152143,7.520234519414693,26223.43121888726,89.1,48.683483611620346
1306895364.36,5.4645923,5.5697501,2359.25,-0.2,8.3,174.7,-1.0,161.1803107792458,21589071.125218973,21589071.125218973,20.627741548839648,7.422296352358562,26160.080378305953,88.10000000000001,48.69034275422753
1306895364.78,5.4648058,5.5690833,2363.89,-0.2,8.7,174.7,-1.0,159.68968735466507,21632476.3042398,21632476.3042398,19.472385419930212,7.673180534129615,26028.24846418164,86.2,48.69968221179533
1306895365.2,5.4650197,5.5684182,2369.55,-0.2,9.8,174.7,-1.0,159.54808796857142,21247451.762127087,21247451.762127087,20.551864300907233,7.799396515575831,26019.904757454824,84.5,48.712451240666724
1306895366.04,5.4654485,5.5670918,2384.05,-0.0,9.9,174.7,-1.0,159.40712411008366,20601884.329363607,20601884.329363607,22.35376011014772,7.961148748317284,26163.266742023457,81.8,48.73633575510242
1306895366.46,5.465664,5.5664271,2392.44,-0.0,10.7,174.7,-1.0,160.18751512603933,20587431.27944965,20587431.27944965,24.439388810479212,7.5956082051288485,25663.860742869227,79.4,48.766918650990426
1306895366.88,5.465879,5.565764,2401.47,-0.0,11.1,174.7,-1.0,159.9602474305273,19833442.39863208,19833442.39863208,24.568578049365648,7.603815777267198,25665.176948182663,82.4,48.804781730605484
1306895367.3,5.466089,5.5651166,2410.92,0.2,11.6,174.7,-1.0,155.8651893216112,19733153.306506354,19733153.306506354,25.263971349263137,7.404720481559861,25184.513427417798,83.80000000000001,48.849993891585356
1306895367.72,5.4663036,5.564455,2421.21,0.2,11.9,174.7,-1.0,159.98939224982038,19097759.703361407,19097759.703361407,24.72657183614687,7.250956152426478,25105.75263412706,84.00000000000001,48.902700584498746
1306895368.14,5.4665179,5.5637947,2432.0,0.2,11.0,174.7,-1.0,159.787201854164,18931736.75376907,18931736.75376907,23.852170813918086,7.287365096680353,25341.66259384515,85.9,48.96268746113916
1306895368.58,5.466738,5.563116,2443.01,0.2,8.1,174.7,-1.0,156.39423736901747,18877738.08322082,18877738.08322082,24.21486845105045,7.611488171656532,25760.599976942307,86.5,49.02942630628351
1306895369.0,5.4669525,5.5624533,2452.7,0.2,5.7,174.7,-1.0,160.03669785839406,18425453.55895662,18425453.55895662,24.935718208125113,7.970175888666006,25826.238357838385,85.5,49.10096502019427
1306895369.42,5.467165,5.5617949,2460.73,0.3,5.4,174.7,-1.0,158.25174965185857,18932254.944717944,18932254.944717944,25.589662648463857,7.961794312100611,26071.15636177887,88.0,49.175098878461995
1306895369.84,5.4673759,5.5611395,2467.53,0.3,8.0,174.7,-1.0,157.23747182184533,19357203.108573534,19357203.108573534,24.54854650790218,8.190493393531492,26000.489313614606,90.3,49.25010544014178
1306895370.26,5.4675907,5.5604708,2474.55,0.3,10.9,174.7,-1.0,160.69415110204238,19214770.641345207,19214770.641345207,23.442114508360508,7.909849477517936,26143.145564528248,89.8,49.31938584259148
1306895370.68,5.4678007,5.559817,2482.46,0.3,11.5,174.7,-1.0,157.02864001257154,20117345.238874935,20117345.238874935,21.810026443835095,8.122885972046957,26396.983325773963,93.1,49.38829879097293
1306895371.1,5.4680158,5.5591483,2491.56,0.3,10.6,174.7,-1.0,161.3617291576768,20392870.690795187,20392870.690795187,24.05625788495782,7.970028938570551,26730.811499879692,91.1,49.45726532640601
1306895371.52,5.4682249,5.5585002,2500.71,0.3,7.7,174.7,-1.0,155.92408236229213,20252334.779315144,20252334.779315144,23.288928163897335,8.084255343786332,27310.13605126496,90.9,49.52600220304643
1306895371.94,5.4684418,5.5578288,2509.37,0.3,5.7,174.7,-1.0,162.0519702490613,20124306.425314393,20124306.425314393,24.098287619232345,8.242554868948712,27414.87380562186,92.20000000000002,49.59349126691344
1306895372.36,5.4686534,5.5571746,2516.58,0.3,7.2,174.7,-1.0,156.99300220578658,20436344.391021352,20436344.391021352,24.5779567983396,8.161002718493508,27010.216788395755,93.3,49.65823973585481
1306895372.78,5.4688706,5.5565037,2523.66,0.0,10.1,174.7,-1.0,161.4421897868702,19736335.177454285,19736335.177454285,24.13489408920802,8.049319224760543,27430.70059908869,94.30000000000001,49.719979674612475
1306895373.2,5.4690826,5.5558508,2531.32,0.0,11.0,174.7,-1.0,156.80954303442772,20151134.953046218,20151134.953046218,26.084748396872968,7.712277909762069,27440.45234065436,95.6,49.78016558887319
1306895373.63,5.469302,5.5551767,2540.13,0.0,10.5,174.7,-1.0,158.59391683222555,19981750.753531434,19981750.753531434,25.421203564237825,7.3910550333836555,27074.63798116044,92.10000000000001,49.840948615994805
1306895374.05,5.4695174,5.5545157,2549.17,0.0,8.1,174.7,-1.0,159.48672754191014,19737212.569448616,19737212.569448616,26.976721210885973,7.375676632637574,26866.733381738202,90.0,49.903446428768206
1306895374.47,5.469733,5.553854,2557.64,0.0,6.1,174.7,-1.0,159.4082730246169,19818299.241596673,19818299.241596673,26.369817820221055,7.65051990579283,26887.91742546208,93.50000000000001,49.96705425903942
1306895374.9,5.4699581,5.5531627,2565.34,0.0,6.7,174.7,-1.0,162.8264828577845,19387039.704175424,19387039.704175424,26.169604863954184,7.561452476721524,27026.46189095107,90.50000000000001,50.03050132815578
1306895375.32,5.470171,5.5525085,2572.05,0.0,7.8,174.7,-1.0,156.97972745182548,20040005.488058593,20040005.488058593,26.07830304224977,7.713640263028831,26494.524973777057,89.70000000000002,50.092118782224034
1306895375.74,5.4703897,5.5518367,2578.93,0.0,8.5,174.7,-1.0,161.71034593380628,19711608.616836775,19711608.616836775,27.054575479871097,7.421985699772695,26702.940851827196,92.20000000000002,50.15199848476121
1306895376.16,5.4706024,5.551184,2585.85,0.0,8.3,174.7,-1.0,156.60543974547687,20633215.82131244,20633215.82131244,25.76144657877276,7.2793877683898165,25788.731337189158,91.80000000000001,50.21054616630102
1306895376.59,5.470824,5.5505044,2593.08,0.0,6.6,174.7,-1.0,159.66432968535068,20168096.793926552,20168096.793926552,24.787437732358203,7.426981367462049,26461.574978929086,90.50000000000001,50.269109158427
1306895377.03,5.4710509,5.5498085,2599.97,0.0,7.1,174.7,-1.0,159.65189045745657,20138891.51320462,20138891.51320462,25.583013481067475,7.4417212805469894,25597.138861215633,87.80000000000001,50.327526699984304
1306895377.45,5.4712676,5.549144,2606.39,0.0,8.3,174.7,-1.0,159.71746979666852,19706956.585373417,19706956.585373417,22.945839926666345,7.489516437181487,25083.272830215068,86.60000000000001,50.38499498519865
1306895377.87,5.4714842,5.5484797,2613.07,0.0,8.6,174.7,-1.0,159.66586317130802,19527350.561300993,19527350.561300993,22.639801584202225,7.544377238103557,25157.90188749623,89.00000000000001,50.44083269298518
1306895378.3,5.4717103,5.5477857,2620.38,-0.0,8.3,174.7,-1.0,163.48848965276105,19470376.412452694,19470376.412452694,21.847044884318205,7.293679346294665,25337.324419788372,88.50000000000001,50.49534603506742
1306895378.72,5.4719225,5.547133,2627.29,-0.0,6.4,174.7,-1.0,156.61232699460342,20281436.915016238,20281436.915016238,23.393635877268377,6.993720590956398,25586.35737567158,86.00000000000001,50.54866515142787
1306895379.15,5.4721421,5.5464561,2633.9,-0.0,6.3,174.7,-1.0,158.69477825793444,20341001.55720987,20341001.55720987,23.923271388246615,7.160202560299242,25329.728425508183,87.5,50.6011498408417
1306895379.57,5.4723576,5.5457898,2639.99,-0.0,7.9,174.7,-1.0,159.98955260933485,19895948.308041792,19895948.308041792,22.250239997124144,7.118655948638734,25425.46425869017,87.89999999999999,50.65315990208404
1306895380.41,5.4727864,5.5444626,2652.74,-0.0,7.8,174.7,-1.0,159.33187085176937,20274444.35723587,20274444.35723587,22.29875572728997,7.30953829897661,25441.893314553927,85.3,50.709663620369255
1306895380.83,5.4730013,5.5437967,2659.24,-0.0,6.7,174.7,-1.0,159.9161410688395,19395336.92623178,19395336.92623178,22.567858347768034,7.388731499797035,26126.01019449009,84.8,50.765845816344765
1306895381.25,5.4732168,5.543129,2665.47,-0.0,7.4,174.7,-1.0,160.3811016298879,19308908.147814143,19308908.147814143,21.188971774548982,7.187636602428882,25423.268882040145,85.50000000000001,50.82126248301143
1306895381.68,5.4734351,5.5424534,2671.8,-0.0,7.9,174.7,-1.0,158.31376482238232,19946171.714134447,19946171.714134447,22.57115777205621,6.949970973775597,25804.755576058942,85.80000000000001,50.87625045326514
1306895382.52,5.4738654,5.5411233,2684.72,-0.0,7.4,174.7,-1.0,159.73874565355533,19869972.066318054,19869972.066318054,23.66980581233345,6.896515642996164,26195.961968206524,88.20000000000002,50.93621436402629
1306895382.94,5.4740811,5.5404575,2691.15,-0.0,7.2,174.7,-1.0,159.955900786251,19731528.17390772,19731528.17390772,25.152179704915927,7.071798892778882,25964.636190631576,87.50000000000001,50.995986892460245
1306895383.36,5.4742969,5.5397916,2697.47,-0.0,7.6,174.7,-1.0,159.987172738364,20130522.738588706,20130522.738588706,25.9930921532853,7.322448211172156,26237.86705045674,88.10000000000001,51.05500154687844
1306895383.78,5.4745107,5.539132,2703.75,-0.0,7.7,174.7,-1.0,158.27257004830258,19487048.63070803,19487048.63070803,23.93839199932586,7.455905480875799,25636.836508859145,89.5,51.11353391783207
1306895384.62,5.4749436,5.5377972,2716.58,-0.0,7.1,174.7,-1.0,160.38510671031767,19065527.315015845,19065527.315015845,24.333474991028698,7.407975012370108,25652.11261052361,88.19999999999999,51.17682788108666
1306895385.04,5.4751564,5.5371408,2722.77,-0.0,7.4,174.7,-1.0,157.41207589622883,19161420.121706996,19161420.121706996,24.893620274663323,7.492382333615238,25650.640025897967,89.3,51.24019839727214
1306895385.46,5.4753723,5.5364749,2729.05,-0.0,7.7,174.7,-1.0,159.9781398195209,18687001.835318092,18687001.835318092,23.53730480661571,7.295098147910758,25264.306253212864,89.8,51.29861593882944
1306895385.88,5.4755911,5.5357994,2735.46,-0.0,6.8,174.7,-1.0,162.550238117289,18574221.07008039,18574221.07008039,24.960997735967055,7.294160068832993,24561.174772671577,89.5,51.35696458274896
1306895386.3,5.4758022,5.5351474,2741.26,-0.0,3.8,174.7,-1.0,156.104129457312,19147660.579713225,19147660.579713225,26.54375457250314,7.426614522784717,24476.411534173778,89.20000000000002,51.414984049065666
1306895386.72,5.4760185,5.5344785,2746.01,-0.0,3.3,174.7,-1.0,160.45539725540388,18712635.74954608,18712635.74954608,25.238795266577764,7.72925622424842,24437.654475058647,92.00000000000001,51.47179397907442
1306895387.14,5.476234,5.5338118,2749.84,-0.0,6.8,174.7,-1.0,159.72281489485965,19211692.442762405,19211692.442762405,26.021502234545718,7.756629237370447,24480.221217368533,91.00000000000001,51.521645247665845
1306895387.57,5.476455,5.5331276,2754.21,-0.1,8.4,174.7,-1.0,160.1678711426281,19757270.967175532,19757270.967175532,23.889943731534167,7.893196243121365,24562.754831006532,90.3,51.56991952588107
1306895388.01,5.4766787,5.5324345,2759.58,-0.1,8.3,174.7,-1.0,158.52282563700848,19684906.730118383,19684906.730118383,24.654628905402976,7.578276919288471,24661.858524609997,92.5,51.61746655125289
1306895388.43,5.4768945,5.5317656,2765.4,-0.1,7.0,174.7,-1.0,160.59914665144882,19591228.56296602,19591228.56296602,23.984862064285384,7.753463293705944,24373.837429032184,91.10000000000001,51.66466143314266
1306895388.85,5.4771096,5.5310981,2771.06,-0.0,4.1,174.7,-1.0,160.2054556963657,20147165.236621644,20147165.236621644,22.92524628156998,7.875367139333204,24160.935885273873,91.2,51.706367469888065
1306895389.27,5.477323,5.5304347,2775.69,-0.1,5.1,174.7,-1.0,158.88866781635843,19750023.727664176,19750023.727664176,21.73828303546958,7.6377282151713,24399.62110799262,89.3,51.746879280911685
1306895389.7,5.4775426,5.5297517,2780.06,-0.1,7.3,174.7,-1.0,159.8356119503071,19522859.818762314,19522859.818762314,22.791239804173692,8.002391817974795,24845.53645132594,90.79999999999998,51.78592893095543
1306895390.12,5.4777576,5.5290848,2784.82,-0.1,8.1,174.7,-1.0,159.86471468575718,19967515.63259214,19967515.63259214,22.55903357768675,7.87734186729693,25591.330623792473,89.60000000000001,51.82371545763959
1306895390.54,5.477976,5.528409,2790.28,-0.1,7.3,174.7,-1.0,162.4533071894291,19545498.379448287,19545498.379448287,22.21943227938511,7.68196920405585,26058.368706114903,89.4,51.86124170435876
1306895390.98,5.4782009,5.5277142,2795.96,-0.1,4.3,174.7,-1.0,159.04858983198145,19842825.80386928,19842825.80386928,22.54199878732825,7.726137997418519,26363.57782387757,86.5,51.89947989333514
1306895391.4,5.4784149,5.5270538,2800.42,-0.1,2.2,174.7,-1.0,158.13102763577353,19826092.190219633,19826092.190219633,23.05847364185668,8.041973764728327,25645.09370233599,87.30000000000001,51.93820036577608
1306895391.82,5.4786329,5.5263812,2803.49,-0.1,1.3,174.7,-1.0,161.25385382687764,19787128.269309547,19787128.269309547,24.32247206778658,8.019004537846389,26311.841033600373,88.40000000000003,51.97592565011554
