timestamp,longitude,latitude,altitude,roll,pitch,yaw,heading,air_speed,engine_0,engine_1,temperature_in,humidity_in,pressure_in,heart_rate,oxygen_mask
1306893600.43,2.9899856,7.0891938,1997.55,-0.8,0.6,-1.0,-1.0,205.71302799072274,59593711.49293571,59593711.49293571,27.191644894246142,7.592892758368224,24598.783372396472,92.40000000000002,44.93014048980843
1306893600.86,2.9910887,7.0892646,1996.47,-1.0,1.0,-1.0,-1.0,205.71302799072274,59037620.37396236,59037620.37396236,28.07912021944277,7.381010566335329,24011.18607060643,92.50000000000001,44.93679293950222
1306893601.28,2.9921831,7.0893351,1995.1,-0.2,1.3,-1.0,-1.0,208.89969100756312,58275001.30830589,58275001.30830589,27.075129568772205,7.364743382526557,23792.060238078146,93.40000000000002,44.942220542301875
1306893601.71,2.9932848,7.0894061,1993.63,-0.2,1.6,-1.0,-1.0,205.52068169676272,57659389.03573894,57659389.03573894,26.604163046929294,7.249284764956619,24128.727578314614,94.00000000000001,44.945726666536345
1306893602.13,2.9943813,7.0894768,1992.22,-0.3,1.8,-1.0,-1.0,209.266826981519,57515065.71410795,57515065.71410795,25.341749618527622,7.24320078403744,24268.447795344615,96.30000000000001,44.94750269453285
1306893602.55,2.9954573,7.0895463,1990.97,-0.2,2.1,-1.0,-1.0,205.45366953056921,57515065.71410795,57515065.71410795,25.341749618527626,7.243200784037439,24268.447795344615,96.30000000000001,44.947502694532844
1306893602.97,2.9965543,7.0896171,1989.9,-0.0,2.3,-1.0,-1.0,209.42640869458123,57659389.03573894,57659389.03573894,26.604163046929298,7.249284764956618,24128.727578314614,94.00000000000001,44.94572666653635
1306893603.4,2.9976542,7.0896882,1989.05,-0.1,2.5,-1.0,-1.0,205.1347065948093,58275001.30830589,58275001.30830589,27.075129568772205,7.364743382526556,23792.060238078142,93.4,44.94222054230188
1306893604.26,2.9998841,7.0898323,1988.01,-0.1,2.5,-1.0,-1.0,207.88360998239784,59037620.37396235,59037620.37396235,28.07912021944277,7.381010566335329,24011.186070606433,92.50000000000001,44.93679293950223
1306893605.11,3.0020924,7.0899751,1987.78,-0.2,2.5,-1.0,-1.0,208.2476475002271,59593711.4929357,59593711.4929357,27.191644894246142,7.592892758368224,24598.783372396472,92.39999999999999,44.93014048980844
1306893606.81,3.0064993,7.0902607,1988.98,-0.2,2.5,-1.0,-1.0,207.84857414523646,60084212.85903717,60084212.85903717,28.083982421049487,7.353355974690809,24402.416438819084,90.2,44.92357990363171
1306893608.92,3.011992,7.0906178,1991.75,-0.2,2.9,-1.0,-1.0,208.6946533905475,60579457.67459398,60579457.67459398,26.043537969668332,7.315438411624037,24545.94246099735,89.5,44.919966605294
1306893612.8,3.022047,7.091276,1996.18,-0.2,2.7,-1.0,-1.0,207.77622202833783,60554820.052398674,60554820.052398674,27.194384023660824,7.028961109008746,24553.2406898915,86.8,44.92079337694755
1306893613.66,3.0242642,7.091422,1996.84,-0.2,2.7,84.3,-1.0,206.7504210978116,60642263.97560407,60642263.97560407,28.224426167884154,7.0207561178355125,24056.170388416547,85.5,44.92325072602891
1306893618.37,3.0364961,7.0922326,1998.97,-0.2,2.7,84.3,-1.0,208.2170639228182,60394689.65309728,60394689.65309728,30.050414651471826,6.75901441990405,23598.412266931,86.6,44.928418048863556
1306893619.68,3.0398995,7.0924595,1999.25,-0.2,2.7,84.3,-1.0,208.2988852674,60724316.17828296,60724316.17828296,30.800766992776133,6.94817570264893,22946.6869379372,89.10000000000001,44.93475663154072
1306893622.01,3.0459384,7.0928633,1999.58,-0.2,2.7,84.2,-1.0,207.80966300216667,60364129.318983205,60364129.318983205,29.065813900576927,6.892026479893808,23210.163809929945,92.60000000000001,44.94216695525026
1306893622.22,3.0464883,7.0929002,1999.6,-0.2,2.5,84.2,-1.0,209.968301462666,60646460.53178236,60646460.53178236,27.65717216504979,7.109568217521694,23181.691211957503,89.7,44.950243289458484
1306893624.18,3.0515568,7.0932401,1999.75,-0.1,2.5,84.2,-1.0,207.34372404623423,59906481.44414945,59906481.44414945,27.04364424425284,6.806122837600562,23018.345914841804,87.9,44.95923060354423
1306893636.22,3.0827895,7.0953439,1999.75,-0.1,2.5,84.2,-1.0,207.99439372042394,59198434.94298464,59198434.94298464,25.74950415541067,6.913220162394953,22642.338595929057,89.00000000000001,44.968393989370995
1306893721.58,3.3042466,7.1100879,1999.75,-0.1,2.5,84.4,-1.0,207.9857420603902,58508567.21530337,58508567.21530337,24.0816647261789,6.939571250903723,22569.446037402748,89.4,44.97663874002716
1306893774.79,3.4423026,7.1190569,1999.75,-0.1,2.5,84.5,-1.0,207.94734258261613,57804050.9852952,57804050.9852952,24.11634065338861,7.199635344415046,22514.731083902356,90.9,44.98276297449785
1306893934.25,3.856211,7.1449165,1999.75,-0.1,2.5,84.8,-1.0,207.96716195467405,57820655.13443629,57820655.13443629,24.14999636010618,7.46186568902661,22675.942781994323,91.0,44.9854959141304
1306894252.29,4.6823069,7.1919138,1999.75,-0.1,2.5,85.4,-1.0,207.97490717962555,58521997.837572314,58521997.837572314,22.85000240608004,7.552152672815593,23284.06587767868,92.20000000000002,44.987723604419116
1306894305.39,4.8202767,7.1991644,1999.75,-0.1,2.5,85.5,-1.0,207.95927114423532,59137369.560840525,59137369.560840525,22.882028178573545,7.781713356531705,23964.06847322634,92.3,44.988320717280004
1306894334.0,4.8946262,7.2030006,1999.75,0.3,2.5,85.5,-1.0,207.97868399505936,59766565.11956345,59766565.11956345,21.394786351619544,7.78103220658899,24492.98073464046,90.2,44.98870348193442
1306894334.42,4.8957177,7.2030562,1999.75,13.7,2.6,85.6,-1.0,207.93898838446916,60407656.08033185,60407656.08033185,24.067622439589737,7.686221122493402,24074.560096700625,89.6,44.988833621916925
1306894334.63,4.8962609,7.2030828,2000.01,24.8,2.9,85.8,-1.0,207.0758516600198,60336629.09575573,60336629.09575573,25.133223280861554,7.454605772662638,23781.28738544847,91.10000000000001,44.98914748893355
1306894335.05,4.8973661,7.2031304,2000.08,40.6,3.9,86.8,-1.0,210.47213073820865,60602730.22458337,60602730.22458337,26.563796743377424,7.50316890560144,24324.372340840073,90.7,44.98940011360546
1306894335.47,4.8984357,7.2031635,2000.2,42.3,3.9,88.0,-1.0,203.86743950782218,60312898.604643226,60312898.604643226,28.398993333483656,7.4285915723753995,24282.07533196612,88.10000000000001,44.98974460179444
1306894335.89,4.8995319,7.2031829,2000.38,45.1,4.3,89.2,-1.0,208.903634373502,61019120.13093558,61019120.13093558,29.362322548176955,7.6742122958199435,23870.134614449897,87.2,44.990226885259005
1306894336.32,4.9006516,7.2031859,2000.61,52.1,5.2,90.8,-1.0,208.5021946756785,60795646.00877088,60795646.00877088,30.834447926826453,7.464271099122897,24632.068222781094,88.60000000000002,44.99088524046461
1306894336.76,4.9018174,7.2031666,2000.92,54.8,5.6,92.8,-1.0,212.46738171291463,60409047.52035855,60409047.52035855,30.231681395397274,7.321941856654803,24662.971179974975,91.00000000000001,44.991780909755946
1306894336.98,4.9023683,7.2031486,2001.08,54.8,5.5,93.8,-1.0,201.4638732181845,59813622.138122015,59813622.138122015,29.591520976969296,7.606489340040967,23894.832641996774,90.0,44.9927990637367
1306894337.42,4.9035255,7.2030923,2001.44,55.6,5.6,95.8,-1.0,211.8645029625131,62385459.47631575,62385459.47631575,29.700665224062213,7.399006625959624,23432.445498814064,88.80000000000001,44.99409280826863
1306894337.84,4.9046116,7.2030158,2001.79,57.7,6.0,97.8,-1.0,209.19847963483895,63218504.31954151,63218504.31954151,31.184659518777423,7.564389096886948,23283.964284075297,89.40000000000002,44.99565448805866
1306894338.26,4.9056775,7.2029167,2002.15,58.5,6.0,99.9,-1.0,206.40563786541907,65535797.133970834,65535797.133970834,29.17010879102391,7.713136712495896,23522.454564160926,88.7,44.99749175839987
1306894338.89,4.9073054,7.2027172,2002.71,58.6,6.0,103.1,-1.0,211.782122581631,69084316.92787156,69084316.92787156,29.092124080628416,7.9042156110313275,24108.65833492363,90.00000000000001,44.99955868753373
1306894339.1,4.9078332,7.2026397,2002.88,58.9,6.0,104.2,-1.0,207.626977514785,68564037.82781796,68564037.82781796,26.50649415933141,7.8019546937509,23934.47055210084,92.7,45.001702169598474
1306894339.52,4.9088846,7.2024662,2003.22,59.5,6.0,106.4,-1.0,208.23559524712297,68937126.58092646,68937126.58092646,26.0633511320271,7.722069283662833,24140.024692892588,94.80000000000001,45.004014068111154
1306894339.95,4.9099557,7.2022619,2003.56,59.5,6.2,108.6,-1.0,209.31437218796214,69380955.11941908,69380955.11941908,26.545184645778804,7.549557331753574,24945.618375403108,97.5,45.00644845131325
1306894340.37,4.9110123,7.2020323,2003.88,59.5,6.2,110.9,-1.0,213.62989155245174,68685189.88201351,68685189.88201351,26.79710592210528,7.734359759743019,25032.120138832986,97.50000000000001,45.00895173215314
1306894340.79,4.912024,7.2017855,2004.17,59.8,6.2,113.0,-1.0,207.40085255433274,66892968.004582904,66892968.004582904,26.098169270425615,7.8599930174432835,25518.63813890017,96.60000000000001,45.01143970240687
1306894341.21,4.9130336,7.2015116,2004.45,59.8,6.3,115.3,-1.0,209.7538365423346,68420386.35631008,68420386.35631008,25.638126969312047,7.83996074859893,26263.413535898682,96.10000000000001,45.01401953617765
1306894341.63,4.914025,7.2012144,2004.7,59.8,6.3,117.5,-1.0,209.21407495152636,66155580.77243573,66155580.77243573,22.961080547890347,7.803495393376677,26151.28412012551,94.39999999999999,45.01651516172445
1306894342.05,4.9149995,7.2008938,2004.94,59.8,6.3,119.8,-1.0,209.0964687748857,64726468.28282203,64726468.28282203,23.533427441830202,7.702526891999299,26428.628858249354,93.39999999999999,45.01892657904729
1306894342.7,4.9164722,7.200352,2005.28,59.8,6.3,123.3,-1.0,209.04675685157022,64325224.114912115,64325224.114912115,25.617357293031183,7.484431724580992,26454.52189740498,93.0,45.02132268578394
1306894343.12,4.9173974,7.1999738,2005.48,59.8,6.3,125.5,-1.0,208.65593734866775,62632892.27161295,62632892.27161295,24.794413959786375,7.233380147188907,26117.899111350926,90.4,45.02344320196942
1306894343.54,4.9183116,7.199569,2005.68,59.8,6.3,127.8,-1.0,210.7239013460716,61994121.2212219,61994121.2212219,24.639947117760833,7.523895574646254,26481.02614813501,91.10000000000001,45.02558668403416
1306894343.96,4.9191858,7.199151,2005.85,59.8,6.3,130.1,-1.0,206.65394924038264,61047351.31537287,61047351.31537287,22.887292284182156,7.320633818187184,26653.2832201892,92.4,45.0276000261164
1306894344.17,4.9196202,7.1989312,2005.94,59.8,6.3,131.1,-1.0,209.24240520930837,60132028.545046344,60132028.545046344,22.69002094933525,7.238773536960443,26553.225763072547,90.9,45.02942198587143
1306894344.81,4.9209087,7.1982283,2006.19,59.8,6.3,134.6,-1.0,209.38417956790525,58398278.553450026,58398278.553450026,20.06925592350164,7.345315731243728,26525.310301816226,88.8,45.03119035857485
1306894345.02,4.9213053,7.1979954,2006.27,59.8,6.3,135.8,-1.0,202.783551117613,57329522.209747985,57329522.209747985,20.52312438550575,7.320779757123564,25795.933049391522,87.39999999999999,45.032797970123404
1306894345.44,4.9220939,7.1975067,2006.41,59.8,6.3,138.0,-1.0,206.12028087588078,57830751.336004786,57830751.336004786,21.652062386256063,7.319823614051748,25313.815414494235,88.4,45.03429840756872
1306894345.65,4.9224833,7.1972521,2006.49,59.8,6.3,139.1,-1.0,208.5795146962823,57650566.46291687,57650566.46291687,22.195603206173413,7.477964316844517,25444.2739870557,90.3,45.03566870503153
1306894346.28,4.9235952,7.1964706,2006.7,59.8,6.3,142.6,-1.0,205.8516564407335,57361687.77694685,57361687.77694685,22.215147007411403,7.525956881836206,25334.418217173778,90.60000000000001,45.037016036615086
1306894346.91,4.9246526,7.1956419,2006.9,59.8,6.3,145.9,-1.0,207.43442372628942,57199320.06664712,57199320.06664712,20.12301210268351,7.5523383710767735,25400.852100476215,91.3,45.0382561940954
1306894347.12,4.9249745,7.1953704,2006.96,59.8,6.3,147.1,-1.0,198.24292649040694,55705926.83930665,55705926.83930665,19.293363995495643,7.628446465657462,25765.406029214144,94.2,45.03938917747248
1306894347.75,4.9259317,7.194501,2007.16,59.8,6.3,150.4,-1.0,205.23364048503126,54216776.60852015,54216776.60852015,19.548951632819957,7.626090355585526,25326.19978211031,93.60000000000001,45.04052216084956
1306894348.38,4.9268058,7.1936101,2007.34,59.8,6.3,153.9,-1.0,202.31440185438723,52999732.57404379,52999732.57404379,20.12812071458171,7.729327905803281,24745.79934051547,93.50000000000001,45.04166279951973
1306894348.59,4.9270825,7.1933047,2007.4,59.8,6.3,155.0,-1.0,203.11471627714866,51734455.94177914,51734455.94177914,20.096066009879074,7.984898251077744,24552.948552647675,93.10000000000002,45.042780472310625
1306894349.22,4.9278555,7.1923777,2007.58,59.8,6.3,158.4,-1.0,201.13042921642764,51365464.83033177,51365464.83033177,20.165657359329895,7.78753027696714,23754.650940869178,91.9,45.043844558049905
1306894349.86,4.9285578,7.1914165,2007.76,59.8,6.3,161.9,-1.0,199.26913346548787,51287192.09636305,51287192.09636305,21.03463305747349,7.555643636978788,24413.107181576357,93.80000000000001,45.04498519672007
1306894350.07,4.9287734,7.1910921,2007.82,59.1,6.0,163.0,-1.0,201.13985349093971,50369966.24542867,50369966.24542867,21.666510812788268,7.459052141411723,24530.248898068552,91.99999999999999,45.04606459304553
1306894350.49,4.929174,7.1904456,2007.92,55.8,5.2,165.0,-1.0,198.29274341926987,51693904.73692237,51693904.73692237,21.15076428989383,7.32538468471332,24485.947422990463,89.3,45.047159299957166
1306894350.71,4.9293728,7.1901021,2007.96,53.3,4.8,165.9,-1.0,198.99548520788645,51829920.67065457,51829920.67065457,19.668729373982274,7.106708827613055,24659.16717422018,91.5,45.0481238668863
1306894351.35,4.9299131,7.1890895,2007.97,46.5,3.9,168.2,-1.0,199.53409573292367,52171458.63113947,52171458.63113947,20.44606987255296,7.085329974377626,24298.487710620706,90.70000000000002,45.04894298324677
1306894351.56,4.9300729,7.1887669,2007.93,44.3,3.7,168.9,-1.0,192.44174859076097,52945105.55626732,52945105.55626732,22.834874765541336,7.136930552968015,23727.040310158758,89.10000000000001,45.049685546676336
1306894351.99,4.9303943,7.188085,2007.82,39.9,3.3,170.1,-1.0,197.38144423184687,50949448.008038715,50949448.008038715,23.948941761222635,7.198332701263067,23671.5870054486,89.20000000000002,45.05019079602017
1306894352.23,4.9305604,7.1877146,2007.74,37.4,3.2,170.6,-1.0,191.5117844963684,48327768.286230266,48327768.286230266,23.633845153432823,7.440292780211105,24233.063268583184,89.7,45.050497007743694
1306894352.86,4.9309837,7.1867146,2007.46,31.3,2.9,172.0,-1.0,195.75243482870138,45105089.38786882,45105089.38786882,23.15124931445528,7.449716121264355,24208.27525273293,89.30000000000001,45.05054293950223
1306894353.08,4.9311262,7.1863599,2007.36,29.5,2.9,172.4,-1.0,197.88606311361,41237904.040015176,41237904.040015176,24.024463390762985,7.296224506567318,24897.406210863144,89.60000000000001,45.05037452305429
1306894353.5,4.9313869,7.1856862,2007.15,26.1,2.9,173.1,-1.0,196.42712332276156,39645753.495890655,39645753.495890655,23.69672405901296,7.48502330825917,25203.694076752618,90.2,45.049907550175895
1306894353.71,4.9315098,7.1853577,2007.06,24.6,2.7,173.4,-1.0,191.42584522500684,40185276.94209558,40185276.94209558,22.08095254081808,7.406981261214961,24839.117414553344,89.60000000000001,45.04932574790117
1306894354.34,4.931873,7.1843472,2006.8,20.2,2.7,174.2,-1.0,195.54000191147802,39777143.44730499,39777143.44730499,23.100750058333652,7.725651368370391,25475.751516823686,91.7,45.04846835507528
1306894354.55,4.9319897,7.1840101,2006.73,19.0,2.7,174.4,-1.0,195.2743765819956,41520901.085320294,41520901.085320294,23.539384158914487,7.911456780365515,25343.317872418076,89.0,45.04752675402541
1306894354.97,4.9322143,7.183345,2006.62,16.6,2.7,174.9,-1.0,192.53545118850022,42224711.435883924,42224711.435883924,23.94921618529902,7.950027031700904,25465.57423494797,87.30000000000001,45.04649328945849
1306894355.18,4.9323251,7.1830091,2006.57,15.4,2.7,175.1,-1.0,194.15034360485,40099292.54917147,40099292.54917147,24.54897367556421,7.8519793779577265,26234.308979368856,88.00000000000001,45.04545216959846
1306894355.82,4.9326547,7.1819816,2006.5,12.4,2.7,175.6,-1.0,194.54617892395373,40953025.32949557,40953025.32949557,23.87349895047108,7.645354228439976,26491.9986106127,86.70000000000002,45.0444416709108
1306894356.03,4.9327604,7.1816437,2006.49,11.6,2.7,175.7,-1.0,194.70239474136287,41495009.8020904,41495009.8020904,25.809118776990132,7.3575602192858645,26121.876030748634,86.30000000000001,45.04348475927475
1306894356.45,4.9329659,7.1809759,2006.5,9.9,2.7,176.0,-1.0,192.4085328333239,42076104.297520705,42076104.297520705,27.455452821403192,7.086321979259827,26462.8871056692,87.4,45.04274985113827
1306894356.66,4.9330684,7.1806379,2006.51,9.1,2.7,176.1,-1.0,194.55783929963906,43592372.97593361,43592372.97593361,27.31996806527297,7.080937615317298,25707.054823493738,89.70000000000002,45.04209915122576
1306894357.29,4.9333689,7.17963,2006.59,7.1,2.7,176.4,-1.0,193.27528255145572,45589826.48689718,45589826.48689718,26.014954043661348,7.1390740705124385,25046.310378305912,89.0,45.04167045481282
1306894357.93,4.9336673,7.1786074,2006.72,5.4,2.7,176.6,-1.0,192.90999969864185,45284106.68448805,45284106.68448805,27.3501643391131,7.092279157119278,25149.964889314975,91.20000000000002,45.04141017484781
1306894358.15,4.9337699,7.1782516,2006.77,4.9,2.7,176.7,-1.0,195.0423381046939,45168426.860351466,45168426.860351466,28.465962843337614,6.938291588214546,24983.557001529167,90.40000000000002,45.04138720896855
1306894358.79,4.9340629,7.1772255,2006.93,3.5,2.7,176.7,-1.0,193.3447615478261,46131194.67031632,46131194.67031632,28.58668138624428,7.015140108591906,25192.38516347336,93.70000000000002,45.041540314830314
1306894359.43,4.9343546,7.176193,2007.1,2.4,2.7,176.7,-1.0,194.42030449792958,46094315.57541236,46094315.57541236,26.944343284378558,7.125010537184281,25026.315647368374,95.3,45.04190776889855
1306894359.64,4.9344478,7.175861,2007.16,2.0,2.7,176.7,-1.0,190.6715482465352,46199964.22436166,46199964.22436166,24.08547630319863,7.272206157693327,24264.329144920725,95.7,45.04235943119077
1306894360.27,4.9347296,7.174854,2007.34,1.1,2.7,176.7,-1.0,192.66254060925158,45295719.678022124,45295719.678022124,25.949414046211732,7.274625217721738,24115.58030326542,97.0,45.043002475810184
1306894360.9,4.9350118,7.1738422,2007.53,0.4,2.7,176.7,-1.0,193.50399806203708,44048735.34457642,44048735.34457642,25.126931270888953,7.441987560091299,23976.6678424293,96.2,45.04379862629138
1306894361.12,4.9351096,7.173491,2007.59,0.1,2.7,176.7,-1.0,192.36694355218407,41932187.05302868,41932187.05302868,23.822992047482742,7.709381916860245,23811.54308151418,96.3,45.04463305323801
1306894361.75,4.9353906,7.1724824,2007.78,-0.4,2.7,176.7,-1.0,192.90771623219868,40208944.48826866,40208944.48826866,23.00531607460987,7.706902028140608,24244.284331361432,94.0,45.04560527546023
1306894362.38,4.9356745,7.1714643,2007.96,-0.9,2.7,176.7,-1.0,194.6488097768844,39486646.07912558,39486646.07912558,23.08181871797103,7.633911574704291,24116.682780491792,93.90000000000002,45.04665405061334
1306894362.59,4.9357686,7.1711276,2008.02,-1.0,2.7,176.7,-1.0,193.17862367393693,40013173.16127206,40013173.16127206,24.100459015350562,7.864238151440807,24749.552821650977,93.60000000000002,45.047649238714826
1306894363.01,4.935957,7.1704542,2008.15,-1.3,2.7,176.7,-1.0,193.22733900258297,40522624.40076806,40522624.40076806,22.33449507683646,7.804923901887787,24645.72531983516,96.20000000000002,45.048705669161016
1306894363.22,4.9360491,7.1701255,2008.21,-1.4,2.7,176.9,-1.0,188.91053368163446,41120833.35604422,41120833.35604422,20.706853592821115,7.701670757666535,23979.28829474866,92.4,45.04968554667633
1306894363.85,4.9363368,7.1691026,2008.39,-1.7,2.7,176.9,-1.0,195.55088259590468,40700457.23474272,40700457.23474272,21.594564939597007,7.7132327785846755,24544.47736970777,90.6,45.050673079484724
1306894364.06,4.9364286,7.1687772,2008.45,-1.8,2.7,176.9,-1.0,187.1741028088232,39538450.99986268,39538450.99986268,22.92602802911671,7.845364649697838,25309.78969968402,89.50000000000001,45.05166061229313
1306894364.48,4.9366191,7.1681039,2008.57,-1.8,2.7,176.9,-1.0,193.25722548074611,36006762.118820705,36006762.118820705,20.91146663770508,7.820599760886488,25553.33738156424,88.7,45.05260221334299
1306894364.69,4.9367141,7.1677689,2008.63,-2.0,2.7,176.9,-1.0,192.4259591030251,34013222.12770619,34013222.12770619,21.9463298495215,7.885225018247249,25976.606720512296,86.8,45.053444295582715
1306894365.32,4.9370027,7.1667558,2008.81,-2.2,2.7,176.7,-1.0,193.88868847113181,32845106.054968253,32845106.054968253,21.057412854480372,7.703425267194609,26027.75731487906,86.1,45.054378241339506
1306894365.74,4.9371974,7.1660762,2008.93,-2.3,2.7,176.7,-1.0,195.06309288927895,32595130.073248483,32595130.073248483,22.26150178870488,7.7521129690905,25719.78654388143,88.80000000000001,45.05525860004466
1306894366.38,4.9374906,7.1650584,2009.11,-2.4,2.7,176.7,-1.0,191.92499551222048,34821335.836356156,34821335.836356156,23.007177539590785,7.521488892521367,26352.89995428949,87.30000000000001,45.05613895874983
1306894368.06,4.9382781,7.1623598,2009.59,-2.5,2.7,176.7,-1.0,193.87008320125773,38032222.65392545,38032222.65392545,21.29183285268276,7.439771731567799,26296.594222171305,87.30000000000001,45.0573408397647
1306894368.48,4.9384754,7.1616916,2009.71,-2.4,2.7,176.7,-1.0,192.21944427080697,40668564.44364708,40668564.44364708,21.371747644558347,7.338480364573714,26020.613544625558,85.80000000000001,45.058535065486474
1306894369.96,4.939185,7.1593141,2010.14,-2.4,2.7,176.1,-1.0,194.05157743286486,41610725.34679032,41610725.34679032,22.260936032280203,7.174478833969803,26008.168524599434,89.30000000000001,45.06001253705254
1306894371.44,4.9399058,7.1569372,2010.56,-2.2,2.7,175.9,-1.0,194.1352672306919,43023104.15729313,43023104.15729313,23.229501605117743,7.275081655809149,25982.78515781164,92.80000000000001,45.06167373565272
1306894372.28,4.9403151,7.1556032,2010.8,-2.1,2.7,175.8,-1.0,192.17969557602453,41776988.196899526,41776988.196899526,23.75833616244282,7.062231283431079,25153.962812536465,91.39999999999999,45.063472729528485
1306894373.12,4.9407326,7.1542534,2011.04,-2.0,2.7,175.7,-1.0,194.39166942102185,41572404.197991185,41572404.197991185,25.73097014197386,7.008622809019268,24476.462571023014,92.7,45.06536358692131
1306894373.97,4.9411562,7.1528941,2011.28,-1.9,2.7,175.7,-1.0,193.59190709849764,41489245.64950045,41489245.64950045,23.227444935018656,7.0795012335841685,24640.67983101089,92.19999999999999,45.06739223958972
1306894374.18,4.9412609,7.1525595,2011.34,-1.9,2.7,175.6,-1.0,192.89559328940186,41729912.25975994,41729912.25975994,24.157520486771478,7.238089486794253,23993.06488451748,91.1,45.069329028741066
1306894378.42,4.9434205,7.1457737,2012.55,-1.3,2.7,175.6,-1.0,160.25153734566067,41854981.323222704,41854981.323222704,25.0863147274303,7.442220158881594,23852.807641826108,90.6,45.072100244839056
1306894378.63,4.94353,7.1454345,2012.61,-1.3,2.7,175.2,-1.0,162.2037001666551,40802209.84866416,40802209.84866416,23.93976503397264,7.695878095730173,23178.175121228607,93.19999999999999,45.07477959741999
1306894379.05,4.9437442,7.1447721,2012.73,-1.2,2.7,175.2,-1.0,157.77130469041404,39310347.28094944,39310347.28094944,24.494609512116764,7.722492496756162,22569.350788873562,91.19999999999999,45.07718335944974
1306894380.95,4.944738,7.1417165,2013.28,-1.0,2.7,175.2,-1.0,161.39364588062335,35764555.9275537,35764555.9275537,24.97308323448555,7.817422742565086,22809.19911612956,91.69999999999999,45.079916299082285
1306894382.0,4.9452827,7.1400529,2013.58,-1.0,2.7,175.0,-1.0,158.7619606338357,31754665.12265185,31754665.12265185,26.833200627641652,7.852061656286311,23205.77594884694,90.10000000000001,45.08254971990468
1306894382.85,4.945731,7.1386886,2013.82,-0.8,2.7,175.0,-1.0,161.13902580507886,27825589.770751227,27825589.770751227,24.940900435672724,7.786047415843813,22870.848682694912,88.4,45.08504534545149
1306894385.16,4.9469508,7.1349958,2014.48,-0.6,2.7,175.0,-1.0,160.49135463871093,24394193.023103464,24394193.023103464,24.894886413094852,7.993574731711388,22933.623410951426,88.10000000000001,45.087862493308
1306894387.05,4.9479542,7.1319751,2015.02,-0.6,2.7,174.8,-1.0,160.5280835253089,22298108.636458855,22298108.636458855,23.586020540903686,8.015710795213094,23707.923758653633,84.9,45.09090929995717
1306894388.32,4.9486311,7.1299444,2015.38,-0.4,2.7,174.8,-1.0,160.63499578094704,21616401.406800207,21616401.406800207,24.25507366493854,7.857071523267115,23886.08338714849,86.6,45.0940479701234
1306894390.21,4.9496427,7.1269177,2015.92,-0.3,2.7,174.8,-1.0,160.97302573201154,21756703.179230988,21756703.179230988,24.678308527484514,7.594918557892679,23936.15919878967,89.5,45.09755409435787
1306894391.89,4.9505438,7.1242285,2016.41,-0.3,2.7,174.7,-1.0,160.898471545944,21935591.08189867,21935591.08189867,23.163399349421645,7.346652376713496,24712.922656998322,87.0,45.10050903748997
1306894392.73,4.9509934,7.1228888,2016.65,-0.2,2.7,174.7,-1.0,160.29619438804986,22427282.23006179,22427282.23006179,24.681581156239282,7.204953373299473,24803.940791825476,87.4,45.10360177589768
1306894396.51,4.9530241,7.1168489,2017.73,-0.1,2.7,174.7,-1.0,160.62146573450053,22293570.575524572,22293570.575524572,23.603788210771867,7.282853995152581,24828.649267055465,90.10000000000001,45.10742942244186
1306894735.79,5.1348739,6.574482,2115.19,-0.1,3.8,174.7,-1.0,160.76889859391525,22285230.651105497,22285230.651105497,22.80670456202155,7.491349379954832,24505.921795569102,90.60000000000001,45.18544451430538
1306894736.0,5.1349856,6.5741464,2115.43,-0.1,4.6,174.7,-1.0,160.72003549303693,22072688.41492004,22072688.41492004,22.46464602461848,7.762154109377325,24954.973017100616,92.60000000000001,45.263413674410366
1306894736.64,5.1353259,6.5731241,2117.47,-0.1,6.5,174.7,-1.0,160.62193512496142,21970826.265992746,21970826.265992746,24.695235060627134,7.662182793877569,25395.702629111904,90.80000000000001,45.34276078727126
1306894737.27,5.1356628,6.5721135,2122.01,-0.1,7.9,174.7,-1.0,161.61459009201397,21874752.180565115,21874752.180565115,24.9539018514662,7.326954303640449,26227.819865955487,93.50000000000001,45.42507815385043
1306894737.48,5.1357742,6.5717794,2124.09,-0.1,8.3,174.7,-1.0,160.20957514692952,21887496.157925364,21887496.157925364,24.221234383128433,7.510787163861533,26149.691474196963,93.3,45.508574435565215
1306894738.11,5.1361067,6.5707841,2131.92,-0.1,9.1,174.7,-1.0,159.15333908457583,21507300.001095917,21507300.001095917,25.74539412632574,7.4665911852310165,25455.39896351512,93.5,45.597789221217006
1306894738.74,5.1364408,6.5697858,2141.85,-0.1,9.5,174.7,-1.0,159.99367560818033,21025400.93726869,21025400.93726869,25.371577904949582,7.721011882529798,25768.145982260095,92.8,45.694192327078774
1306894738.95,5.1365534,6.5694496,2145.58,-0.1,9.6,174.7,-1.0,162.08604627668396,20600583.7740103,20600583.7740103,25.98568479155407,7.926742794674928,25731.159236074764,92.2,45.79307574790118
1306894739.37,5.1367742,6.5687907,2153.31,0.3,9.6,174.7,-1.0,158.50906198286864,20540111.087650657,20540111.087650657,26.950822199823577,7.908157577355735,26468.276732140796,90.50000000000001,45.897692983246756
1306894740.02,5.1371154,6.567773,2166.05,0.3,9.5,174.7,-1.0,158.361676790412,20289108.469432496,20289108.469432496,29.261579239807265,7.5926229848768765,26811.936182678084,90.9,46.01123629033337
1306894740.65,5.1374482,6.5667804,2178.93,0.3,9.2,174.7,-1.0,159.50780746052857,20475559.39046782,20475559.39046782,31.39185132544166,7.374749861608929,27398.840621604104,88.20000000000002,46.060031128478606
1306894741.29,5.1377843,6.5657774,2191.97,0.3,8.8,174.7,-1.0,158.56110776862312,20817699.9420057,20817699.9420057,29.242186787917166,7.299959379847877,27064.00027125437,85.80000000000001,46.11862474177694
1306894741.72,5.1380118,6.5650977,2200.63,0.3,8.4,174.7,-1.0,160.09098126693738,20516245.882646993,20516245.882646993,29.470509917043707,7.473480900150507,26570.526792970762,88.50000000000001,46.18228615909977
1306894741.93,5.1381211,6.5647711,2204.71,0.3,8.3,174.7,-1.0,157.05197474668307,20487091.40305855,20487091.40305855,27.953171925278948,7.677621184700586,26447.137300272174,86.60000000000001,46.24559543294055
1306894742.35,5.1383432,6.5641066,2212.8,0.3,7.9,174.7,-1.0,160.14370104681467,19885657.61486465,19885657.61486465,28.93171952520727,7.381605965770927,26285.63100472938,87.5,46.313505537927426
1306894742.56,5.138453,6.563778,2216.68,0.3,7.8,174.7,-1.0,157.96129114332015,19548077.076192517,19548077.076192517,28.939084909115113,7.261341475650818,26811.275268073052,85.50000000000001,46.3783918021444
1306894743.19,5.1387827,6.5627898,2227.83,0.3,7.2,174.7,-1.0,158.35674846911795,18759250.79355619,18759250.79355619,29.731276576567918,7.196034659172241,26512.106207457466,85.00000000000001,46.44421201211815
1306894743.41,5.1388966,6.5624479,2231.49,0.3,7.1,174.7,-1.0,156.57548109983563,18416660.451793466,18416660.451793466,28.854100023143673,7.115857791733603,25802.256375084056,88.00000000000001,46.50997863504029
1306894743.83,5.1391192,6.5617793,2238.35,0.3,6.7,174.7,-1.0,160.83165260838783,17727249.97000769,17727249.97000769,28.08100912481829,7.371736129504985,25353.915765586135,87.80000000000001,46.575079247463734
1306894744.04,5.1392295,6.5614479,2241.59,0.3,6.6,174.7,-1.0,159.20185440341226,17903386.90390163,17903386.90390163,26.368651911168236,7.411579736012222,24993.087597927974,84.7,46.63290733145324
1306894744.67,5.1395593,6.5604553,2250.69,0.3,6.1,174.7,-1.0,158.74625835376528,17935369.519651998,17935369.519651998,24.184064675176973,7.3484600832889555,24658.13095148903,84.6,46.687841714655335
1306894745.09,5.1397809,6.5597872,2256.29,0.1,5.8,174.7,-1.0,160.40215396829151,18334817.939555977,18334817.939555977,25.826827752393946,7.184648657383118,25004.76491454895,86.69999999999999,46.73708055979969
1306894745.72,5.1401099,6.5587947,2263.87,0.1,5.4,174.7,-1.0,158.52210726562308,19596398.85872793,19596398.85872793,23.33471491056569,6.898721329588858,24631.497489760863,87.0,46.7854926332905
1306894745.94,5.1402261,6.5584439,2266.34,0.0,5.2,174.7,-1.0,160.58239449071044,19830561.84451042,19830561.84451042,24.360798513089186,6.98267369230799,24456.2338921895,86.5,46.83267220459409
1306894746.37,5.1404516,6.5577623,2270.85,0.0,5.0,174.7,-1.0,159.53662228707987,20809029.58345884,20809029.58345884,23.28868235108998,7.210028672537327,24095.94158956816,86.50000000000001,46.87711118097204
1306894746.58,5.1405652,6.5574189,2272.98,0.0,4.9,174.7,-1.0,165.16901140923994,21551112.701912582,21551112.701912582,22.391603364029475,7.238005035197867,23807.251503906573,86.7,46.92021048105953
1306894747.21,5.1408957,6.5564195,2278.67,0.0,4.6,174.7,-1.0,159.5650682622697,23733309.493892353,23733309.493892353,21.407597856178025,7.0805096434181,24313.737540845465,85.80000000000001,46.959129991120776
1306894747.42,5.1410073,6.5560818,2280.42,0.0,4.5,174.7,-1.0,161.95661759424974,24925747.021325015,24925747.021325015,23.326825696550635,7.128223001514616,24290.345102110557,84.10000000000001,46.99658734020214
1306894747.84,5.141229,6.555411,2283.68,-0.2,4.3,174.7,-1.0,160.69169588143268,26990899.08546764,26990899.08546764,23.783635538848547,7.090399813723582,24126.28653836721,83.50000000000001,47.0312887837717
1306894748.05,5.141338,6.555081,2285.18,-0.2,4.2,174.7,-1.0,157.80137088347874,28132413.36462095,28132413.36462095,24.84536435363473,7.242570348812965,24036.516577794497,83.4,47.06465820634387
1306894748.89,5.1417807,6.553741,2290.59,-0.2,3.9,174.7,-1.0,160.40821826961582,26958035.864690654,26958035.864690654,26.563413461472937,7.217226648119718,24261.53844517864,84.20000000000002,47.09520282576645
1306894749.52,5.1421135,6.5527337,2294.03,-0.2,3.7,174.7,-1.0,160.8050265464014,25064214.142971095,25064214.142971095,25.532856346019898,7.3739154106974,23865.052624132983,81.3,47.124093901881935
1306894750.15,5.1424466,6.551726,2297.0,-0.2,3.5,174.7,-1.0,160.84813447092012,22859044.887995213,22859044.887995213,26.504865206941307,7.453936933735333,23950.40220748905,81.4,47.149455887883676
1306894750.99,5.1428908,6.5503826,2300.32,-0.2,3.3,174.7,-1.0,160.81041711478062,20687138.335875943,20687138.335875943,27.367141316279703,7.5365319496150835,23882.553980912777,83.1,47.17546857379794
1306894751.62,5.1432201,6.5493873,2302.39,-0.2,3.2,174.7,-1.0,158.63251175974898,19307756.592893492,19307756.592893492,29.415887110869207,7.47842224915445,24235.398133091807,82.6,47.19961336819865
1306894752.26,5.1435597,6.5483615,2304.21,-0.2,3.1,174.7,-1.0,161.18418784042444,19909388.942133125,19909388.942133125,30.580589029789493,7.535148868462204,24212.08613890418,83.4,47.22352084851361
1306894752.47,5.1436719,6.5480227,2304.76,-0.2,3.1,174.7,-1.0,162.40086972420625,20045906.765496053,20045906.765496053,31.966626767771306,7.524125776084137,24020.632765924584,82.10000000000001,47.243493508181146
1306894753.95,5.1444567,6.5456546,2307.86,-0.2,2.9,174.7,-1.0,160.90087056695765,21120952.88244987,21120952.88244987,31.889665478791063,7.359928168468488,24278.587193545638,83.8,47.26449963241561
1306894756.07,5.1455798,6.5422699,2310.73,-0.1,2.9,174.7,-1.0,160.5102688697562,21985272.46201907,21985272.46201907,30.600752873317255,7.084705369819932,24355.360151786695,82.5,47.28520720021964
1306894756.7,5.1459137,6.5412647,2311.33,-0.1,2.7,174.7,-1.0,160.4312251117837,22267370.170998655,22267370.170998655,28.7592026161107,7.024347147165309,25053.112240879946,82.9,47.30522579164571
1306894854.92,5.1980164,6.3842277,2311.33,-0.1,2.7,174.8,-1.0,160.78888796720707,22700759.69860556,22700759.69860556,28.43062996855831,7.208607545501046,24872.32407112427,85.0,47.32110286951099
1306895313.53,5.4383514,5.6509294,2311.33,-0.1,2.6,174.8,-1.0,160.79316365961083,22605168.66441396,22605168.66441396,28.56772296353277,7.033752491731495,24327.356191970008,87.00000000000001,47.33434652655386
1306895313.97,5.4385784,5.6502258,2315.09,-0.1,3.4,174.8,-1.0,160.93882395548954,22234490.926346883,22234490.926346883,29.349868899601347,6.996549586934267,24664.278355023624,85.2,47.348194951750706
1306895314.41,5.4388053,5.6495224,2315.53,-0.1,4.0,174.8,-1.0,160.69399194001863,21935687.97488605,21935687.97488605,28.345413386661335,6.816365493188906,24712.453783452795,83.7,47.359838652538095
1306895314.83,5.4390233,5.6488464,2316.45,-0.1,4.5,174.8,-1.0,161.9350578661007,21438791.81673303,21438791.81673303,28.665040328944844,6.844924874913886,24905.032131006046,85.10000000000001,47.37060199462033
1306895315.25,5.4392417,5.6481692,2317.89,-0.1,4.8,174.8,-1.0,162.29435225469072,21360716.360637948,21360716.360637948,28.177359373691342,6.996619320079738,25220.22050467879,86.2,47.38107443556521
1306895315.67,5.4394559,5.6475052,2319.79,-0.1,5.0,174.8,-1.0,158.7483909949331,21698209.84002864,21698209.84002864,28.53356628286963,7.038693468558935,25332.005693627558,87.8,47.392580341077014
1306895318.61,5.4409675,5.6428275,2339.3,-0.1,5.0,174.8,-1.0,159.96959565763586,21489448.835058942,21489448.835058942,29.050186056112665,7.103568637436798,25755.73854158954,86.3,47.41664858254684
1306895319.88,5.4416189,5.6408074,2348.89,-0.1,4.4,174.8,-1.0,159.94005073713842,21262767.522940297,21262767.522940297,27.91608492275129,7.337337556388734,25691.794170774843,89.60000000000001,47.445861180972045
1306895320.3,5.4418345,5.6401376,2351.93,-0.1,3.7,174.8,-1.0,160.30496064810285,20823630.403737254,20823630.403737254,29.60347016494308,7.385842430152409,25654.014078875076,91.20000000000002,47.4769416709108
1306895320.72,5.44205,5.6394676,2354.52,-0.1,3.1,174.8,-1.0,160.3914345274533,20167626.760699764,20167626.760699764,30.474574408809623,7.188514534586968,25234.568795186824,89.9,47.510004881759436
1306895321.14,5.4422647,5.6387987,2356.55,-0.1,2.5,174.8,-1.0,160.02702817962765,19928846.84356062,19928846.84356062,31.630641191798706,7.225656791553115,25202.76413735471,87.9,47.54462211710502
1306895321.56,5.4424793,5.6381292,2357.97,-0.1,2.1,174.8,-1.0,160.0994125079794,20129011.615895133,20129011.615895133,31.820109044638233,7.1688229799189855,25631.018407575604,87.1,47.57744801386793
1306895321.98,5.4426947,5.637456,2358.79,-0.1,1.7,174.8,-1.0,161.06380418351233,20351115.330299262,20351115.330299262,30.86919342282129,7.247256074281158,25651.13941328803,87.80000000000001,47.61056481176819
1306895322.4,5.4429104,5.6367807,2359.03,-0.1,1.4,174.8,-1.0,161.67876670619452,20865756.258958276,20865756.258958276,28.946508383142163,7.225532203085628,25636.813018489513,87.10000000000001,47.643161049738445
1306895322.82,5.4431214,5.6361191,2358.76,-0.1,1.2,174.8,-1.0,157.79288086216093,21515983.07632624,21515983.07632624,28.317618308309886,6.935387501441982,25060.934801741256,85.30000000000001,47.674448232590585
1306895323.24,5.4433383,5.6354379,2358.04,-0.2,1.0,174.8,-1.0,163.23192886489113,21197921.22769023,21197921.22769023,28.179871526008718,7.031876584130323,24645.1308519609,87.10000000000001,47.70372972865358
1306895324.08,5.4437624,5.6341044,2355.6,-0.2,1.3,174.8,-1.0,159.2395865945857,21669347.68240042,21669347.68240042,25.507234359010724,7.2837521816186905,24812.582843120377,86.30000000000003,47.71620785638761
1306895324.5,5.4439758,5.6334329,2354.2,-0.2,1.7,174.8,-1.0,160.59078195492842,21712153.379494496,21712153.379494496,28.2797707661098,7.028069758944456,25165.677399363878,84.20000000000002,47.72027281701753
1306895324.92,5.4441931,5.6327502,2352.91,-0.3,2.2,174.8,-1.0,163.61556359761101,21727216.63240045,21727216.63240045,27.557792283755813,6.910091135357142,25212.8182038613,83.2,47.72102303574019
1306895325.34,5.4444038,5.6320898,2351.92,-0.3,2.7,174.8,-1.0,157.52418140026984,22623814.821625534,22623814.821625534,25.256865726449192,7.099600238975586,25221.242982011718,83.8,47.71903265953722
1306895325.76,5.4446174,5.6314214,2351.28,-0.3,3.1,174.8,-1.0,159.76468373985054,22438538.44533165,22438538.44533165,23.772297389148974,7.0417405334112315,25838.8498758091,84.7,47.71499832007966
1306895326.18,5.4448357,5.6307403,2351.05,-0.3,3.4,174.8,-1.0,163.27940544642632,22044933.120972343,22044933.120972343,23.59215355644158,7.09556387855885,25938.76106064214,85.2,47.70970085726251
1306895326.61,5.4450546,5.6300591,2351.25,-0.3,3.7,174.8,-1.0,158.91196162386743,22390769.94124984,22390769.94124984,24.020886337656613,7.171250433666216,25603.749779609916,87.8,47.70392876627388
1306895327.03,5.4452704,5.6293893,2351.85,-0.3,3.8,174.8,-1.0,160.25682467394097,21655133.246179953,21655133.246179953,25.54348946635906,7.284574491501885,25671.897134665574,87.4,47.69843226583644
1306895327.88,5.4457111,5.6280245,2354.02,-0.2,3.8,174.8,-1.0,161.51931863682822,20903381.126463007,20903381.126463007,24.466487756512105,7.481999741941523,25747.6602838408,90.2,47.69480365691255
1306895328.3,5.4459255,5.6273616,2355.31,-0.2,3.1,174.8,-1.0,158.394940233848,21539864.730407167,21539864.730407167,22.20840585524427,7.485664906369916,26257.673511829664,87.39999999999999,47.69271376189942
1306895328.72,5.4461425,5.6266908,2356.45,-0.2,2.2,174.8,-1.0,160.60453195163953,20714594.25651428,20714594.25651428,24.244950131869192,7.3369776824790645,26027.219716306103,90.49999999999999,47.69336446181193
1306895329.14,5.4463598,5.6260183,2357.13,-0.2,1.4,174.8,-1.0,161.02771472340837,20383896.102222234,20383896.102222234,22.096269648620517,7.577701884530617,25421.95847011636,91.99999999999999,47.69560746268682
1306895329.58,5.4465867,5.6253153,2357.15,-0.2,0.8,174.8,-1.0,160.56552308489665,20994320.829465117,20994320.829465117,22.124685994924345,7.710687151214391,25185.699464007637,94.1,47.69885330695629
1306895330.02,5.4468132,5.6246121,2356.44,-0.2,0.4,174.7,-1.0,160.65716135541155,20500403.312377285,20500403.312377285,24.489843192015584,7.713151772956341,25470.226825851834,91.70000000000002,47.70231349943223
1306895330.45,5.4470343,5.6239247,2355.08,-0.2,0.1,174.7,-1.0,160.61284830349675,20612987.055468094,20612987.055468094,24.234773116676273,7.815607110094663,24994.47769002058,93.10000000000002,47.70522251080581
1306895332.14,5.4479037,5.6212192,2345.38,-0.2,0.2,174.7,-1.0,161.00231592011673,21397987.712928426,21397987.712928426,22.66087138090113,8.108492350707877,24592.701150045832,95.0,47.70088195962471
1306895332.56,5.4481213,5.6205434,2342.48,-0.2,0.4,174.7,-1.0,161.98967022757813,21302366.419049744,21302366.419049744,23.817661190170877,7.931246762286411,24387.23667444408,92.0,47.694168267586214
1306895332.98,5.4483345,5.6198819,2339.68,-0.2,0.6,174.7,-1.0,158.1211065788936,21479098.05904491,21479098.05904491,21.900138502861676,7.877094796504465,24150.91841582056,93.2,47.68485177589768
1306895333.4,5.448553,5.6192045,2336.92,-0.2,0.8,174.7,-1.0,162.48146270496588,21260943.261711992,21260943.261711992,24.12619232824429,7.8051459274589305,24469.676784601666,90.5,47.671761224716576
1306895333.82,5.4487685,5.6185366,2334.38,-0.1,1.0,174.7,-1.0,159.81781585415263,21187589.90743052,21187589.90743052,23.875758520636225,7.994458699652737,24201.731621427585,92.8,47.65573869628263
1306895334.24,5.4489875,5.617859,2331.99,-0.1,1.2,174.7,-1.0,162.47942819557252,21013537.890444264,21013537.890444264,22.871834968548754,8.076188995815345,23631.5215759412,91.8,47.63701384938849
1306895334.67,5.4492068,5.6171814,2329.81,-0.1,1.4,174.7,-1.0,158.2007447714663,21125898.828685753,21125898.828685753,22.59022174815657,8.144264585207306,24018.64929530692,89.2,47.61609958867108
1306895335.51,5.4496418,5.6158405,2326.14,-0.1,1.7,174.7,-1.0,160.55979580295946,21001599.25315052,21001599.25315052,21.327414865708707,8.184011254009182,23917.862011466594,86.69999999999999,47.59236052480406
1306895335.93,5.4498606,5.6151676,2324.6,-0.1,1.8,174.7,-1.0,161.1953712345998,20979686.03172072,20979686.03172072,19.286964848648545,8.214542895577917,24377.94224529078,86.7,47.567986071610704
1306895336.35,5.4500818,5.6144883,2323.24,-0.1,1.9,174.7,-1.0,163.03983267827465,20805603.164276313,20805603.164276313,18.942215351251328,8.014103755802823,25171.00002502723,86.80000000000001,47.54361161841736
1306895336.77,5.4503002,5.6138185,2322.06,-0.1,2.0,174.7,-1.0,160.3779321975919,20893118.68126071,20893118.68126071,18.730176033941675,7.932257122085957,24812.83326846662,84.0,47.5257594749353
1306895337.19,5.4505172,5.6131535,2321.05,-0.1,2.1,174.7,-1.0,159.055370459546,20982854.47388086,20982854.47388086,19.037325540937744,7.890025197832422,25094.224533346365,86.49999999999999,47.50935418184693
1306895340.14,5.4520634,5.6084346,2316.95,-0.1,2.4,174.7,-1.0,161.0042660947836,20769522.9467154,20769522.9467154,20.111581987231,7.955334361687612,25391.7722081814,86.7,47.49195370065708
1306895343.29,5.4537164,5.6033942,2315.62,-0.1,2.5,174.7,-1.0,161.07198991412668,20948309.82749464,20948309.82749464,19.74641140277318,7.877868945978281,24982.48515478182,87.30000000000001,47.47564792637886
1306895345.4,5.4548206,5.6000226,2315.32,0.2,2.5,174.7,-1.0,160.79138656590752,20426573.0747517,20426573.0747517,21.43106167131287,7.604880043356243,25128.103885300043,87.9,47.46105693775244
1306895349.62,5.4570256,5.593276,2315.11,0.1,2.5,174.7,-1.0,160.86809156773353,20337392.840738013,20337392.840738013,23.158049297818017,7.617544343761541,25236.065502571964,85.10000000000001,47.448134803019286
1306895353.43,5.4590053,5.5871893,2315.11,0.1,2.8,174.7,-1.0,160.67845788016265,20213177.139252633,20213177.139252633,23.336219937620697,7.605491554206852,25412.64937099185,88.4,47.43688152217939
1306895353.85,5.459223,5.5865178,2315.2,0.1,3.6,174.7,-1.0,160.79125447781868,20390837.504080333,20390837.504080333,23.62534761116865,7.4473629722369745,25520.127737737494,87.4,47.428506631540714
1306895354.27,5.4594412,5.5858449,2315.76,0.1,4.2,174.7,-1.0,161.1030357693838,20633859.236442164,20633859.236442164,24.529049014091118,7.306500379013166,25028.016140826054,87.2,47.4217393524506
1306895354.69,5.4596586,5.5851739,2316.83,0.1,4.6,174.7,-1.0,160.72364533888404,21204333.031752806,21204333.031752806,25.20265561862266,7.319430060171789,24909.56049599641,86.30000000000001,47.41683230958097
1306895355.95,5.4603091,5.5831601,2322.85,0.1,5.1,174.7,-1.0,160.7289377781804,21383193.887154773,21383193.887154773,25.030033258249603,7.139699968998421,25141.32935507802,88.60000000000001,47.41743707773495
1306895356.79,5.4607379,5.5818266,2328.48,0.1,5.4,174.7,-1.0,159.54252588369496,21367485.84728367,21367485.84728367,24.96376681877092,7.265801050546439,25587.14988410885,87.60000000000001,47.42312496049961
1306895357.21,5.4609528,5.5811565,2331.71,0.1,5.7,174.7,-1.0,160.43535724106746,21267972.072931018,21267972.072931018,23.344305283452076,7.261355236509044,25259.726346434498,88.0,47.43442417309803
1306895357.63,5.4611672,5.5804869,2335.24,0.1,5.8,174.7,-1.0,160.32789382225445,21204561.78662934,21204561.78662934,23.75143398649478,7.321494187053708,25834.818193254217,88.50000000000001,47.44944385813739
1306895358.05,5.4613805,5.5798208,2338.94,0.1,5.0,174.7,-1.0,159.39739048643995,21115652.23638158,21115652.23638158,23.064851846048015,7.296331919228521,26080.303432493885,86.10000000000001,47.46752566041211
1306895358.47,5.4615928,5.5791579,2342.47,0.1,4.2,174.7,-1.0,158.47607453763777,20935876.148363132,20935876.148363132,21.773853712610254,7.137356475057701,26565.290665885597,86.1,47.488470542301876
1306895358.89,5.4618104,5.578479,2345.68,0.1,3.6,174.7,-1.0,162.84479318203955,20691667.504016116,20691667.504016116,21.71403547365959,7.165411898157296,26043.169903349462,85.10000000000001,47.511872773273005
1306895359.31,5.4620217,5.5778205,2348.25,0.1,3.0,174.7,-1.0,157.22140392522874,21063318.13175624,21063318.13175624,24.10582144264639,7.196359014896486,25657.270787634,87.40000000000002,47.537173516930046
1306895359.73,5.4622389,5.577144,2350.29,0.1,2.5,174.7,-1.0,162.0685649482756,20647999.453678202,20647999.453678202,24.367303626976387,7.381480840462219,26000.7596133886,90.80000000000001,47.56360724396417
1306895360.15,5.4624526,5.5764781,2351.69,0.1,2.1,174.7,-1.0,159.18806268292607,20987841.728008177,20987841.728008177,23.896436153681144,7.578543860689465,25396.851252274326,92.10000000000002,47.590293595670204
1306895361.0,5.4628886,5.5751159,2352.87,-0.1,1.8,174.7,-1.0,161.07510826187556,21249487.22642167,21249487.22642167,25.63827066435472,7.666652860213398,25790.96538337429,92.5,47.613274785521476
1306895361.42,5.4630992,5.5744562,2352.85,-0.1,1.6,174.7,-1.0,157.38696295355285,21100111.86971465,21100111.86971465,23.959717078669993,7.653177902187819,25154.4001039349,91.0,47.63193073477781
1306895361.84,5.4633156,5.5737768,2352.49,-0.1,1.8,174.7,-1.0,162.68822478478143,20695201.507111378,20695201.507111378,26.1230846690041,7.381570532809114,25317.384336692518,89.1,47.64783843381544
1306895362.26,5.4635264,5.5731132,2352.01,-0.2,3.0,174.7,-1.0,158.41125964203138,21114589.06205506,21114589.06205506,24.288851130847323,7.52945127968235,24827.61610649108,90.0,47.66067636032463
1306895362.68,5.4637412,5.5724352,2351.86,-0.2,4.0,174.7,-1.0,162.26824329839278,20555082.884127706,20555082.884127706,23.92154704622451,7.787264731937535,24850.61122178218,92.7,47.67056699899479
1306895363.1,5.4639535,5.5717636,2352.36,-0.2,4.8,174.7,-1.0,160.49602963455547,20632597.459015116,20632597.459015116,22.81499281548983,8.001550611885708,24671.626074321033,96.4,47.67813808385918
1306895363.52,5.4641649,5.5710954,2353.64,-0.2,5.7,174.7,-1.0,159.61974135225734,21475953.356246263,21475953.356246263,24.937867612987432,7.91737212447891,25045.611447376203,96.4,47.684231697157514
1306895363.94,5.464378,5.570423,2355.83,-0.2,7.3,174.7,-1.0,160.82897292532533,21215720.296299852,21215720.296299852,22.90088542879909,8.026749946415848,25344.970753964742,97.60000000000002,47.6900344093185
1306895364.36,5.4645923,5.5697501,2359.25,-0.2,8.3,174.7,-1.0,161.1803107792458,21589071.125218973,21589071.125218973,24.052319256430817,7.7778824042645,24893.232503321833,94.0,47.696893551925676
1306895364.78,5.4648058,5.5690833,2363.89,-0.2,8.7,174.7,-1.0,159.68968735466507,21632476.3042398,21632476.3042398,25.355215595236615,7.880898235292946,25584.549455578963,90.9,47.70623300949348
1306895365.2,5.4650197,5.5684182,2369.55,-0.2,9.8,174.7,-1.0,159.54808796857142,21247451.762127087,21247451.762127087,23.93050023899798,7.991730492838211,25209.390775900123,89.90000000000002,47.71900203836488
1306895366.04,5.4654485,5.5670918,2384.05,-0.0,9.9,174.7,-1.0,159.40712411008366,20601884.329363607,20601884.329363607,23.455098826742827,8.082211893351555,25847.161483248266,90.60000000000001,47.74288655280056
1306895366.46,5.465664,5.5664271,2392.44,-0.0,10.7,174.7,-1.0,160.18751512603933,20587431.27944965,20587431.27944965,23.768667486650337,8.406530668332099,25307.04454754369,90.30000000000001,47.77346944868858
1306895366.88,5.465879,5.565764,2401.47,-0.0,11.1,174.7,-1.0,159.9602474305273,19833442.39863208,19833442.39863208,23.699415247350654,8.167722596941747,25458.431712423837,89.60000000000001,47.81133252830363
1306895367.3,5.466089,5.5651166,2410.92,0.2,11.6,174.7,-1.0,155.8651893216112,19733153.306506354,19733153.306506354,22.83516534785157,8.106537386074596,25559.073869225875,85.9,47.8565446892835
1306895367.72,5.4663036,5.564455,2421.21,0.2,11.9,174.7,-1.0,159.98939224982038,19097759.703361407,19097759.703361407,22.522407387036363,8.09285990012561,25653.685187502415,85.19999999999999,47.90925138219689
1306895368.14,5.4665179,5.5637947,2432.0,0.2,11.0,174.7,-1.0,159.787201854164,18931736.75376907,18931736.75376907,21.625481685716537,8.210742053829462,25375.26873722493,84.6,47.969238258837315
1306895368.58,5.466738,5.563116,2443.01,0.2,8.1,174.7,-1.0,156.39423736901747,18877738.08322082,18877738.08322082,21.12276639228407,8.034005713195143,25327.67480544384,81.5,48.03597710398167
1306895369.0,5.4669525,5.5624533,2452.7,0.2,5.7,174.7,-1.0,160.03669785839406,18425453.55895662,18425453.55895662,18.679505201509983,8.230806781807939,25046.314798252402,83.9,48.107515817892434
1306895369.42,5.467165,5.5617949,2460.73,0.3,5.4,174.7,-1.0,158.25174965185857,18932254.944717944,18932254.944717944,17.263857047967907,8.06935208162171,24453.34445165255,86.1,48.181649676160156
1306895369.84,5.4673759,5.5611395,2467.53,0.3,8.0,174.7,-1.0,157.23747182184533,19357203.108573534,19357203.108573534,16.84340626086302,8.025879933309628,24247.403772183156,85.9,48.25665623783994
1306895370.26,5.4675907,5.5604708,2474.55,0.3,10.9,174.7,-1.0,160.69415110204238,19214770.641345207,19214770.641345207,16.59308456207645,7.93085660965436,24302.461529648615,87.60000000000001,48.32593664028963
1306895370.68,5.4678007,5.559817,2482.46,0.3,11.5,174.7,-1.0,157.02864001257154,20117345.238874935,20117345.238874935,14.896518030281682,7.937073699326001,24279.815842172484,89.80000000000001,48.39484958867108
1306895371.1,5.4680158,5.5591483,2491.56,0.3,10.6,174.7,-1.0,161.3617291576768,20392870.690795187,20392870.690795187,14.302515518061185,8.196632921486238,24693.032949419863,91.4,48.463816124104156
1306895371.52,5.4682249,5.5585002,2500.71,0.3,7.7,174.7,-1.0,155.92408236229213,20252334.779315144,20252334.779315144,17.196810733487006,8.049846465732864,24324.189303075247,92.4,48.53255300074457
1306895371.94,5.4684418,5.5578288,2509.37,0.3,5.7,174.7,-1.0,162.0519702490613,20124306.425314393,20124306.425314393,18.59662242850365,7.83153334086774,23998.29926084708,89.9,48.600042064611586
1306895372.36,5.4686534,5.5571746,2516.58,0.3,7.2,174.7,-1.0,156.99300220578658,20436344.391021352,20436344.391021352,19.289984866059182,7.451844968666764,24396.79565741591,88.1,48.664790533552974
1306895372.78,5.4688706,5.5565037,2523.66,0.0,10.1,174.7,-1.0,161.4421897868702,19736335.177454285,19736335.177454285,21.510918607218716,7.551444700222782,24498.509433192707,87.89999999999999,48.726530472310635
1306895373.2,5.4690826,5.5558508,2531.32,0.0,11.0,174.7,-1.0,156.80954303442772,20151134.953046218,20151134.953046218,21.818949206719964,7.51745469829305,24759.476071448367,86.8,48.78671638657135
1306895373.63,5.469302,5.5551767,2540.13,0.0,10.5,174.7,-1.0,158.59391683222555,19981750.753531434,19981750.753531434,24.153972616146753,7.49119309683487,24585.735982836344,86.60000000000001,48.84749941369296
1306895374.05,5.4695174,5.5545157,2549.17,0.0,8.1,174.7,-1.0,159.48672754191014,19737212.569448616,19737212.569448616,24.112885139118532,7.297774694064348,25001.247826731513,87.80000000000001,48.90999722646636
1306895374.47,5.469733,5.553854,2557.64,0.0,6.1,174.7,-1.0,159.4082730246169,19818299.241596673,19818299.241596673,25.965250468866575,7.3164067273884745,24844.202821617193,85.60000000000001,48.97360505673758
1306895374.9,5.4699581,5.5531627,2565.34,0.0,6.7,174.7,-1.0,162.8264828577845,19387039.704175424,19387039.704175424,26.80351136135996,7.316354344312824,25178.129613690937,86.0,49.03705212585393
1306895375.32,5.470171,5.5525085,2572.05,0.0,7.8,174.7,-1.0,156.97972745182548,20040005.488058593,20040005.488058593,26.731358577296383,7.366376467065404,24450.960105577902,84.8,49.09866957992219
1306895375.74,5.4703897,5.5518367,2578.93,0.0,8.5,174.7,-1.0,161.71034593380628,19711608.616836775,19711608.616836775,26.04693161984843,7.306080656835063,24865.46115018702,86.9,49.15854928245937
1306895376.16,5.4706024,5.551184,2585.85,0.0,8.3,174.7,-1.0,156.60543974547687,20633215.82131244,20633215.82131244,24.578878103876132,7.439572179839517,25207.940091484295,87.30000000000001,49.21709696399916
1306895376.59,5.470824,5.5505044,2593.08,0.0,6.6,174.7,-1.0,159.66432968535068,20168096.793926552,20168096.793926552,24.942829984100566,7.4689549854891935,25003.082720384362,90.30000000000001,49.27565995612515
1306895377.03,5.4710509,5.5498085,2599.97,0.0,7.1,174.7,-1.0,159.65189045745657,20138891.51320462,20138891.51320462,25.02818899641842,7.44364016658834,25120.225555969984,90.7,49.33407749768246
1306895377.45,5.4712676,5.549144,2606.39,0.0,8.3,174.7,-1.0,159.71746979666852,19706956.585373417,19706956.585373417,25.223618272518905,7.5936583931988135,24820.92913973254,92.40000000000002,49.391545782896806
1306895377.87,5.4714842,5.5484797,2613.07,0.0,8.6,174.7,-1.0,159.66586317130802,19527350.561300993,19527350.561300993,23.834510559710917,7.569567369175523,25156.737690987888,91.30000000000001,49.44738349068333
1306895378.3,5.4717103,5.5477857,2620.38,-0.0,8.3,174.7,-1.0,163.48848965276105,19470376.412452694,19470376.412452694,25.834955580580438,7.60218240806968,24751.592862709585,90.6,49.501896832765574
1306895378.72,5.4719225,5.547133,2627.29,-0.0,6.4,174.7,-1.0,156.61232699460342,20281436.915016238,20281436.915016238,25.3587070926014,7.45176831435797,24797.04663784652,91.3,49.55521594912603
1306895379.15,5.4721421,5.5464561,2633.9,-0.0,6.3,174.7,-1.0,158.69477825793444,20341001.55720987,20341001.55720987,25.57949169179983,7.424784426157197,24786.595050575044,89.89999999999999,49.60770063853985
1306895379.57,5.4723576,5.5457898,2639.99,-0.0,7.9,174.7,-1.0,159.98955260933485,19895948.308041792,19895948.308041792,25.98544361521974,7.390257873045814,25385.517649170193,88.1,49.659710699782195
1306895380.41,5.4727864,5.5444626,2652.74,-0.0,7.8,174.7,-1.0,159.33187085176937,20274444.35723587,20274444.35723587,25.269519733809954,7.378606519965466,25242.545469338107,86.10000000000001,49.7162144180674
1306895380.83,5.4730013,5.5437967,2659.24,-0.0,6.7,174.7,-1.0,159.9161410688395,19395336.92623178,19395336.92623178,26.430722655269232,7.515794818612833,25264.946672329836,85.5,49.772396614042904
1306895381.25,5.4732168,5.543129,2665.47,-0.0,7.4,174.7,-1.0,160.3811016298879,19308908.147814143,19308908.147814143,25.38845075324964,7.498641619407847,24861.08921361518,85.7,49.82781328070958
1306895381.68,5.4734351,5.5424534,2671.8,-0.0,7.9,174.7,-1.0,158.31376482238232,19946171.714134447,19946171.714134447,25.312975996059986,7.578862124911437,24366.753890602453,87.8,49.8828012509633
1306895382.52,5.4738654,5.5411233,2684.72,-0.0,7.4,174.7,-1.0,159.73874565355533,19869972.066318054,19869972.066318054,27.166491343103516,7.410948548537063,24540.93100171387,87.9,49.94276516172445
1306895382.94,5.4740811,5.5404575,2691.15,-0.0,7.2,174.7,-1.0,159.955900786251,19731528.17390772,19731528.17390772,26.50584097397603,7.361644800402826,24197.618986175643,89.89999999999999,50.0025376901584
1306895383.36,5.4742969,5.5397916,2697.47,-0.0,7.6,174.7,-1.0,159.987172738364,20130522.738588706,20130522.738588706,26.29736062314163,7.462472701037462,24801.02189658879,90.5,50.06155234457658
1306895383.78,5.4745107,5.539132,2703.75,-0.0,7.7,174.7,-1.0,158.27257004830258,19487048.63070803,19487048.63070803,26.159022934227664,7.620145820454729,24475.1593305797,90.70000000000002,50.120084715530226
1306895384.62,5.4749436,5.5377972,2716.58,-0.0,7.1,174.7,-1.0,160.38510671031767,19065527.315015845,19065527.315015845,24.701954064362415,7.398455992137571,24484.24902994921,92.60000000000001,50.18337867878481
1306895385.04,5.4751564,5.5371408,2722.77,-0.0,7.4,174.7,-1.0,157.41207589622883,19161420.121706996,19161420.121706996,26.956102315223042,7.261861356637446,24011.23028782762,95.50000000000003,50.24674919497029
1306895385.46,5.4753723,5.5364749,2729.05,-0.0,7.7,174.7,-1.0,159.9781398195209,18687001.835318092,18687001.835318092,26.34096242131437,7.5727771210427175,24038.598357451832,94.4,50.3051667365276
1306895385.88,5.4755911,5.5357994,2735.46,-0.0,6.8,174.7,-1.0,162.550238117289,18574221.07008039,18574221.07008039,26.305348458612617,7.314103953764765,24010.787445899663,95.1,50.36351538044711
1306895386.3,5.4758022,5.5351474,2741.26,-0.0,3.8,174.7,-1.0,156.104129457312,19147660.579713225,19147660.579713225,25.281877687484457,7.46326790918886,24314.930466053193,94.6,50.42153484676381
1306895386.72,5.4760185,5.5344785,2746.01,-0.0,3.3,174.7,-1.0,160.45539725540388,18712635.74954608,18712635.74954608,24.451077767085938,7.526376440885943,24365.16762586056,92.8,50.478344776772566
1306895387.14,5.476234,5.5338118,2749.84,-0.0,6.8,174.7,-1.0,159.72281489485965,19211692.442762405,19211692.442762405,24.8015564314977,7.744624329472156,24214.605947999706,92.80000000000001,50.52819604536399
1306895387.57,5.476455,5.5331276,2754.21,-0.1,8.4,174.7,-1.0,160.1678711426281,19757270.967175532,19757270.967175532,26.570546846288575,7.9668303828307545,25057.22185552795,89.8,50.576470323579215
1306895388.01,5.4766787,5.5324345,2759.58,-0.1,8.3,174.7,-1.0,158.52282563700848,19684906.730118383,19684906.730118383,27.629932014493157,7.766457432065092,25042.492643396752,88.50000000000001,50.62401734895105
1306895388.43,5.4768945,5.5317656,2765.4,-0.1,7.0,174.7,-1.0,160.59914665144882,19591228.56296602,19591228.56296602,28.699697689975814,7.62159093902402,24924.273275315696,89.50000000000001,50.67121223084081
1306895388.85,5.4771096,5.5310981,2771.06,-0.0,4.1,174.7,-1.0,160.2054556963657,20147165.236621644,20147165.236621644,29.980114210330438,7.852110941593277,24746.5099211135,87.00000000000001,50.71291826758622
1306895389.27,5.477323,5.5304347,2775.69,-0.1,5.1,174.7,-1.0,158.88866781635843,19750023.727664176,19750023.727664176,28.93407284302456,7.781522706931242,24678.819044967022,84.9,50.75343007860984
1306895389.7,5.4775426,5.5297517,2780.06,-0.1,7.3,174.7,-1.0,159.8356119503071,19522859.818762314,19522859.818762314,29.877254667178025,7.771045181189458,24409.99074062883,88.1,50.79247972865359
1306895390.12,5.4777576,5.5290848,2784.82,-0.1,8.1,174.7,-1.0,159.86471468575718,19967515.63259214,19967515.63259214,30.635363474141503,7.904613026539697,24502.378659722912,89.0,50.83026625533775
1306895390.54,5.477976,5.528409,2790.28,-0.1,7.3,174.7,-1.0,162.4533071894291,19545498.379448287,19545498.379448287,30.496174109267567,7.81082654862103,24727.735292779547,89.60000000000001,50.867792502056915
1306895390.98,5.4782009,5.5277142,2795.96,-0.1,4.3,174.7,-1.0,159.04858983198145,19842825.80386928,19842825.80386928,30.260334208000113,7.666875361849091,25275.02216689071,90.9,50.906030691033294
1306895391.4,5.4784149,5.5270538,2800.42,-0.1,2.2,174.7,-1.0,158.13102763577353,19826092.190219633,19826092.190219633,30.03677436567079,7.583616324227996,25335.903989119288,89.39999999999999,50.94475116347424
1306895391.82,5.4786329,5.5263812,2803.49,-0.1,1.3,174.7,-1.0,161.25385382687764,19787128.269309547,19787128.269309547,29.22910073247306,7.545058239115933,24354.479505954325,92.8,50.98247644781369
1306895392.24,5.4788506,5.5257092,2805.23,-0.1,2.9,174.7,-1.0,160.9537897176771,19833395.235570993,19833395.235570993,28.73792102025222,7.561414176637682,23932.71618153417,92.8,51.017422860762075
