timestamp,longitude,latitude,altitude,roll,pitch,yaw,heading,air_speed,engine_0,engine_1,temperature_in,humidity_in,pressure_in,heart_rate,oxygen_mask
1306893678.0,2.0169883,6.5769419,-1.0,-1.0,-1.6,-1.0,-1.0,44.77293848531802,155086928.48592553,155086928.48592553,30.64263368227716,7.436629512823984,24115.919007291766,94.4,27.94831112917052
1306893680.79,2.015972,6.5761777,-1.0,-1.0,-1.7,-1.0,-1.0,44.77293848531802,116351680.37004057,116351680.37004057,29.602238524625665,7.450622456043384,24425.158007164006,95.2,27.92875951062284
1306893682.29,2.0153206,6.5756879,-1.0,-1.0,-1.8,-1.0,-1.0,52.82824123713588,77602111.76537506,77602111.76537506,30.431645728979056,7.549526058974805,24106.463081514827,92.2,27.909223202661334
1306893683.8,2.0145922,6.5751401,-1.0,-1.0,-1.9,-1.0,-1.0,58.37142723971263,38881422.095592305,38881422.095592305,32.132182091005355,7.609460135239514,24620.486387027242,92.7,27.889709860579096
1306893685.94,2.0134344,6.5742694,-1.0,-1.0,-1.7,-1.0,-1.0,65.11920283911851,1626948.714233633,1626948.714233633,32.302152926975765,7.48451497936043,24217.63739493799,94.8,27.87021948437612
1306893686.15,2.0133108,6.5741765,24.42,-1.0,0.4,-1.0,-1.0,140.1343513545488,1626948.7142336327,1626948.7142336327,32.30215292697576,7.484514979360429,24217.63739493799,94.80000000000001,27.87021948437612
1306893686.36,2.0131893,6.5740851,24.46,-1.0,2.3,-1.0,-1.0,69.52018664177447,38881422.09559228,38881422.09559228,32.132182091005355,7.609460135239514,24620.48638702725,92.70000000000002,27.889709860579092
1306893686.57,2.0130615,6.573989,24.49,-1.0,3.6,-1.0,-1.0,72.77652915536058,77602111.76537506,77602111.76537506,30.431645728979063,7.549526058974805,24106.46308151483,92.20000000000002,27.90922320266133
1306893686.78,2.0129365,6.573895,24.52,-1.0,4.8,-1.0,-1.0,71.41459459756477,116351680.37004055,116351680.37004055,29.602238524625662,7.450622456043384,24425.15800716401,95.20000000000002,27.928759510622836
1306893686.99,2.0128107,6.5738004,24.54,-1.0,5.7,-1.0,-1.0,71.785784112045,155086928.48592553,155086928.48592553,30.642633682277157,7.436629512823984,24115.919007291766,94.4,27.948311129170516
1306893687.2,2.0126773,6.5737001,24.55,-1.0,6.5,-1.0,-1.0,76.00336563027315,155022928.00370246,155022928.00370246,30.180609088066767,7.179172024847073,24154.555504589614,93.3,27.967870403011286
1306893687.42,2.012543,6.5735991,24.57,-1.0,7.2,-1.0,-1.0,73.0651378958788,116263468.80198212,116263468.80198212,29.22263508671307,7.100331099976299,24097.226771018013,90.99999999999999,27.98744498743823
1306893687.64,2.0124059,6.573496,24.58,-1.0,7.7,-1.0,-1.0,74.63702158514431,77559648.98430923,77559648.98430923,28.877056416432644,7.023611756195404,24410.920905269824,91.30000000000001,28.007027227158265
1306893687.86,2.0122673,6.5733917,24.6,-1.0,8.1,-1.0,-1.0,75.43675880832271,38923761.51029374,38923761.51029374,27.901946911327677,7.168780758038628,24120.41535749348,90.3,28.026624777464477
1306893688.08,2.0121271,6.5732863,24.61,-1.0,8.4,-1.0,-1.0,76.21852490523544,4282346.371792939,4282346.371792939,25.547936249988894,7.091832316919634,24078.11393645887,88.00000000000001,28.046229983063785
1306893688.29,2.011986,6.5731802,24.61,-1.0,8.7,-1.0,-1.0,80.15512541043802,4198197.345147272,4198197.345147272,24.371257858252353,6.983920251284907,24055.256821372048,87.60000000000001,28.046375433632463
1306893688.51,2.0118434,6.5730729,24.62,-1.0,8.9,-1.0,-1.0,77.47276415508465,4363788.03656565,4363788.03656565,23.89620648325748,6.860502518648047,24045.23892268037,87.10000000000001,28.046497918321876
1306893688.73,2.0116987,6.5729641,24.64,-1.0,9.2,-1.0,-1.0,78.5999034946375,4808014.970318282,4808014.970318282,24.0848774806201,7.154533539339945,24537.704942889082,89.00000000000001,28.046612747718203
1306893688.94,2.0115531,6.5728545,24.68,-1.0,9.4,-1.0,-1.0,82.71721100127672,4890161.84563705,4890161.84563705,22.0653991685783,7.389094030469606,24880.407006560148,85.60000000000002,28.046735232407617
1306893689.16,2.0114059,6.5727439,24.78,-1.0,9.7,-1.0,-1.0,79.77393457537424,5488549.423619219,5488549.423619219,21.98034172674284,7.512689873423967,25371.269119712346,85.6,28.046918959441733
1306893689.38,2.0112572,6.572632,24.93,-1.0,10.0,-1.0,-1.0,80.72071787311465,5537968.91410211,5537968.91410211,22.900027143043722,7.616434552481366,25080.376782754298,84.7,28.04720986057909
1306893689.59,2.0111076,6.5725196,25.16,-1.0,10.3,-1.0,-1.0,84.85756088748654,5071114.843717546,5071114.843717546,23.9535050617835,7.804839477447285,25581.183769581246,83.60000000000001,28.04766152287131
1306893689.81,2.010955,6.5724049,25.48,-1.0,10.4,-1.0,-1.0,82.69434929623944,5771945.498788511,5771945.498788511,23.977022104488427,8.03320702846452,25307.53161617616,83.7,28.04835049924926
1306893690.03,2.0108016,6.5722895,25.9,-1.0,10.6,-1.0,-1.0,83.18534195743528,5382819.328400225,5382819.328400225,24.414577111913477,7.923164492448161,25368.588369038484,84.80000000000001,28.04934568735075
1306893690.25,2.0106451,6.5721719,26.42,-1.0,10.7,-1.0,-1.0,84.7509949411791,4936527.788232224,4936527.788232224,24.673942902711854,8.070211987417546,25531.632608901702,86.9,28.050731295399746
1306893690.47,2.0104862,6.5720526,27.05,-1.0,10.8,-1.0,-1.0,85.92947524775536,5694350.596074042,5694350.596074042,26.62101609897148,7.969065224770189,26305.239150379457,86.7,28.0525991869133
1306893690.69,2.0103264,6.5719327,27.78,-1.0,10.9,-1.0,-1.0,86.50952662630853,5399412.79070973,5399412.79070973,24.717866046693302,7.893713086069317,26586.46947573265,87.6,28.055018259529227
1306893690.91,2.010162,6.5718094,28.65,-1.0,11.0,-1.0,-1.0,88.88019079901592,4992864.227336881,4992864.227336881,24.32222558503445,7.816799567557601,26013.41309778071,85.1,28.05808803205766
1306893691.33,2.0098478,6.5715738,30.6,-1.0,11.1,-1.0,-1.0,88.96363536535753,5953964.558437425,5953964.558437425,25.168841592129017,7.8991735296394,25909.679109513556,86.60000000000001,28.062619965565972
1306893692.39,2.0090288,6.5709622,37.36,-1.0,11.0,-1.0,-1.0,91.70717980136723,6157246.770358374,6157246.770358374,25.49147668559262,7.821403843976346,26194.301117408413,84.3,28.07225032427113
1306893692.83,2.0086788,6.5707019,40.87,-0.1,11.0,-1.0,-1.0,94.20887980238818,6161431.644843609,6161431.644843609,25.862633535875677,7.769733561967028,25697.947038750146,83.5,28.084452861453983
1306893693.26,2.008318,6.5704345,44.84,-0.1,10.9,-1.0,-1.0,99.18073785051908,6833560.334035544,6833560.334035544,26.11000493485976,7.713480096642719,25179.400196008202,85.7,28.09951847825188
1306893693.91,2.0077611,6.5700234,51.63,-0.2,10.9,-1.0,-1.0,101.0654920870778,7184130.139634131,7184130.139634131,26.43294586255157,7.753652214272448,25491.772934332443,87.90000000000002,28.119537069677953
1306893694.13,2.0075723,6.5698845,54.11,-0.2,10.9,223.5,-1.0,101.10592682154493,7368979.044076496,7368979.044076496,26.207455752883,7.856371173625545,25262.25266854314,87.80000000000001,28.141132651480227
1306893694.56,2.0071895,6.569604,59.39,-0.3,10.9,223.5,-1.0,104.70911161227471,7728781.811283254,7728781.811283254,26.586047790154684,7.569380231076869,25744.320262128756,87.1,28.16637215279257
1306893694.77,2.0069967,6.5694631,62.17,-0.3,10.8,223.5,-1.0,107.79925711026797,8361077.997627979,8361077.997627979,24.376147804940867,7.5861124496793515,25039.70621426174,84.60000000000001,28.193257542118904
1306893695.19,2.0066064,6.5691788,68.03,-0.4,10.8,223.5,-1.0,108.92097009597397,9058449.426615542,9058449.426615542,26.708828473701253,7.496648209040814,24238.13640530977,83.0,28.224070096799565
1306893695.62,2.0061918,6.5688784,74.57,-0.5,10.7,223.5,-1.0,112.75848125057229,9677289.095294356,9677289.095294356,26.891646445343895,7.577049136293116,24889.318145422912,83.20000000000002,28.259223202661335
1306893695.83,2.0059883,6.5687316,77.88,-0.6,10.7,223.5,-1.0,113.09913502057385,10606392.443946863,10606392.443946863,28.79482309210779,7.342263806639886,24516.777544328495,84.70000000000002,28.29541742838312
1306893696.26,2.005564,6.5684267,84.98,-0.7,10.6,223.5,-1.0,115.01025977024885,11353956.18480213,11353956.18480213,26.54667472882898,7.17878574072437,23758.720108728998,87.20000000000002,28.33187193406991
1306893696.48,2.005345,6.56827,88.74,-0.8,10.6,223.4,-1.0,115.77679176003754,11516568.552926766,11516568.552926766,25.962434483977447,7.3760771941763075,23962.19299027976,88.0,28.36851782208391
1306893696.91,2.0049003,6.567953,96.54,-0.9,10.3,223.4,-1.0,120.05923291930826,11540560.810386049,11540560.810386049,26.200371782216312,7.256320729407555,24164.039707838183,89.00000000000001,28.408095687350748
1306893697.13,2.0046715,6.5677906,100.34,-1.0,9.5,223.4,-1.0,120.27137831359786,11653090.51206645,11653090.51206645,24.88941020041981,7.006385029753175,24134.969746562638,88.80000000000001,28.44538461998417
1306893697.34,2.0044378,6.5676253,103.85,-1.1,8.8,223.4,-1.0,128.14150783979048,11360273.521570373,11360273.521570373,24.46243196026046,7.061604503330644,24638.45523316164,87.5,28.483462047805695
1306893697.55,2.00422,6.5674715,106.81,-1.2,8.4,223.4,-1.0,119.18956403517551,13217071.95434229,13217071.95434229,26.209581848122927,7.17521802066781,24336.02120948778,85.60000000000001,28.519763447630712
1306893697.76,2.0039869,6.5673072,109.67,-1.4,8.0,223.4,-1.0,127.21667695325469,13351452.317930095,13351452.317930095,26.809781050954896,7.114155553713627,24361.7052182821,85.9,28.55612608980044
1306893697.97,2.0037481,6.5671391,112.33,-1.5,7.9,223.4,-1.0,129.96397739081814,15002871.685100129,15002871.685100129,25.746334125467676,7.4041269982172615,25076.219429452394,85.7,28.590039038181896
1306893698.18,2.0035149,6.5669753,114.69,-1.6,7.8,223.4,-1.0,126.83224554711714,17266715.212779664,17266715.212779664,27.028426102083333,7.399023269180313,25180.786655046275,89.1,28.62075207405241
1306893698.39,2.0032729,6.5668053,116.94,-1.8,7.8,223.3,-1.0,131.38685346164874,16713155.723263659,16713155.723263659,25.682714437033766,7.698372615642232,25117.48980457375,87.5,28.65065364885556
1306893698.61,2.0030183,6.5666266,119.15,-1.9,7.9,223.3,-1.0,131.8267759133684,17534656.959672164,17534656.959672164,27.550508397907443,7.823490260498021,25235.986302112953,85.2,28.676811785338497
1306893698.83,2.0027591,6.5664448,121.27,-2.1,8.1,223.3,-1.0,134.10108889290066,18634431.85958213,18634431.85958213,27.682755710815176,7.59137845284951,25215.37135423892,84.30000000000001,28.701714453754946
1306893699.05,2.0024936,6.5662593,123.38,-2.2,8.4,223.3,-1.0,136.96748827782264,18030111.45478558,18030111.45478558,28.244654193514762,7.608101516439292,24815.831686338082,81.69999999999999,28.722261260404114
1306893699.26,2.0022449,6.5660863,125.32,-2.4,8.6,223.2,-1.0,134.1495475189523,18255594.603736736,18255594.603736736,28.174440007875468,7.647776743635589,24614.08789408469,82.19999999999999,28.74138418253885
1306893699.47,2.0019793,6.5659023,127.4,-2.5,8.9,223.2,-1.0,142.90681849758755,19337611.62496126,19337611.62496126,28.08158553742483,7.754850700355426,24448.825816662662,86.0,28.759412397761945
1306893699.69,2.00171,6.5657164,129.55,-2.7,9.2,223.1,-1.0,138.0983684416116,19532424.071750343,19532424.071750343,27.029547913871482,7.943682202018842,24541.25661903155,85.39999999999999,28.776820534244884
1306893699.91,2.0014248,6.5655198,131.91,-2.9,9.4,223.1,-1.0,145.961423675196,19789754.026545312,19789754.026545312,28.592393829895965,8.043315355585879,24379.978865229274,84.6,28.793845906073404
1306893700.12,2.0011595,6.5653369,134.2,-3.0,9.7,223.0,-1.0,142.51132688364865,21661362.02009803,21661362.02009803,27.04750140929436,7.7191119635502385,23540.576903888807,84.89999999999999,28.810588032057662
1306893700.33,2.0008902,6.5651512,136.64,-3.2,9.9,223.0,-1.0,144.53392767096756,21817078.74451607,21817078.74451607,25.492873843051466,7.636486371359449,22904.77729569387,83.9,28.827391400386617
1306893700.54,2.000617,6.5649625,139.23,-3.3,10.1,222.9,-1.0,146.80618138139425,22032318.21907376,22032318.21907376,26.423414458324096,7.450170576149442,22776.10686108559,84.0,28.84445504868058
1306893700.75,2.0003412,6.5647719,141.97,-3.5,10.2,222.8,-1.0,148.30857248474567,21803528.41177402,21803528.41177402,25.837058436418957,7.322483647321538,22801.582359334552,83.7,28.861924427508228
1306893700.96,2.0000602,6.5645776,144.89,-3.6,10.4,222.8,-1.0,151.21483997082714,21678130.752392445,21678130.752392445,26.02055464360336,7.290935285128313,22878.555878393672,84.2,28.88000622978294
1306893701.18,1.9997737,6.5643794,148.0,-3.8,10.4,222.7,-1.0,147.16411783605264,21982321.08021341,21982321.08021341,26.421838603675994,7.398105795485289,23388.815553103555,87.30000000000001,28.898853561366494
1306893701.39,1.9994833,6.5641783,151.28,-3.9,10.5,222.6,-1.0,156.32003250015595,20769093.59381817,20769093.59381817,27.309607971329662,7.460820174682635,23680.213619962808,85.80000000000001,28.91872670222389
1306893701.61,1.9991861,6.5639722,154.76,-4.0,10.5,222.6,-1.0,152.99815766265039,23644713.019448645,23644713.019448645,27.390235376403613,7.102276417563115,23186.87888715838,83.4,28.939671584113654
1306893701.82,1.9989003,6.5637734,158.22,-4.1,10.5,222.5,-1.0,154.3483608753501,23226633.45067361,23226633.45067361,26.885264203468743,7.067508381489281,22761.28282422289,83.70000000000002,28.96161930939799
1306893702.03,1.9986082,6.5635696,161.84,-4.2,10.5,222.4,-1.0,157.96865878616364,24085740.963850196,24085740.963850196,27.303267685485178,7.1187572459525725,23174.387167383386,87.00000000000003,28.984531601611465
1306893702.25,1.9982969,6.5633518,165.8,-4.3,10.5,222.4,-1.0,160.8750267880801,25391087.70017842,25391087.70017842,29.071167142788084,7.207183299621796,23179.717209390594,87.10000000000002,29.008722327770695
1306893702.47,1.9979959,6.5631405,169.7,-4.4,10.4,222.3,-1.0,156.00057707165925,26530764.31710333,26530764.31710333,30.79432871987617,7.344579018566838,23364.969791245072,85.20000000000002,29.03403072672082
1306893702.68,1.9976867,6.562923,173.78,-4.5,10.4,222.2,-1.0,167.88559879809645,25021323.03174007,25021323.03174007,31.322131957487585,7.168573001430556,23764.586283128476,87.20000000000002,29.060479764341125
1306893702.89,1.9973867,6.5627112,177.78,-4.5,10.3,222.2,-1.0,163.33338631753887,28487412.685885575,28487412.685885575,30.13791438462166,7.407055427940291,24179.67836310018,89.2,29.087893368890555
1306893703.1,1.9970929,6.5625033,181.75,-4.6,10.3,222.1,-1.0,160.12353231408,29908926.94111134,29908926.94111134,28.425007050202133,7.64714277115869,24117.6987118888,89.7,29.116110779214264
1306893703.31,1.9967796,6.5622809,186.01,-4.7,10.2,222.0,-1.0,170.94892970307637,27104117.055665795,27104117.055665795,26.790054849217274,7.504073967102832,23567.332753741473,86.9,29.145208548243136
1306893703.52,1.9964785,6.5620666,190.13,-4.7,10.1,222.0,-1.0,164.50464576796162,31320352.65336033,31320352.65336033,25.767794604763637,7.508108646327708,23080.88563363635,87.70000000000002,29.17494936189143
1306893703.74,1.9961544,6.5618355,194.59,-4.7,10.1,221.9,-1.0,169.22240089385866,30017735.601861518,30017735.601861518,25.012645620111563,7.609043359092635,23900.361957006786,87.8,29.205440394262382
1306893703.95,1.9958413,6.5616115,198.92,-4.7,10.0,221.9,-1.0,171.4822302733592,28054157.330641445,28054157.330641445,25.79856488555353,7.331340075312896,24076.401709039048,87.60000000000001,29.236597437132026
1306893704.16,1.995529,6.5613877,203.26,-4.7,11.6,221.8,-1.0,171.26972385335927,30460804.576854713,30460804.576854713,24.38494862381392,7.234185070266322,24501.737533880787,85.2,29.26830566110403
1306893704.37,1.9952198,6.5611657,207.76,-3.3,12.7,221.7,-1.0,169.8028188934702,31106772.026347622,31106772.026347622,24.056151347590486,7.232251032395546,24680.724335135677,85.30000000000001,29.30042727090281
1306893704.58,1.9948943,6.5609313,212.84,0.8,12.0,221.7,-1.0,179.20643760648096,28144655.77962615,28144655.77962615,22.471443331057422,7.053598015089364,24195.905972329754,88.30000000000001,29.333452205286008
1306893704.79,1.9945833,6.5607075,217.88,5.1,11.7,221.7,-1.0,171.31147446253652,32963810.15364455,32963810.15364455,19.972960228486414,7.0846261431182915,23745.60493902031,86.00000000000001,29.36721204780569
1306893705.0,1.9942561,6.5604724,223.27,9.8,11.5,221.8,-1.0,180.0031752682621,31407226.811624262,31407226.811624262,19.73712616047477,6.895912142587829,23960.867952555775,85.70000000000002,29.40203597606466
1306893718.42,1.9621198,6.5542836,648.5,81.4,16.6,308.8,-1.0,199.70852648192138,31073165.86072397,31073165.86072397,20.94427588097132,6.760096031506137,24569.790488472387,87.4,29.75934678096405
1306893718.84,1.9611669,6.5548838,663.02,81.8,17.0,315.5,-1.0,233.9859564726572,35420401.84557742,35420401.84557742,20.614800660653597,6.846285790710288,24793.589489651287,89.1,30.124511916572096
1306893719.28,1.9602658,6.5556036,678.46,82.0,17.4,322.8,-1.0,237.14907095819632,69416320.66563174,69416320.66563174,21.97623743319333,6.866719293751404,25415.562138089976,88.89999999999998,30.498342843956173
1306893747.6,1.9854642,6.6236065,1868.7,11.9,17.4,31.5,-1.0,270.66601591950797,107192469.20486805,107192469.20486805,22.740602071660984,7.122470745711613,24614.42668416351,91.0,31.77992311517227
1306893748.04,1.9865255,6.6246822,1877.72,11.0,17.4,31.6,-1.0,327.0683800859541,139259956.16991165,139259956.16991165,20.869007020051036,7.425500614688514,24648.070603460896,93.9,33.06509371884681
1306893748.46,1.9875331,6.6256982,1886.2,10.4,17.4,31.8,-1.0,324.0951700333379,172066505.49778825,172066505.49778825,20.508433092982468,7.365108261015779,24402.064560090592,95.79999999999998,34.353433613859934
1306893748.89,1.9885707,6.6267396,1894.85,9.9,17.4,31.9,-1.0,325.0153437103597,160592933.37065628,160592933.37065628,21.614687952457505,7.3844602012262825,24485.685991112452,97.70000000000002,35.644950455504734
1306893749.33,1.9896337,6.6278016,1903.64,9.5,17.4,31.9,-1.0,324.43131567176835,117285930.1298553,117285930.1298553,22.092021948149373,7.199988549943777,24950.800078125343,96.9,36.939307410885306
1306893749.76,1.9906928,6.6288549,1912.33,9.2,17.4,31.9,-1.0,329.8979185399561,99519152.4829752,99519152.4829752,22.602793523667916,7.2497920878253215,25555.029677263297,99.2,38.23645854824314
1306893750.2,1.9917503,6.6299022,1920.93,8.9,17.4,32.3,-1.0,320.8503195540177,102379036.3628022,102379036.3628022,23.364920679954167,7.483433476393262,25137.33409758767,97.70000000000003,39.53606703468233
1306893750.63,1.9928135,6.6309508,1929.51,8.8,17.4,32.4,-1.0,329.31175657048516,127241473.01357588,127241473.01357588,23.72300244035724,7.303206940616592,25107.770594513975,96.2,40.51671773459484
1306893751.06,1.9938774,6.6319957,1938.04,8.8,17.4,32.5,-1.0,328.690072412183,131929854.80320352,131929854.80320352,25.349285191287844,7.320277568883242,25712.898380029867,97.30000000000001,41.49278291394742
1306893751.49,1.9949246,6.6330201,1946.38,8.6,17.4,32.5,-1.0,322.5389369297724,134102517.24478428,134102517.24478428,23.961329428310098,7.4415060724294975,25638.734405791547,96.8,42.463412835207265
1306893751.91,1.9959575,6.6340266,1954.54,8.6,4.2,32.5,-1.0,324.9674751745962,143902614.03026095,143902614.03026095,25.030942687763968,7.106192312510045,26185.799436079014,94.7,42.52912587107778
1306893752.34,1.997023,6.6350608,1962.91,8.6,4.2,32.5,-1.0,326.6176115432589,142915799.61009002,142915799.61009002,26.451399553745606,7.166136417930529,26022.996280933814,94.6,42.59434131289755
1306893752.77,1.998094,6.6360962,1971.27,8.7,4.2,33.0,-1.0,327.49263552183464,142393287.8508101,142393287.8508101,25.56392629493566,7.416166265888982,25886.231737902475,95.2,42.65946489120026
1306893753.2,1.999163,6.6371256,1979.56,8.7,4.2,33.1,-1.0,326.0112834610026,143536136.6365377,143536136.6365377,23.09139797292665,7.632390185023402,26477.044691553197,94.60000000000001,42.7243128789518
1306893753.63,2.0002401,6.6381585,1987.86,8.8,4.2,33.2,-1.0,327.6710945429207,143114064.78444433,143114064.78444433,25.27945041494869,7.721919736616853,26774.477101862405,91.5,42.788785757342
1306893754.06,2.0013177,6.6391879,1996.12,8.8,4.2,33.3,-1.0,326.9953222089808,139813632.03351986,139813632.03351986,24.468082857336928,7.896866392756698,26282.338816586587,88.8,42.852929458129395
1306893754.48,2.0023933,6.6402112,2004.31,8.8,4.2,33.3,-1.0,333.46642389781374,140723974.52018276,140723974.52018276,25.93188494643477,7.748125787263878,26220.547680284115,90.4,42.91675929190017
1306893754.91,2.0034695,6.6412308,2012.45,9.0,4.2,33.3,-1.0,354.1530116106263,138032666.29750022,138032666.29750022,25.375392745893524,7.785975227829297,26355.057168931246,91.9,42.98025229277507
1306893755.34,2.0045487,6.6422492,2020.56,9.0,4.2,33.7,-1.0,354.2095474038136,141302246.01841268,141302246.01841268,23.39829140181037,7.563127334859021,26223.107325590812,91.80000000000001,43.04342377134025
1306893755.76,2.0056284,6.6432639,2028.64,9.0,4.2,33.8,-1.0,361.3382126990418,149013113.9840713,149013113.9840713,24.39803984725995,7.284313167309125,26282.24274461803,89.89999999999999,43.106396212285134
1306893756.19,2.0066985,6.6442655,2036.59,9.0,4.2,33.9,-1.0,349.6859684751603,156640197.8370878,156640197.8370878,23.002851974348715,7.3478232472005125,26320.9834482855,90.2,43.169207892075164
1306893756.61,2.0077665,6.645261,2044.47,9.3,4.2,33.9,-1.0,355.8885197299815,171731563.33759043,171731563.33759043,21.650032620178784,7.048345775495016,26119.95631165301,87.60000000000001,43.23164446250386
1306893757.03,2.0088632,6.6462789,2052.52,9.4,4.2,33.9,-1.0,363.885789393726,183057982.13056296,183057982.13056296,22.973779082996863,6.998110179392496,26212.09856956777,85.7,43.29384371884681
1306893757.45,2.0099219,6.6472575,2060.25,9.4,4.2,34.3,-1.0,351.2451848814632,186787612.77885884,186787612.77885884,24.374959603198523,6.752775716841722,25673.862274429383,86.5,43.35561427877681
1306893757.87,2.0110145,6.6482632,2068.18,9.4,4.2,34.4,-1.0,360.7998422075359,193741649.9332783,193741649.9332783,21.53208421760906,6.8613503132098534,25228.957990671603,86.8,43.41710159286255
1306893758.29,2.012087,6.6492462,2075.91,9.6,4.2,34.5,-1.0,353.70064016796766,193484419.3258518,193484419.3258518,21.870948458585495,6.915598428396844,25566.116546475412,88.5,43.47818317641462
1306893758.71,2.0131756,6.6502397,2083.71,9.7,4.2,34.5,-1.0,357.73500913053994,189667997.06762704,189667997.06762704,20.63505461465886,6.673595878468724,25655.197179316223,86.60000000000001,43.538966203536226
1306893759.13,2.0142672,6.6512318,2091.49,9.7,4.2,34.8,-1.0,357.73450292458864,192110541.50200483,192110541.50200483,20.405324167592276,6.991107394673749,24886.2882485822,86.7,43.59947364010665
1306893759.55,2.0153542,6.6522155,2099.19,9.7,4.0,34.9,-1.0,355.444952803296,192673141.44609407,192673141.44609407,21.07661874718992,7.301997411156499,24417.151021566497,87.00000000000001,43.659667209660455
1306893759.98,2.0164809,6.6532305,2107.11,9.9,4.0,34.9,-1.0,358.6085826407648,190760970.73200113,190760970.73200113,21.190635367838308,7.6299122998740545,24249.905421537813,89.4,43.719738294524845
1306893760.4,2.017569,6.6542065,2114.72,10.0,4.0,34.9,-1.0,353.9320793535728,192310497.9559968,192310497.9559968,22.302370558308354,7.650755399649492,23808.771256507545,91.40000000000002,43.77954909942424
1306893760.83,2.018705,6.6552209,2122.62,10.0,4.0,35.3,-1.0,359.49810384016945,192025484.5857384,192025484.5857384,23.156578479039638,7.942396302568019,23832.302576121325,93.20000000000002,43.8393752149098
1306893761.25,2.0198232,6.656215,2130.34,10.0,4.0,35.4,-1.0,361.17153776878564,188878988.82206693,188878988.82206693,23.921258544078547,7.9204678725645765,24167.279769414534,93.30000000000001,43.898948705723456
1306893761.68,2.0209501,6.6572122,2138.08,10.2,4.0,35.4,-1.0,354.8897381915616,188797156.8782049,188797156.8782049,25.17581610169534,8.182780570672897,23899.201254106818,92.70000000000002,43.95852985183019
1306893762.1,2.0220485,6.6581799,2145.57,10.3,4.0,35.7,-1.0,353.31555736945916,187800975.1616851,187800975.1616851,26.198643765975277,8.250012504267241,24034.50724706692,93.4,44.01777416504104
1306893762.52,2.0231687,6.6591624,2153.16,10.3,4.0,35.8,-1.0,358.8852365344022,188978349.77653116,188978349.77653116,26.43313511519402,8.145823470287475,23927.551547735664,93.50000000000001,44.07691130414865
1306893762.95,2.0243135,6.6601618,2160.87,10.3,4.0,35.8,-1.0,357.374110676254,187193030.07059735,187193030.07059735,27.628090144577698,8.530041935780279,23847.90582657339,96.1,44.13597954561847
1306893763.37,2.0254538,6.6611527,2168.5,10.5,3.9,36.1,-1.0,362.96817893864784,188106492.68859977,188106492.68859977,27.827889892796346,8.370652505511387,24057.8078832438,94.2,44.194932957691954
1306893764.21,2.0276827,6.6630763,2183.27,10.5,3.9,36.4,-1.0,353.8675212497434,186397781.51143727,186397781.51143727,28.28367450760257,8.378337589208623,24043.678363822804,91.5,44.25929866197892
1306893764.64,2.028852,6.6640783,2190.94,10.7,3.9,36.5,-1.0,360.62656041641753,182664593.29126832,182664593.29126832,27.691690640507943,8.086593538413897,23839.931564117025,89.4,44.32347298393867
1306893765.07,2.0300032,6.6650602,2198.44,10.8,3.9,36.5,-1.0,354.4931746764556,179887181.87740228,179887181.87740228,28.699743759944216,8.077601204486653,24211.876633182066,86.60000000000001,44.38756309767446
1306893765.49,2.0311551,6.6660381,2205.9,10.8,3.9,36.8,-1.0,361.55048200171615,178546722.31379652,178546722.31379652,29.097855015612588,7.831772117752322,24872.534644284875,87.5,44.45131637851435
1306893766.33,2.0334313,6.6679566,2220.48,10.8,3.9,37.1,-1.0,356.0675877560983,175686782.85245222,175686782.85245222,29.607349707089046,7.999653410448726,24661.086960024782,88.0,44.520321190412865
1306893766.76,2.0346019,6.6689361,2227.91,10.8,3.9,37.2,-1.0,356.1646171798093,175950125.73835707,175950125.73835707,28.898147741474215,7.6703850358491685,24598.321649032925,87.4,44.589088688225644
1306893767.18,2.0357705,6.6699093,2235.27,10.8,3.8,37.4,-1.0,362.5289652240343,177161441.50373197,177161441.50373197,28.441293444250555,7.468256660183495,24480.865997290173,86.5,44.65775666722827
1306893767.6,2.0369289,6.6708692,2242.52,11.3,3.8,37.5,-1.0,358.5740576232878,174714456.97453687,174714456.97453687,28.670902884791055,7.576224530861863,24155.98046189777,85.8,44.726164366265884
1306893768.02,2.0380716,6.6718114,2249.62,11.4,3.8,37.5,-1.0,353.04287382861065,174625233.86749732,174625233.86749732,26.755813896915974,7.426375609116385,24552.53113918165,85.3,44.79410509242512
1306893768.44,2.039237,6.6727677,2256.81,11.5,3.8,37.8,-1.0,358.63636465059056,175962380.88900205,175962380.88900205,26.395006431596727,7.4274484594227,24692.89751053833,87.8,44.86170898568845
1306893768.86,2.040406,6.6737222,2263.97,11.6,3.8,37.8,-1.0,358.72569776768864,175995465.99027961,175995465.99027961,25.4980421552525,7.145994290427357,24965.713702151523,88.3,44.92348720091156
1306893769.28,2.0415897,6.6746838,2271.17,11.7,3.8,38.1,-1.0,361.8880058546528,176022065.54501882,176022065.54501882,26.329533839644032,7.4292877801225705,25077.4861309763,89.20000000000002,44.984905617359495
1306893769.7,2.0427435,6.6756165,2278.13,11.8,3.8,38.1,-1.0,352.3823072297127,177632746.97397184,177632746.97397184,26.163604467680585,7.600042398503392,24585.60164250151,89.90000000000002,45.04591064798067
1306893770.12,2.0439261,6.6765675,2285.22,11.9,3.8,38.4,-1.0,359.6185072988155,176852664.16019127,176852664.16019127,24.76811242667732,7.55360705253118,24402.29779887367,88.4,45.106632432757564
1306893770.54,2.0451095,6.6775144,2292.26,12.0,3.7,38.6,-1.0,358.8479241263769,174805112.12833938,174805112.12833938,23.141730528509164,7.511746980728681,23900.161875719274,86.8,45.161582126545845
1306893770.97,2.0463192,6.6784772,2299.4,12.1,3.7,38.7,-1.0,357.2761277538163,174909805.36600444,174909805.36600444,23.040530914745815,7.545772130254739,24867.543085079862,87.30000000000001,45.21630981683456
1306893771.39,2.0475185,6.6794268,2306.42,12.1,3.7,38.9,-1.0,361.30769932808295,174353749.39358878,174353749.39358878,22.7738873576616,7.518670503324668,25467.18101641816,88.30000000000001,45.27077722715827
1306893772.24,2.0499369,6.6813265,2320.38,12.1,3.7,39.2,-1.0,358.5631338588323,171993520.97449163,171993520.97449163,23.689755259874246,7.558710451646403,26106.508059921092,86.2,45.33038133914427
1306893772.66,2.0511418,6.6822655,2327.23,12.4,3.7,39.4,-1.0,359.8423503974059,171221616.19551885,171221616.19551885,25.77773416190098,7.470949429802593,25844.429322874104,87.3,45.389794068803056
1306893773.08,2.0523361,6.6831914,2333.96,12.5,3.7,39.5,-1.0,355.8425225779486,170327267.1284056,170327267.1284056,26.365899234738496,7.460015616142249,26233.289372646872,86.2,45.44885465497979
1306893773.5,2.0535284,6.6841108,2340.61,12.6,3.7,39.7,-1.0,354.27897743329146,169840671.46616498,169840671.46616498,26.47401238141651,7.7106705929319626,26258.113869513505,88.3,45.50752482120902
1306893774.35,2.0559904,6.6859941,2354.1,12.6,3.7,40.0,-1.0,359.56457139097586,169458429.8949001,169458429.8949001,25.50422596983341,7.441797483345119,25954.07191206202,89.30000000000001,45.57101016679081
1306893774.79,2.0572636,6.6869601,2360.96,12.6,3.7,40.2,-1.0,357.654388747439,171870637.98330146,171870637.98330146,23.310588191831393,7.544657384588205,26100.897492452954,89.2,45.63441895944173
1306893775.21,2.0584855,6.687882,2367.45,12.6,3.7,40.3,-1.0,358.40509978306966,172240064.2178282,172240064.2178282,25.883333300828703,7.773618761863655,25895.80019786302,87.60000000000001,45.697368434507354
1306893775.64,2.0597317,6.6888171,2373.99,12.6,3.7,40.5,-1.0,356.12160595322035,171738854.92096415,171738854.92096415,25.235557142203994,7.627821052450248,26284.35951433326,87.1,45.75993514491855
1306893776.07,2.0609995,6.6897631,2380.54,12.6,3.4,40.7,-1.0,360.9290220025596,170849823.36370936,170849823.36370936,25.39617762122442,7.5563671245777115,26209.390990846925,88.80000000000001,45.82205019303753
1306893776.5,2.0622537,6.6906938,2386.92,13.3,3.4,40.7,-1.0,356.222291005159,167885836.5425549,167885836.5425549,26.429128079532635,7.8711966203263195,26020.88657052467,88.79999999999998,45.88367530239886
1306893776.92,2.0635119,6.6916221,2393.23,13.5,3.4,41.0,-1.0,364.2421423206328,167096065.35915118,167096065.35915118,26.321351084113495,7.532043712679614,26036.456006542543,88.9,45.9394441125476
1306893777.34,2.0647386,6.6925222,2399.27,13.6,3.4,41.2,-1.0,354.64895416673517,163244899.23417637,163244899.23417637,24.78986398331516,7.631819831041376,26254.39248383214,85.6,45.99459284395617
1306893777.77,2.0660285,6.6934633,2405.52,13.8,3.4,41.4,-1.0,362.63090005749615,163343147.5722065,163343147.5722065,24.538207201218114,7.665903164653795,26094.797220192417,86.0,46.04937412129651
1306893778.2,2.06729,6.6943782,2411.53,14.0,3.4,41.5,-1.0,354.0503428510798,162142414.91953382,162142414.91953382,23.73818391211399,7.716140798192466,26284.385420838866,82.79999999999998,46.10366545987919
1306893778.63,2.0685825,6.6953101,2417.57,14.3,3.4,41.7,-1.0,361.18600822609477,162720949.5072321,162720949.5072321,21.98341497746528,7.992783272309499,26751.582481858444,80.60000000000001,46.15225360511103
1306893779.05,2.0698434,6.6962137,2423.36,14.5,3.4,41.9,-1.0,359.65568254146797,162696222.9839305,162696222.9839305,24.571741062243515,7.724230450727254,26817.092854741535,79.3,46.20002263398242
1306893779.47,2.0710875,6.6971,2428.96,14.7,3.1,42.1,-1.0,354.08867841202533,162409141.97773018,162409141.97773018,23.72856215147928,7.466757722450393,27096.46747563445,81.0,46.247110341768945
1306893779.9,2.0724081,6.6980349,2434.8,15.0,3.1,42.3,-1.0,365.26122088515075,163796362.6618273,163796362.6618273,25.401737045919763,7.409435044752917,27304.166058291175,83.70000000000002,46.29366217903928
1306893780.32,2.0736597,6.6989154,2440.23,15.3,3.1,42.5,-1.0,353.9177366592904,160177379.06408578,160177379.06408578,23.80668921491349,7.647601298703064,27168.96333522841,82.70000000000002,46.33935662348373
1306893780.53,2.0743009,6.6993642,2442.98,15.5,3.1,42.6,-1.0,361.23604059172357,161258245.29367352,161258245.29367352,23.331778446679795,7.620825399850833,26487.312528960712,84.70000000000002,46.382272196537095
1306893780.96,2.0755908,6.7002621,2448.43,15.8,3.1,42.8,-1.0,354.29031011762504,156704486.32688236,156704486.32688236,22.766446215812213,7.9161992282873195,25959.26185992293,85.8,46.42452941438487
1306893781.38,2.0768609,6.7011396,2453.71,16.1,3.1,43.0,-1.0,355.78148488362456,155017042.07540053,155017042.07540053,23.635611332698105,7.970086028203504,25462.64223033321,88.60000000000001,46.466204829957924
1306893781.8,2.0781265,6.7020069,2458.89,16.4,3.1,43.2,-1.0,353.1855879118834,151975201.16347462,151975201.16347462,23.30849415132915,7.773291943288548,25581.101443160198,88.5,46.50706112917052
1306893782.22,2.0793795,6.7028582,2463.95,16.7,3.1,43.4,-1.0,348.4525410047184,151933867.9259571,151933867.9259571,25.66298746459771,7.6936228848865165,25779.06633600179,88.2,46.547190175539725
1306893782.65,2.0806403,6.7037071,2469.01,16.9,3.2,43.7,-1.0,341.41812587991706,151862592.4571702,151862592.4571702,27.963928883901886,7.434109332553276,26010.947232259467,90.7,46.58656900318627
1306893783.07,2.0818535,6.7045163,2473.86,17.1,3.2,43.9,-1.0,335.1893086870001,156475454.32478538,156475454.32478538,26.040038872902223,7.374006843761682,26175.774238504273,90.60000000000001,46.6252282332825
1306893783.5,2.0831009,6.7053404,2478.87,17.1,3.2,44.2,-1.0,335.12954577598765,161994959.69613403,161994959.69613403,24.722828878626995,7.692905494955618,26125.187658968833,91.4,46.66343580108652
1306893783.92,2.0843247,6.7061407,2483.84,17.0,3.2,44.4,-1.0,334.93307802821084,162842301.47405344,162842301.47405344,24.677637537735354,7.771279362278777,25924.95608969812,91.0,46.70097735839186
1306893784.34,2.0855196,6.7069142,2488.8,16.7,3.6,44.7,-1.0,326.03825534168095,164441763.74837148,164441763.74837148,26.027516519492373,7.880347544150586,25463.47530800796,89.30000000000001,46.73815911692205
1306893784.76,2.0867285,6.7076887,2493.95,16.4,3.7,45.0,-1.0,328.1304829558733,159822870.41536212,159822870.41536212,25.124846318024886,7.832354448170395,26170.17585503523,86.70000000000002,46.77717814579344
1306893785.18,2.0878895,6.7084246,2499.08,15.8,3.9,45.3,-1.0,314.51600826085945,152974137.67474192,152974137.67474192,25.698872295584195,7.731102474640339,26702.80907852596,85.60000000000001,46.815952205286
1306893785.61,2.0891037,6.7091864,2504.67,15.1,4.1,45.5,-1.0,319.40567395795995,147833122.83957753,147833122.83957753,26.02875475312655,7.451996478372461,26794.80701293602,85.9,46.85496357886431
1306893786.03,2.0902785,6.7099156,2510.34,14.2,4.3,45.8,-1.0,315.2231454834151,142304586.59288573,142304586.59288573,26.16615488656696,7.455824381950779,26060.197918957947,83.30000000000001,46.894350061803934
1306893786.45,2.0914309,6.7106239,2516.2,13.2,4.5,46.1,-1.0,308.3150622818904,137037415.50352928,137037415.50352928,25.67891145797567,7.499374574855706,26026.164282415964,86.0,46.93434896819063
1306893786.87,2.0925831,6.7113252,2522.39,12.2,4.8,46.3,-1.0,307.1034925803134,133823191.57164784,133823191.57164784,24.707064134299966,7.704974144867301,25220.078997668144,83.9,46.97521292269633
1306893787.3,2.0937292,6.7120165,2528.9,11.0,5.1,46.5,-1.0,297.8138031713133,129594090.45980616,129594090.45980616,24.99087797244457,7.939535654427395,24640.548654494218,84.6,47.01734765585468
1306893787.72,2.0948689,6.712698,2535.75,9.7,5.4,46.8,-1.0,301.83050978537125,125396417.51193696,125396417.51193696,26.92606856807779,7.976324497205341,24072.75181252764,85.80000000000001,47.0608909629413
1306893788.15,2.096018,6.7133796,2543.08,8.5,5.7,46.9,-1.0,296.6040152728618,120523842.36698209,120523842.36698209,27.305658436345702,7.961561605366519,24087.030631323752,84.3,47.106240919196765
1306893788.57,2.0971412,6.714041,2550.66,7.2,6.0,47.1,-1.0,296.03211162192747,116646046.05578426,116646046.05578426,26.5715604077039,7.748890323496099,23906.02067088434,87.19999999999999,47.15359656224138
1306893788.99,2.0982336,6.7146801,2558.46,5.9,6.3,47.1,-1.0,287.77138898137594,110377725.08171333,110377725.08171333,28.95597013826899,7.584238648051453,23704.951632204808,90.4,47.202980857954415
1306893789.41,2.0993186,6.7153115,2566.64,4.7,6.6,47.4,-1.0,285.4330823798303,107529485.82663503,107529485.82663503,29.18781447617158,7.524767079118893,23766.82218936913,93.20000000000002,47.2547000180594
1306893789.83,2.1004165,6.7159472,2575.36,3.5,6.9,47.4,-1.0,288.11258201372345,102758875.551222,102758875.551222,28.207549126572367,7.721358931841332,24359.575929969076,94.00000000000001,47.30881528490105
1306893790.26,2.101506,6.7165756,2584.48,2.2,7.2,47.4,-1.0,279.49099696696,98535200.09781575,98535200.09781575,27.07219284796055,7.698088298485259,25138.90760363619,95.40000000000002,47.36557162785819
1306893790.69,2.1025968,6.7172026,2594.06,1.1,7.5,47.6,-1.0,279.55046955762464,96891005.14714006,96891005.14714006,26.019492962896834,7.716558695967096,24503.011126176418,95.40000000000002,47.42517573984419
1306893791.12,2.1036684,6.7178172,2603.94,0.0,7.8,47.6,-1.0,274.85418443568534,93340910.96015222,93340910.96015222,26.74498350521797,7.690035627222228,24802.048222903555,95.0,47.487604654979805
1306893791.54,2.1047069,6.7184119,2613.94,-1.0,8.1,47.6,-1.0,272.7206675419212,90717677.26230264,90717677.26230264,26.420117408791533,7.682546314573902,25147.39910078985,96.4,47.55270526740325
1306893791.96,2.1057295,6.7189972,2624.21,-1.9,8.5,47.6,-1.0,268.9572891529381,87699935.15180561,87699935.15180561,24.850392655072103,7.483593307307622,25726.75979758165,94.2,47.62042399006292
1306893792.38,2.1067662,6.719591,2635.06,-2.7,8.7,47.6,-1.0,272.5366520212304,85582651.76502258,85582651.76502258,24.378472606654768,7.330288289748925,25732.511463465547,94.39999999999999,47.690837375889686
1306893792.8,2.107788,6.7201771,2646.17,-3.5,8.9,47.6,-1.0,269.1676339314419,80853479.39820775,80853479.39820775,23.331008238787327,7.321176551428151,26265.982639687332,94.0,47.76395308017665
1306893793.22,2.1088095,6.7207647,2657.69,-4.2,9.1,47.3,-1.0,269.4392950184958,78214082.39413577,78214082.39413577,22.9188815938937,7.359212583658098,26083.879274892497,91.50000000000001,47.839916553492486
1306893793.65,2.1098526,6.7213668,2669.88,-4.8,9.3,47.2,-1.0,269.29158776849374,74659927.70129682,74659927.70129682,23.058745471470868,7.38488076445421,26104.06131185882,90.30000000000001,47.91894979933676
1306893794.07,2.1108875,6.7219666,2682.36,-5.4,9.4,47.1,-1.0,273.7618342951237,69451425.40209426,69451425.40209426,24.514584606958984,7.2732446378145195,25994.823631643852,89.5,48.00086143538225
1306893794.49,2.1119168,6.7225658,2695.15,-5.9,9.6,47.0,-1.0,272.920288314932,65716769.24360167,65716769.24360167,26.761406656899037,7.631188938553876,25497.481831876103,90.79999999999998,48.08558256399117
1306893794.91,2.1129502,6.7231702,2708.35,-6.3,9.6,47.0,-1.0,274.5634094870764,62631029.37027527,62631029.37027527,28.57822408694061,7.54624293249936,25913.60975589997,88.4,48.173074908698084
1306893795.33,2.1139797,6.7237749,2721.83,-6.7,9.9,46.7,-1.0,274.1541045694242,59898877.455156945,59898877.455156945,28.139663896122478,7.3195346625584445,25855.60450824658,89.4,48.263323158916805
1306893795.77,2.1150467,6.7244042,2736.12,-8.3,9.9,46.6,-1.0,271.9436407386643,58143405.03865229,58143405.03865229,28.48234482317417,7.230466614404279,26327.729776078555,88.00000000000001,48.35685552987044
1306893796.19,2.1160721,6.7250123,2750.15,-17.8,10.2,46.3,-1.0,274.32963503579776,58970447.889083244,58970447.889083244,28.206992431369166,7.195624496203544,26227.93860033631,90.30000000000001,48.453266291025294
1306893796.63,2.1171333,6.7256487,2764.95,-25.3,10.5,45.9,-1.0,272.5495782519954,59193765.35663794,59193765.35663794,26.828174149406127,7.4717831604789415,26000.190879025777,89.80000000000001,48.55270089295006
1306893797.07,2.1181722,6.726282,2779.75,-24.1,10.7,45.3,-1.0,269.161883869205,60737557.490236335,60737557.490236335,27.109755379723893,7.521795530842901,25843.213563834626,87.80000000000001,48.65496029802443
1306893797.5,2.1191745,6.7269029,2794.35,-22.7,10.9,44.8,-1.0,267.82507563947837,63015913.14848581,63015913.14848581,25.173291397636163,7.407935308183039,25558.532727430327,89.30000000000001,48.75957753337
1306893797.92,2.120121,6.7274979,2808.44,-22.6,10.9,44.3,-1.0,261.3338213765892,64710927.364819445,64710927.364819445,23.841815558537213,7.5284462186429035,24665.814147776873,90.20000000000002,48.865649274402365
1306893798.34,2.1210761,6.7281068,2822.93,-20.5,10.9,43.8,-1.0,265.1939201440097,66581471.673828475,66581471.673828475,21.71760154760496,7.607117027977324,24576.936709223577,90.0,48.9732597293455
1306893798.77,2.1220109,6.7287104,2837.37,-17.6,10.9,43.4,-1.0,255.8844643827055,67611014.06524046,67611014.06524046,21.670587986898358,7.258706127488803,24871.381004685198,87.7,49.08213330764821
1306893799.2,2.1229459,6.7293206,2852.03,-15.6,10.9,43.0,-1.0,257.24771590685947,68840425.34855549,68840425.34855549,21.32518152360411,7.166013494962865,24670.40595000955,88.2,49.192124558741824
1306893799.63,2.1238729,6.7299311,2866.74,-13.9,10.9,42.7,-1.0,256.26134883921316,68553042.92958793,68553042.92958793,21.57470940898671,7.280212310201493,24771.6871326926,88.8,49.303057410885295
1306893800.05,2.1247484,6.7305122,2880.77,-12.2,11.5,42.4,-1.0,249.3862780983867,67112852.3386033,67112852.3386033,22.32120349555404,7.255055757169009,24373.5541851521,90.1,49.41379122540849
1306893800.47,2.1256243,6.7310972,2894.92,-11.4,11.5,42.2,-1.0,250.24010448421467,66045862.367516585,66045862.367516585,22.128670039834564,7.191023192006916,23959.343601597942,89.20000000000002,49.52461690344873
1306893800.9,2.1265003,6.7316857,2909.15,-10.8,11.5,42.0,-1.0,245.61930396109366,64099377.412998535,64099377.412998535,22.240124022280053,7.069672276019617,24335.81466181242,92.00000000000003,49.635006229782945
1306893801.32,2.1273482,6.7322585,2923.0,-10.3,11.7,41.7,-1.0,244.23073389219948,62262048.11528023,62262048.11528023,22.850066281488687,6.9637761643431535,24317.626460256524,91.40000000000002,49.74466830327377
1306893801.74,2.1281969,6.7328347,2936.92,-8.8,11.7,41.5,-1.0,244.97684056512773,61180128.16530165,61180128.16530165,25.466513367579527,7.0925419881042435,24294.59212648977,91.9,49.85380981683456
1306893802.17,2.1290424,6.733411,2950.82,-5.2,11.8,41.4,-1.0,239.426292419424,59692020.46908164,59692020.46908164,24.683744959410397,6.832809012097773,24618.640837579715,89.4,49.96280587982669
1306893802.59,2.1298451,6.7339591,2964.02,-1.4,11.9,41.4,-1.0,233.5096627482966,57214001.94539853,57214001.94539853,26.635092617406745,6.8292177694473635,24477.48643910588,87.5,50.070814410010414
1306893803.01,2.1306647,6.7345183,2977.46,1.7,11.9,41.4,-1.0,237.86232741002786,57261230.58902565,57261230.58902565,26.25975122561266,6.9354585411609335,23909.413167493,89.0,50.1780574108853
1306893803.44,2.1314731,6.7350681,2990.64,4.9,11.8,41.4,-1.0,229.56753392137654,54771923.50630911,54771923.50630911,26.526200878317866,6.7751884611758255,23590.926959577275,90.39999999999999,50.28416742838313
1306893803.87,2.1322884,6.73562,3003.81,7.7,11.8,41.5,-1.0,230.83926269414548,54115315.6194451,54115315.6194451,25.01037049722646,6.6586246915642375,23216.280461633793,89.9,50.38909853074533
1306893804.3,2.1331019,6.7361667,3016.77,10.2,11.8,41.7,-1.0,229.6104441612483,53674484.60920569,53674484.60920569,23.075769997632953,6.809692966118841,23635.84660950236,87.9,50.49321051674708
1306893804.73,2.1339013,6.7366994,3029.31,12.3,11.8,41.9,-1.0,225.04149461275037,50943610.28896489,50943610.28896489,23.950552780032105,6.769477888218468,24154.918984930962,88.2,50.5960900005616
1306893805.17,2.1347226,6.7372412,3041.94,14.3,11.6,42.2,-1.0,224.76709224585818,49897709.58474918,49897709.58474918,23.181825776806424,6.753674792732708,24180.56734290104,84.9,50.69774463748198
1306893805.59,2.1354922,6.7377432,3053.51,16.0,11.5,42.5,-1.0,219.91022750738645,48479749.67784975,48479749.67784975,25.088732605662926,7.028534972448368,24323.301611673494,88.00000000000001,50.79765386757822
1306893806.02,2.1362848,6.7382539,3065.14,17.6,11.4,42.9,-1.0,219.86091167625852,46506785.343029894,46506785.343029894,24.018408103183475,6.913582364960632,24901.49618643774,86.80000000000001,50.89581003555722
1306893806.45,2.1370786,6.7387585,3076.46,19.1,11.4,43.3,-1.0,218.72879442646092,45731437.24916713,45731437.24916713,25.314010100135683,7.239860322267331,24877.489759624845,87.20000000000002,50.99199113791943
1306893806.87,2.1378409,6.7392362,3087.0,20.5,11.1,43.7,-1.0,214.06620350279525,45191449.57657758,45191449.57657758,25.80059093577779,7.111595187354296,24745.97712902192,87.20000000000002,51.08613593232013
1306893807.3,2.1386456,6.7397328,3097.74,21.8,11.1,44.2,-1.0,218.5244766849192,43646598.380873114,43646598.380873114,24.572840042098072,6.99010424310714,25306.94697423025,87.30000000000001,51.17821379758697
1306893807.73,2.1394287,6.7402082,3107.8,23.0,10.8,44.6,-1.0,211.76200461392972,41974286.85899662,41974286.85899662,24.298581455732542,7.192663743216504,25203.147487763315,87.10000000000001,51.26790321141024
1306893808.18,2.1402419,6.7406933,3117.79,24.3,10.5,45.2,-1.0,208.6335095352341,40372554.57315603,40372554.57315603,24.94020002403461,7.261646469312747,25274.45700546356,89.2,51.355158242031415
1306893808.62,2.1410434,6.7411627,3127.18,25.5,10.3,45.7,-1.0,208.5112326904237,39351857.85599553,39351857.85599553,26.710552817873985,6.989084659911487,24645.415402192437,90.5,51.439680333020036
1306893809.04,2.1418038,6.7415998,3135.63,26.6,10.0,46.2,-1.0,205.69323124764466,38167232.30387467,38167232.30387467,26.843106503793805,7.3117509430103835,24055.577572212256,87.50000000000001,51.52107140913552
1306893809.46,2.1425786,6.7420373,3143.79,27.5,9.7,46.8,-1.0,207.75939180695846,37481927.56584451,37481927.56584451,27.16826463770392,7.447972627808313,23477.924600801784,88.60000000000001,51.59904056924051
1306893809.9,2.1433966,6.7424906,3151.91,28.2,9.4,47.4,-1.0,207.58985572337954,36951174.61858185,36951174.61858185,25.097001237897683,7.171569899899026,23335.149456690713,87.60000000000001,51.67436865323001
1306893810.32,2.1441787,6.7429161,3159.2,28.0,8.9,48.0,-1.0,206.43284924137637,34743735.85888047,34743735.85888047,26.36812360683777,7.133142614646065,23575.620570494546,88.20000000000002,51.746374340019166
1306893810.74,2.1449651,6.7433366,3166.05,29.4,8.5,48.6,-1.0,206.0138316006408,32552801.896760482,32552801.896760482,26.557397460942894,7.074074569693448,23905.15818352298,88.10000000000002,51.81495811079782
1306893811.16,2.1457666,6.7437579,3172.54,30.5,8.1,49.1,-1.0,208.27762985779785,30918852.77902217,30918852.77902217,25.62157906507088,7.139019549994227,23502.423585774766,88.60000000000001,51.88044148787568
1306893811.6,2.1466279,6.7442025,3178.95,30.8,7.6,49.8,-1.0,211.6557171702309,28090856.0976609,28090856.0976609,25.771428273587652,7.476434269835227,23231.275929904466,89.30000000000001,51.94261012304628
1306893812.04,2.1474945,6.7446418,3184.84,31.2,7.1,50.4,-1.0,211.40948971798187,26458929.379938953,26458929.379938953,26.04427488143454,7.3182106561078255,24031.55140517143,89.6,52.00158650099904
1306893812.46,2.1483485,6.745067,3190.08,31.5,6.6,51.0,-1.0,216.25098394667376,25290023.511889767,25290023.511889767,26.24895585000558,7.393101200375553,24227.937642897505,89.89999999999999,52.05692661473483
1306893812.89,2.1492303,6.7454984,3194.93,31.4,6.1,51.5,-1.0,216.55769465467762,23164631.296937715,23164631.296937715,24.644176181095414,7.335119942204615,24883.975367966585,90.30000000000001,52.108791225408496
1306893813.32,2.1501387,6.7459351,3199.35,30.9,5.6,52.1,-1.0,221.24500202088393,22012481.070278816,22012481.070278816,24.635925640175675,7.06095014676393,25257.02226916771,90.50000000000001,52.157570752967544
1306893813.74,2.1510358,6.7463593,3203.14,30.1,5.1,52.6,-1.0,222.2072358998824,20801312.46015819,20801312.46015819,27.10024366271947,6.9840406758228255,25164.569083999104,90.80000000000001,52.20300491744699
1306893814.16,2.1519442,6.7467822,3206.42,28.9,4.6,53.1,-1.0,223.6656868028046,20133766.498116273,20133766.498116273,27.931686919414545,7.021395338876147,25209.2881201348,91.30000000000003,52.24473392007165
1306893814.58,2.1528657,6.7472051,3209.18,27.2,4.1,53.6,-1.0,225.54461678285887,20349056.095394984,20349056.095394984,25.941246448307478,7.078092841014524,24877.830163645376,90.7,52.2829950749273
1306893815.0,2.153816,6.7476353,3211.46,25.1,3.6,54.0,-1.0,231.0005263079745,21281901.25464365,21281901.25464365,27.20862454213105,7.1428976326476015,24712.74263883014,92.60000000000001,52.31775776084155
1306893815.42,2.154761,6.748058,3213.16,22.9,3.1,54.4,-1.0,228.98899080393463,21703775.264653064,21703775.264653064,27.607561166049425,7.066196515478949,24798.541540583163,94.4,52.3488535613665
1306893815.84,2.1557297,6.7484869,3214.33,20.4,2.6,54.7,-1.0,233.57921919762575,23044463.64595205,23044463.64595205,28.532521325064522,6.8536714413872,25258.326463203142,91.5,52.37593798831313
1306893816.26,2.1567144,6.7489189,3214.97,17.4,2.1,55.0,-1.0,236.42932484778143,23998974.49346826,23998974.49346826,26.307538093381467,6.981905270160977,24403.112574388608,90.30000000000001,52.39900338638837
1306893816.69,2.1577425,6.7493663,3215.05,13.9,1.7,55.2,-1.0,240.242898951638,24166503.371352524,24166503.371352524,26.683932668729263,6.834143211468291,24283.728646456257,89.10000000000001,52.41811865323002
1306893817.11,2.1587304,6.7497934,3214.61,9.8,1.3,55.4,-1.0,236.1733155534308,25113632.661704563,25113632.661704563,27.616381901477997,6.912193254754578,23555.036681965863,87.4,52.43318427002791
1306893817.53,2.1597571,6.7502351,3213.63,5.7,1.0,55.4,-1.0,244.39362160183856,26804313.295586847,26804313.295586847,28.148864736532662,7.0068937257810395,23632.225227523188,89.10000000000001,52.44411602855809
1306893817.96,2.1607828,6.7506753,3212.16,1.4,0.7,55.4,-1.0,238.71425919351125,27079546.12858413,27079546.12858413,26.382270616836795,6.94417868482201,24325.12854608571,89.39999999999999,52.451021102923804
1306893818.38,2.1617963,6.7511099,3210.27,-3.0,0.5,55.4,-1.0,241.37391610752258,29949384.277880203,29949384.277880203,27.311170163717243,6.877928921362933,24109.376236489297,87.5,52.453968390762824
1306893818.81,2.1628278,6.7515531,3207.96,-7.2,0.3,55.5,-1.0,240.0868549971521,33133586.992230494,33133586.992230494,27.577397937287788,6.994769773428269,23739.56272245122,88.7,52.45303444500605
1306893819.23,2.1638493,6.7519938,3205.32,-11.2,0.3,55.3,-1.0,243.51553969297666,35201603.78076495,35201603.78076495,26.474581177507694,6.711718624974922,23845.152094655314,86.7,52.44833409504979
1306893819.66,2.1648982,6.7524496,3202.32,-15.0,0.3,55.1,-1.0,244.6945409147655,37760308.89085564,37760308.89085564,24.988666868232084,6.909990178824684,23772.493508820276,84.0,52.44003575734201
1306893820.08,2.1658938,6.7528864,3199.25,-18.0,0.2,54.8,-1.0,238.97191566966387,39538541.26166698,39538541.26166698,25.054005953786923,6.949194982540007,23045.72390920519,86.1,52.42849157536476
1306893820.5,2.1669026,6.7533344,3195.98,-20.1,0.2,54.4,-1.0,242.74272540749323,41207513.17473638,41207513.17473638,25.165450738952273,7.096290524576416,23654.594472555847,85.79999999999998,52.413954173789946
1306893820.92,2.1679161,6.7537908,3192.83,-20.9,4.8,54.0,-1.0,244.732759527224,41431938.18732825,41431938.18732825,26.20122544898405,7.120949889222985,24102.93627797842,85.1,52.3969441125476
1306893821.34,2.1688919,6.7542387,3192.14,-25.1,8.5,53.2,-1.0,237.66823641166536,42580235.286370605,42580235.286370605,27.794557808876597,7.10925866562546,24550.148515104112,85.60000000000001,52.37974266897804
1306893821.76,2.1698638,6.7546976,3194.91,-25.0,10.2,52.3,-1.0,238.90647389064065,44273403.779943995,44273403.779943995,26.557380169284407,7.297450893991258,24066.514119978976,87.30000000000001,52.36541196031662
1306893822.19,2.1708609,6.7551802,3201.02,-25.0,10.5,51.8,-1.0,241.58087973136503,45790438.16920819,45790438.16920819,27.129058352517028,7.204482898202533,24166.80958632498,87.4,52.35688396381619
1306893822.61,2.1718113,6.7556475,3209.17,-25.2,11.7,51.3,-1.0,237.7902550567245,45661631.51844882,45661631.51844882,24.502617871954065,7.340581375758386,23921.15612814085,86.80000000000001,52.35604188157648
1306893823.04,2.1727575,6.756118,3219.21,-25.5,12.4,51.0,-1.0,233.05562492104622,47770179.26436471,47770179.26436471,24.536219577226085,7.221490887130724,24223.098112069645,84.4,52.36465408630089
1306893823.47,2.1737091,6.7565951,3230.93,-25.8,12.5,50.8,-1.0,235.31971748349733,48640574.10601495,48640574.10601495,25.18153044847167,7.3100236013635795,23933.194488405035,86.39999999999999,52.38425929190018
1306893823.89,2.1746357,6.7570613,3243.39,-26.0,11.9,50.8,-1.0,235.26165522497433,47267928.83491129,47267928.83491129,25.966315739403157,7.11164186645074,24264.97180390907,88.9,52.415699580614096
1306893824.31,2.1755589,6.7575255,3256.18,-26.0,11.3,50.8,-1.0,234.50863283412394,47694786.93396878,47694786.93396878,25.687434882120932,7.094843510287859,24256.971664379937,87.3,52.45928116416615
1306893824.73,2.1764592,6.7579767,3268.58,-25.6,10.7,50.9,-1.0,228.8908916825493,46846184.505085215,46846184.505085215,25.390351839499623,6.943799890599711,24016.658378941876,87.4,52.514858591987675
1306893825.15,2.1773866,6.7584396,3281.03,-25.0,10.3,51.1,-1.0,234.8135562985326,44809965.22521789,44809965.22521789,24.454466210435527,7.189959266437602,24226.73188444455,88.6,52.58237827702704
1306893825.57,2.1783294,6.758908,3293.31,-24.1,10.3,51.3,-1.0,237.84569470448898,42616694.82725735,42616694.82725735,23.77854477835657,7.142079049568198,24291.066986594567,88.49999999999999,52.65982687720202
1306893825.99,2.1792834,6.7593794,3305.41,-22.9,10.3,51.5,-1.0,240.01339973123663,40148907.173629984,40148907.173629984,24.36277759013118,6.824402816575541,24428.212211741546,88.10000000000001,52.74441786582844
1306893826.41,2.1802533,6.7598559,3317.5,-21.5,10.2,51.7,-1.0,243.08740909385804,36818744.632559925,36818744.632559925,23.66837815125267,6.887026458139229,24274.84566394329,89.80000000000001,52.8335867197217
1306893826.83,2.1812159,6.7603256,3329.48,-19.7,10.5,52.0,-1.0,240.88847997908317,32839619.58810376,32839619.58810376,24.498239062078074,6.806813837415687,24330.22043250305,90.10000000000001,52.925687550867806
1306893827.25,2.1821918,6.7607981,3341.82,-17.4,11.1,52.3,-1.0,243.378728409673,30929707.932920847,30929707.932920847,25.3531521395708,7.100394920194452,24362.360846515607,93.00000000000001,53.01954909942424
1306893827.67,2.1831993,6.7612821,3355.06,-14.9,12.0,52.5,-1.0,250.20341236035918,30260519.07911803,30260519.07911803,26.008643291377066,6.978064076540291,24529.168916298782,93.80000000000001,53.114574252530105
1306893828.09,2.1841999,6.7617589,3369.03,-13.5,12.8,52.8,-1.0,248.2611923384696,29481101.06620737,29481101.06620737,25.141724735713417,7.160655472398578,24649.67805128953,93.70000000000002,53.2107553548923
1306893828.51,2.1852144,6.7622382,3384.19,-12.1,13.6,53.1,-1.0,251.09141198991105,30633057.655921984,30633057.655921984,24.59403243751701,7.183349970213698,25231.274077657286,96.4,53.30875076171646
1306893828.93,2.1862209,6.762709,3400.27,-10.8,14.3,53.4,-1.0,248.8500143837466,32527839.172605895,32527839.172605895,24.715459976885214,7.0314899575548715,25468.860333718854,95.80000000000001,53.40956331639712
1306893829.35,2.1872607,6.7631901,3417.97,-9.5,15.0,53.8,-1.0,256.04170435590197,33718041.687516816,33718041.687516816,24.66395674862371,6.8372238542054875,24788.922392154433,94.10000000000001,53.514394899949174
1306893829.98,2.1888172,6.7638989,3446.59,-7.6,16.3,54.4,-1.0,254.95661275052038,34702900.75853438,34702900.75853438,22.799602672929645,6.870425618979301,24624.256084580968,95.9,53.63173523240762
1306893830.61,2.1904047,6.7646069,3478.6,-7.6,17.8,55.0,-1.0,258.91649484444946,36405432.68171855,36405432.68171855,23.762287077197694,7.114763625451919,25093.516573877572,95.1,53.764317253405
1306893831.03,2.191471,6.765075,3501.95,-7.6,18.8,55.3,-1.0,260.51403181333365,36978276.19702622,36978276.19702622,23.4755597978549,7.192149462439179,25019.36194015753,95.20000000000002,53.90551913441986
1306893831.46,2.1925619,6.7655496,3527.47,-7.6,19.8,55.5,-1.0,260.50928287825167,37865555.04108506,37865555.04108506,23.835877363591013,7.157066217892623,25850.27520128428,96.80000000000003,54.05708628227638
1306893831.88,2.1936126,6.7660033,3553.62,-7.8,20.7,55.8,-1.0,257.5514656885169,39354553.79990639,39354553.79990639,22.397061741481977,6.948255835783638,25337.546227182906,96.4,54.21922538988793
1306893832.51,2.1952157,6.7666909,3596.55,-7.8,22.3,55.8,-1.0,262.38303749382436,41420458.70438988,41420458.70438988,20.195735652616715,6.940218190404025,25577.62387340017,96.0,54.404093062678825
1306893832.73,2.195776,6.7669309,3612.48,-8.1,22.9,55.8,-1.0,263.6586832546321,43559006.70738487,43559006.70738487,21.471008475784977,6.940864553796168,25380.342360133338,96.3,54.59046117291505
1306893833.15,2.1968671,6.7673979,3644.98,-7.6,24.1,55.8,-1.0,269.45409914688923,45572068.13931615,45572068.13931615,22.587630193012096,7.015368063948462,25094.60862847318,94.80000000000001,54.7901035613665
1306893833.59,2.1979674,6.7678684,3679.9,-7.8,25.4,55.9,-1.0,261.43715945175023,46941782.79180402,46941782.79180402,22.62053904994886,7.30363330186777,24926.080344822556,96.80000000000001,55.00416852199642
1306893833.8,2.1984954,6.7680944,3697.46,-7.9,26.1,55.9,-1.0,264.0727735038995,47608359.51371357,47608359.51371357,21.737915542275843,7.511770213865713,25012.463792817038,99.3,55.218126308523104
1306893834.45,2.2001352,6.7687997,3755.76,-8.2,28.3,55.6,-1.0,267.0797362588172,47450872.8707814,47450872.8707814,21.93228465368048,7.51592870598813,24751.471489503783,98.80000000000003,55.45480500493605
1306893835.3,2.202212,6.7697077,3839.15,-9.1,31.8,54.9,-1.0,264.231609917657,47199591.96190026,47199591.96190026,21.859875831552266,7.523095478160174,24374.79839295039,96.7,55.73081659723701
1306893835.73,2.2032407,6.7701677,3885.21,-9.8,33.7,54.4,-1.0,264.8233601232496,48406392.760776214,48406392.760776214,22.853574765762858,7.416461101158595,23909.760961655644,94.50000000000001,56.02421336014165
1306893835.95,2.2037714,6.7704088,3910.43,-10.3,34.7,54.0,-1.0,270.66020460787485,49308806.49003229,49308806.49003229,22.11787251205496,7.739428683663068,23405.325007904896,92.90000000000002,56.31738046425364
1306893836.16,2.2042557,6.7706317,3934.41,-10.8,35.7,53.6,-1.0,262.2821579127214,48281927.19141009,48281927.19141009,22.881643112400848,7.949059235891201,23526.708816777755,90.89999999999999,56.60888636976546
1306893836.39,2.2047931,6.7708826,3962.13,-11.4,36.7,53.2,-1.0,268.66780909830965,51531966.88498914,51531966.88498914,22.246935596285503,8.119873208090889,22891.07395261569,88.9,56.88874857448987
1306893836.61,2.2052746,6.7711111,3988.05,-12.1,37.7,52.7,-1.0,255.9770350319183,52432345.92027183,52432345.92027183,22.523293664811604,8.224816124857453,22846.564568881713,88.00000000000001,57.17625841700954
1306893837.03,2.2062136,6.7715692,4041.84,-13.4,39.8,51.6,-1.0,266.5610533670665,56047361.43996413,56047361.43996413,22.133734366929406,8.023318917931842,22875.817543260368,88.80000000000003,57.48006637851435
1306893837.24,2.2066634,6.7717956,4069.33,-14.3,41.0,50.9,-1.0,262.2150801473763,60665002.414092906,60665002.414092906,22.879223667517252,7.826985019991923,23180.631501825585,88.50000000000001,57.778186457254506
1306893837.87,2.2079419,6.7724711,4155.04,-18.3,45.7,48.4,-1.0,258.5916677037465,64649831.33121164,64649831.33121164,22.691865677596436,7.554562151112621,23689.28667758602,88.4,58.128477358391876
1306893838.29,2.2087336,6.7729242,4215.98,-22.5,49.1,46.0,-1.0,256.8469424665336,66863484.19475412,66863484.19475412,23.033240650228322,7.496484160075925,23547.383106876656,86.50000000000001,58.48078925690456
1306893839.14,2.2101102,6.7738249,4344.34,-34.5,54.4,39.6,-1.0,247.09426208585242,67591711.89366041,67591711.89366041,22.992920792695276,7.48860307339993,23783.872673522288,87.00000000000001,58.867527008435616
1306893839.35,2.2104113,6.7740494,4377.61,-36.8,55.4,38.0,-1.0,244.8356479488723,66109821.647369996,66109821.647369996,21.470487064058688,7.70700655099806,23633.22665250634,88.10000000000001,59.24447364010666
1306893839.56,2.2106799,6.7742618,4409.44,-38.7,56.5,36.0,-1.0,230.764665451782,64791067.50390198,64791067.50390198,23.356581343181986,7.447342573627498,24073.69636808869,88.0,59.626480420509104
