timestamp,longitude,latitude,altitude,roll,pitch,yaw,heading,air_speed,engine_0,engine_1,temperature_in,humidity_in,pressure_in,heart_rate,oxygen_mask
1306893678.0,2.0169883,6.5769419,-1.0,-1.0,-1.6,-1.0,-1.0,44.77293848531802,155086928.48592553,155086928.48592553,24.490895097043193,7.364518100385491,26088.13926088037,85.80000000000001,28.817084575581227
1306893680.79,2.015972,6.5761777,-1.0,-1.0,-1.7,-1.0,-1.0,44.77293848531802,116351680.37004057,116351680.37004057,26.036914735454015,7.1287007447462525,25948.82811344106,85.70000000000002,28.797532957033546
1306893682.29,2.0153206,6.5756879,-1.0,-1.0,-1.8,-1.0,-1.0,52.82824123713588,77602111.76537506,77602111.76537506,26.1643865554682,7.262693192092355,25978.35858103518,86.4,28.77799664907204
1306893683.8,2.0145922,6.5751401,-1.0,-1.0,-1.9,-1.0,-1.0,58.37142723971263,38881422.095592305,38881422.095592305,27.396396609261984,7.188190471224919,26214.146362504325,83.8,28.758483306989802
1306893685.94,2.0134344,6.5742694,-1.0,-1.0,-1.7,-1.0,-1.0,65.11920283911851,1626948.714233633,1626948.714233633,25.77191054281395,7.470525067340889,26064.614297373326,81.6,28.738992930786825
1306893686.15,2.0133108,6.5741765,24.42,-1.0,0.4,-1.0,-1.0,140.1343513545488,1626948.7142336327,1626948.7142336327,25.771910542813945,7.470525067340889,26064.61429737333,81.6,28.738992930786825
1306893686.36,2.0131893,6.5740851,24.46,-1.0,2.3,-1.0,-1.0,69.52018664177447,38881422.09559228,38881422.09559228,27.396396609261984,7.188190471224918,26214.14636250433,83.80000000000001,28.7584833069898
1306893686.57,2.0130615,6.573989,24.49,-1.0,3.6,-1.0,-1.0,72.77652915536058,77602111.76537506,77602111.76537506,26.1643865554682,7.262693192092354,25978.358581035187,86.40000000000002,28.777996649072037
1306893686.78,2.0129365,6.573895,24.52,-1.0,4.8,-1.0,-1.0,71.41459459756477,116351680.37004055,116351680.37004055,26.036914735454015,7.128700744746252,25948.828113441064,85.70000000000002,28.797532957033546
1306893686.99,2.0128107,6.5738004,24.54,-1.0,5.7,-1.0,-1.0,71.785784112045,155086928.48592553,155086928.48592553,24.490895097043197,7.3645181003854905,26088.139260880373,85.8,28.817084575581223
1306893687.2,2.0126773,6.5737001,24.55,-1.0,6.5,-1.0,-1.0,76.00336563027315,155022928.00370246,155022928.00370246,25.37234741987133,7.126900267104288,26117.628357311867,84.49999999999999,28.836643849421996
1306893687.42,2.012543,6.5735991,24.57,-1.0,7.2,-1.0,-1.0,73.0651378958788,116263468.80198212,116263468.80198212,23.217200485255134,7.285651766648778,26579.828120791586,86.5,28.856218433848937
1306893687.64,2.0124059,6.573496,24.58,-1.0,7.7,-1.0,-1.0,74.63702158514431,77559648.98430923,77559648.98430923,23.73640608441231,7.165237403174868,25970.93205779245,87.00000000000001,28.875800673568975
1306893687.86,2.0122673,6.5733917,24.6,-1.0,8.1,-1.0,-1.0,75.43675880832271,38923761.51029374,38923761.51029374,22.88893899056675,7.271904214196093,25111.10598291149,87.50000000000001,28.895398223875183
1306893688.08,2.0121271,6.5732863,24.61,-1.0,8.4,-1.0,-1.0,76.21852490523544,4282346.371792939,4282346.371792939,22.929821557703022,6.938307888006577,25522.7554439146,90.9,28.91500342947449
1306893688.29,2.011986,6.5731802,24.61,-1.0,8.7,-1.0,-1.0,80.15512541043802,4198197.345147272,4198197.345147272,20.852738273197698,6.821948099750856,24879.563802311393,90.10000000000001,28.91514888004317
1306893688.51,2.0118434,6.5730729,24.62,-1.0,8.9,-1.0,-1.0,77.47276415508465,4363788.03656565,4363788.03656565,21.53620962459801,6.916555800459048,25075.271629557654,90.4,28.915271364732583
1306893688.73,2.0116987,6.5729641,24.64,-1.0,9.2,-1.0,-1.0,78.5999034946375,4808014.970318282,4808014.970318282,23.018644571195434,6.888276417969227,24791.05660816087,89.4,28.91538619412891
1306893688.94,2.0115531,6.5728545,24.68,-1.0,9.4,-1.0,-1.0,82.71721100127672,4890161.84563705,4890161.84563705,25.11320871167745,7.0578102600830634,23939.131644539517,93.00000000000001,28.915508678818323
1306893689.16,2.0114059,6.5727439,24.78,-1.0,9.7,-1.0,-1.0,79.77393457537424,5488549.423619219,5488549.423619219,25.87703705349292,7.118511701737404,24163.486483678564,95.7,28.91569240585244
1306893689.38,2.0112572,6.572632,24.93,-1.0,10.0,-1.0,-1.0,80.72071787311465,5537968.91410211,5537968.91410211,26.056776123152137,7.276241140759141,23359.114304058872,94.80000000000001,28.9159833069898
1306893689.59,2.0111076,6.5725196,25.16,-1.0,10.3,-1.0,-1.0,84.85756088748654,5071114.843717546,5071114.843717546,28.13974728379397,7.113360511052365,23279.43753487168,95.70000000000002,28.916434969282015
1306893689.81,2.010955,6.5724049,25.48,-1.0,10.4,-1.0,-1.0,82.69434929623944,5771945.498788511,5771945.498788511,29.51648892520892,7.469050258698635,23579.13664140307,97.9,28.91712394565997
1306893690.03,2.0108016,6.5722895,25.9,-1.0,10.6,-1.0,-1.0,83.18534195743528,5382819.328400225,5382819.328400225,30.15232847444248,7.454785210837766,24434.92756799046,98.50000000000001,28.918119133761458
1306893690.25,2.0106451,6.5721719,26.42,-1.0,10.7,-1.0,-1.0,84.7509949411791,4936527.788232224,4936527.788232224,30.370807970775918,7.419197238871155,24311.229598974456,96.89999999999999,28.91950474181045
1306893690.47,2.0104862,6.5720526,27.05,-1.0,10.8,-1.0,-1.0,85.92947524775536,5694350.596074042,5694350.596074042,30.93326712130234,7.708255378876476,25194.240097636404,94.10000000000001,28.921372633324008
1306893690.69,2.0103264,6.5719327,27.78,-1.0,10.9,-1.0,-1.0,86.50952662630853,5399412.79070973,5399412.79070973,30.466687198412984,7.770497123308822,25237.21265768294,93.4,28.923791705939934
1306893690.91,2.010162,6.5718094,28.65,-1.0,11.0,-1.0,-1.0,88.88019079901592,4992864.227336881,4992864.227336881,29.25035769677559,7.855437500892364,25523.997566739956,93.60000000000001,28.926861478468368
1306893691.33,2.0098478,6.5715738,30.6,-1.0,11.1,-1.0,-1.0,88.96363536535753,5953964.558437425,5953964.558437425,29.430904652530476,7.932164168136682,25736.306950906703,89.80000000000001,28.93139341197668
1306893692.39,2.0090288,6.5709622,37.36,-1.0,11.0,-1.0,-1.0,91.70717980136723,6157246.770358374,6157246.770358374,29.291426311893296,7.708752111528737,25954.95434220178,90.7,28.941023770681838
1306893692.83,2.0086788,6.5707019,40.87,-0.1,11.0,-1.0,-1.0,94.20887980238818,6161431.644843609,6161431.644843609,28.482092327600665,7.710168699922536,26488.287947876954,92.80000000000001,28.95322630786469
1306893693.26,2.008318,6.5704345,44.84,-0.1,10.9,-1.0,-1.0,99.18073785051908,6833560.334035544,6833560.334035544,27.049263349726104,8.002114787650779,26169.195854850626,91.4,28.968291924662587
1306893693.91,2.0077611,6.5700234,51.63,-0.2,10.9,-1.0,-1.0,101.0654920870778,7184130.139634131,7184130.139634131,26.841952641551767,7.785337068618891,25991.8323441142,91.4,28.98831051608866
1306893694.13,2.0075723,6.5698845,54.11,-0.2,10.9,223.5,-1.0,101.10592682154493,7368979.044076496,7368979.044076496,25.926572103346366,7.573143305581274,25891.0210932103,91.49999999999999,29.009906097890937
1306893694.56,2.0071895,6.569604,59.39,-0.3,10.9,223.5,-1.0,104.70911161227471,7728781.811283254,7728781.811283254,26.04776785020155,7.854672728482355,26284.9854219677,92.5,29.035145599203275
1306893694.77,2.0069967,6.5694631,62.17,-0.3,10.8,223.5,-1.0,107.79925711026797,8361077.997627979,8361077.997627979,26.68955534752544,7.800925676026083,26380.082054578426,96.2,29.062030988529607
1306893695.19,2.0066064,6.5691788,68.03,-0.4,10.8,223.5,-1.0,108.92097009597397,9058449.426615542,9058449.426615542,26.680620413370097,7.870378579134088,26271.086161027066,97.60000000000001,29.09284354321027
1306893695.62,2.0061918,6.5688784,74.57,-0.5,10.7,223.5,-1.0,112.75848125057229,9677289.095294356,9677289.095294356,26.951242590087386,7.646536500820941,26263.846565164415,95.30000000000001,29.127996649072042
1306893695.83,2.0059883,6.5687316,77.88,-0.6,10.7,223.5,-1.0,113.09913502057385,10606392.443946863,10606392.443946863,24.694325747718395,7.673027837409443,26986.227035283307,98.9,29.164190874793828
1306893696.26,2.005564,6.5684267,84.98,-0.7,10.6,223.5,-1.0,115.01025977024885,11353956.18480213,11353956.18480213,23.18035770808917,7.641020435784099,26052.79293965191,97.10000000000002,29.200645380480616
1306893696.48,2.005345,6.56827,88.74,-0.8,10.6,223.4,-1.0,115.77679176003754,11516568.552926766,11516568.552926766,24.14128134208419,7.642082024725962,26136.274682689073,96.80000000000003,29.237291268494616
1306893696.91,2.0049003,6.567953,96.54,-0.9,10.3,223.4,-1.0,120.05923291930826,11540560.810386049,11540560.810386049,22.959091012529846,7.550922403627615,26555.19824175565,97.50000000000001,29.276869133761455
1306893697.13,2.0046715,6.5677906,100.34,-1.0,9.5,223.4,-1.0,120.27137831359786,11653090.51206645,11653090.51206645,21.731911284878795,7.594720376948193,27016.666243129042,96.60000000000001,29.314158066394878
1306893697.34,2.0044378,6.5676253,103.85,-1.1,8.8,223.4,-1.0,128.14150783979048,11360273.521570373,11360273.521570373,22.25993039220762,7.5317437786678685,26421.934548292036,97.60000000000001,29.3522354942164
1306893697.55,2.00422,6.5674715,106.81,-1.2,8.4,223.4,-1.0,119.18956403517551,13217071.95434229,13217071.95434229,22.085897564469498,7.567593961763716,26138.70528249999,96.7,29.38853689404142
1306893697.76,2.0039869,6.5673072,109.67,-1.4,8.0,223.4,-1.0,127.21667695325469,13351452.317930095,13351452.317930095,20.520390658302205,7.620209914062958,25963.934725787083,96.0,29.424899536211147
1306893697.97,2.0037481,6.5671391,112.33,-1.5,7.9,223.4,-1.0,129.96397739081814,15002871.685100129,15002871.685100129,18.533958667641475,7.704340059781592,26513.64984422905,94.9,29.458812484592602
1306893698.18,2.0035149,6.5669753,114.69,-1.6,7.8,223.4,-1.0,126.83224554711714,17266715.212779664,17266715.212779664,17.02499413882047,7.833137978412623,26047.309747714575,94.6,29.48952552046312
1306893698.39,2.0032729,6.5668053,116.94,-1.8,7.8,223.3,-1.0,131.38685346164874,16713155.723263659,16713155.723263659,18.434408020601136,7.727778096374576,25263.997140178537,93.5,29.519427095266266
1306893698.61,2.0030183,6.5666266,119.15,-1.9,7.9,223.3,-1.0,131.8267759133684,17534656.959672164,17534656.959672164,19.367049551575413,7.8476586051671235,25532.826752174096,92.50000000000001,29.545585231749204
1306893698.83,2.0027591,6.5664448,121.27,-2.1,8.1,223.3,-1.0,134.10108889290066,18634431.85958213,18634431.85958213,19.867128978164466,7.678028383898321,24942.04056341636,89.60000000000001,29.570487900165652
1306893699.05,2.0024936,6.5662593,123.38,-2.2,8.4,223.3,-1.0,136.96748827782264,18030111.45478558,18030111.45478558,21.989706981485902,7.659247399862688,24481.90928050978,90.80000000000001,29.591034706814824
1306893699.26,2.0022449,6.5660863,125.32,-2.4,8.6,223.2,-1.0,134.1495475189523,18255594.603736736,18255594.603736736,23.756666814364394,7.72112006047979,24565.33525422139,88.80000000000001,29.61015762894956
1306893699.47,2.0019793,6.5659023,127.4,-2.5,8.9,223.2,-1.0,142.90681849758755,19337611.62496126,19337611.62496126,22.96370533665369,7.9045918594419655,25086.820427599727,88.70000000000002,29.628185844172656
1306893699.69,2.00171,6.5657164,129.55,-2.7,9.2,223.1,-1.0,138.0983684416116,19532424.071750343,19532424.071750343,24.349682700161118,7.967527557394924,25542.69859363354,87.89999999999999,29.64559398065559
1306893699.91,2.0014248,6.5655198,131.91,-2.9,9.4,223.1,-1.0,145.961423675196,19789754.026545312,19789754.026545312,24.3976998886027,7.860706186636404,24771.90103573291,87.6,29.662619352484114
1306893700.12,2.0011595,6.5653369,134.2,-3.0,9.7,223.0,-1.0,142.51132688364865,21661362.02009803,21661362.02009803,24.868346460204812,7.844791618139498,24594.201116306926,85.9,29.67936147846837
1306893700.33,2.0008902,6.5651512,136.64,-3.2,9.9,223.0,-1.0,144.53392767096756,21817078.74451607,21817078.74451607,26.132746917330838,7.741085471456719,24437.964853773934,86.2,29.696164846797323
1306893700.54,2.000617,6.5649625,139.23,-3.3,10.1,222.9,-1.0,146.80618138139425,22032318.21907376,22032318.21907376,25.88754054401006,7.76747763164392,24570.57017177622,87.0,29.713228495091286
1306893700.75,2.0003412,6.5647719,141.97,-3.5,10.2,222.8,-1.0,148.30857248474567,21803528.41177402,21803528.41177402,25.877555961492913,7.840026231892935,25121.992015557327,89.4,29.730697873918935
1306893700.96,2.0000602,6.5645776,144.89,-3.6,10.4,222.8,-1.0,151.21483997082714,21678130.752392445,21678130.752392445,24.980151076397767,7.887893308502911,25307.616471959052,90.7,29.748779676193646
1306893701.18,1.9997737,6.5643794,148.0,-3.8,10.4,222.7,-1.0,147.16411783605264,21982321.08021341,21982321.08021341,25.685431700577524,7.924047211721932,24963.717725290953,88.1,29.7676270077772
1306893701.39,1.9994833,6.5641783,151.28,-3.9,10.5,222.6,-1.0,156.32003250015595,20769093.59381817,20769093.59381817,25.391190071631524,8.02834397796459,24644.809101469324,87.39999999999999,29.787500148634596
1306893701.61,1.9991861,6.5639722,154.76,-4.0,10.5,222.6,-1.0,152.99815766265039,23644713.019448645,23644713.019448645,25.60171860904431,8.096226299752617,24389.763310323917,87.9,29.80844503052436
1306893701.82,1.9989003,6.5637734,158.22,-4.1,10.5,222.5,-1.0,154.3483608753501,23226633.45067361,23226633.45067361,26.070071296227347,8.065281542300582,23983.676361034202,90.30000000000001,29.830392755808695
1306893702.03,1.9986082,6.5635696,161.84,-4.2,10.5,222.4,-1.0,157.96865878616364,24085740.963850196,24085740.963850196,27.593093025993053,8.100296204820598,24069.12105270795,87.80000000000001,29.853305048022168
1306893702.25,1.9982969,6.5633518,165.8,-4.3,10.5,222.4,-1.0,160.8750267880801,25391087.70017842,25391087.70017842,28.812227029333673,7.8152514816494065,23412.920964292287,88.80000000000001,29.8774957741814
1306893702.47,1.9979959,6.5631405,169.7,-4.4,10.4,222.3,-1.0,156.00057707165925,26530764.31710333,26530764.31710333,29.45449633271509,7.688662437551502,23724.171534824985,91.0,29.902804173131535
1306893702.68,1.9976867,6.562923,173.78,-4.5,10.4,222.2,-1.0,167.88559879809645,25021323.03174007,25021323.03174007,30.97098240006644,7.718002302021746,24182.05979012244,88.2,29.929253210751835
1306893702.89,1.9973867,6.5627112,177.78,-4.5,10.3,222.2,-1.0,163.33338631753887,28487412.685885575,28487412.685885575,29.807302347314195,7.613087472871015,23917.687585462405,88.2,29.95666681530126
1306893703.1,1.9970929,6.5625033,181.75,-4.6,10.3,222.1,-1.0,160.12353231408,29908926.94111134,29908926.94111134,30.23634692717959,7.76987536296169,24319.03670140866,87.2,29.984884225624974
1306893703.31,1.9967796,6.5622809,186.01,-4.7,10.2,222.0,-1.0,170.94892970307637,27104117.055665795,27104117.055665795,27.983365394312365,7.648834147573378,24333.682468138333,88.9,30.013981994653843
1306893703.52,1.9964785,6.5620666,190.13,-4.7,10.1,222.0,-1.0,164.50464576796162,31320352.65336033,31320352.65336033,27.319329343646135,7.487301924438118,24642.137480362566,92.0,30.043722808302135
1306893703.74,1.9961544,6.5618355,194.59,-4.7,10.1,221.9,-1.0,169.22240089385866,30017735.601861518,30017735.601861518,26.50383703282545,7.516649208301965,24465.341493973276,89.09999999999998,30.07421384067309
1306893703.95,1.9958413,6.5616115,198.92,-4.7,10.0,221.9,-1.0,171.4822302733592,28054157.330641445,28054157.330641445,25.921644903273624,7.4780139994904085,24429.31556838368,86.0,30.105370883542736
1306893704.16,1.995529,6.5613877,203.26,-4.7,11.6,221.8,-1.0,171.26972385335927,30460804.576854713,30460804.576854713,24.383467935340985,7.343368208834237,24815.5037104586,89.5,30.137079107514737
1306893704.37,1.9952198,6.5611657,207.76,-3.3,12.7,221.7,-1.0,169.8028188934702,31106772.026347622,31106772.026347622,23.80110016561747,7.436379667627589,25394.416200873362,90.4,30.16920071731351
1306893704.58,1.9948943,6.5609313,212.84,0.8,12.0,221.7,-1.0,179.20643760648096,28144655.77962615,28144655.77962615,23.13005313960609,7.4696305576984265,25805.148096194265,91.00000000000001,30.202225651696715
1306893704.79,1.9945833,6.5607075,217.88,5.1,11.7,221.7,-1.0,171.31147446253652,32963810.15364455,32963810.15364455,22.51364963985833,7.4702232927138175,25487.80021485411,91.3,30.235985494216397
1306893705.0,1.9942561,6.5604724,223.27,9.8,11.5,221.8,-1.0,180.0031752682621,31407226.811624262,31407226.811624262,23.149569629656977,7.363466650650065,25850.146809059395,88.9,30.270809422475367
1306893718.42,1.9621198,6.5542836,648.5,81.4,16.6,308.8,-1.0,199.70852648192138,31073165.86072397,31073165.86072397,21.31277488606753,7.468297959688655,25994.13449353375,91.9,30.628120227374755
1306893718.84,1.9611669,6.5548838,663.02,81.8,17.0,315.5,-1.0,233.9859564726572,35420401.84557742,35420401.84557742,21.681902903299136,7.506295101607587,26001.3627036806,90.7,30.993285362982803
1306893719.28,1.9602658,6.5556036,678.46,82.0,17.4,322.8,-1.0,237.14907095819632,69416320.66563174,69416320.66563174,22.951699793061376,7.508423737374066,25329.200275325926,89.3,31.367116290366877
1306893747.6,1.9854642,6.6236065,1868.7,11.9,17.4,31.5,-1.0,270.66601591950797,107192469.20486805,107192469.20486805,23.571477519759235,7.410599928914826,25540.109385822725,91.9,32.64869656158297
1306893748.04,1.9865255,6.6246822,1877.72,11.0,17.4,31.6,-1.0,327.0683800859541,139259956.16991165,139259956.16991165,24.32427211758299,7.359997207926588,25741.189635187333,93.00000000000001,33.93386716525752
1306893748.46,1.9875331,6.6256982,1886.2,10.4,17.4,31.8,-1.0,324.0951700333379,172066505.49778825,172066505.49778825,25.348018390304585,7.635704081268493,26060.86708878135,90.60000000000001,35.22220706027064
1306893748.89,1.9885707,6.6267396,1894.85,9.9,17.4,31.9,-1.0,325.0153437103597,160592933.37065628,160592933.37065628,24.361525916552196,7.818948720744013,25991.325973412757,89.50000000000001,36.51372390191544
1306893749.33,1.9896337,6.6278016,1903.64,9.5,17.4,31.9,-1.0,324.43131567176835,117285930.1298553,117285930.1298553,25.24853558431436,8.040213600623051,25582.016151689633,87.20000000000002,37.80808085729602
1306893749.76,1.9906928,6.6288549,1912.33,9.2,17.4,31.9,-1.0,329.8979185399561,99519152.4829752,99519152.4829752,24.822182979819203,8.094092913085394,25184.520520205093,89.5,39.10523199465384
1306893750.2,1.9917503,6.6299022,1920.93,8.9,17.4,32.3,-1.0,320.8503195540177,102379036.3628022,102379036.3628022,27.138069843046132,8.065436523174487,24468.218208896014,90.0,40.40484048109304
1306893750.63,1.9928135,6.6309508,1929.51,8.8,17.4,32.4,-1.0,329.31175657048516,127241473.01357588,127241473.01357588,28.66303069987313,8.092023505330834,23726.685246382738,87.5,41.38549118100555
1306893751.06,1.9938774,6.6319957,1938.04,8.8,17.4,32.5,-1.0,328.690072412183,131929854.80320352,131929854.80320352,30.368546245628075,7.9595664890070275,24357.42982376786,88.2,42.361556360358136
1306893751.49,1.9949246,6.6330201,1946.38,8.6,17.4,32.5,-1.0,322.5389369297724,134102517.24478428,134102517.24478428,29.452379912907382,7.91189183309473,24532.39666044666,90.1,43.33218628161798
1306893751.91,1.9959575,6.6340266,1954.54,8.6,4.2,32.5,-1.0,324.9674751745962,143902614.03026095,143902614.03026095,28.66564619285935,8.014315625373857,24850.148705727843,90.29999999999998,43.397899317488495
1306893752.34,1.997023,6.6350608,1962.91,8.6,4.2,32.5,-1.0,326.6176115432589,142915799.61009002,142915799.61009002,26.175495138978082,7.881025657153927,25148.229780291404,89.6,43.46311475930826
1306893752.77,1.998094,6.6360962,1971.27,8.7,4.2,33.0,-1.0,327.49263552183464,142393287.8508101,142393287.8508101,26.15109867438502,7.649245441791573,24717.967440398916,88.50000000000001,43.52823833761098
1306893753.2,1.999163,6.6371256,1979.56,8.7,4.2,33.1,-1.0,326.0112834610026,143536136.6365377,143536136.6365377,26.007758672010173,7.653397867041509,24363.607104539602,87.2,43.593086325362506
1306893753.63,2.0002401,6.6381585,1987.86,8.8,4.2,33.2,-1.0,327.6710945429207,143114064.78444433,143114064.78444433,26.500285776004645,7.5556396024712305,24131.19030985573,89.50000000000001,43.65755920375271
1306893754.06,2.0013177,6.6391879,1996.12,8.8,4.2,33.3,-1.0,326.9953222089808,139813632.03351986,139813632.03351986,26.21926486402671,7.491215708854048,24196.7041711635,87.7,43.72170290454011
1306893754.48,2.0023933,6.6402112,2004.31,8.8,4.2,33.3,-1.0,333.46642389781374,140723974.52018276,140723974.52018276,25.884653153480922,7.826029243922238,24635.856408371,88.30000000000001,43.78553273831089
1306893754.91,2.0034695,6.6412308,2012.45,9.0,4.2,33.3,-1.0,354.1530116106263,138032666.29750022,138032666.29750022,23.93861495659766,7.804859910599273,25337.62575742997,89.2,43.84902573918578
1306893755.34,2.0045487,6.6422492,2020.56,9.0,4.2,33.7,-1.0,354.2095474038136,141302246.01841268,141302246.01841268,21.909437651601873,7.794319533234917,25141.320572880777,89.7,43.91219721775095
1306893755.76,2.0056284,6.6432639,2028.64,9.0,4.2,33.8,-1.0,361.3382126990418,149013113.9840713,149013113.9840713,21.96570143947475,7.962221989413042,25669.680822207854,89.1,43.97516965869583
1306893756.19,2.0066985,6.6442655,2036.59,9.0,4.2,33.9,-1.0,349.6859684751603,156640197.8370878,156640197.8370878,22.468991396445848,7.995627520608495,25448.616457536205,86.0,44.03798133848587
1306893756.61,2.0077665,6.645261,2044.47,9.3,4.2,33.9,-1.0,355.8885197299815,171731563.33759043,171731563.33759043,22.222745615411448,7.976446195072628,25453.09147575411,86.9,44.100417908914565
1306893757.03,2.0088632,6.6462789,2052.52,9.4,4.2,33.9,-1.0,363.885789393726,183057982.13056296,183057982.13056296,21.91945717264742,7.965818112153889,25102.316296599056,87.9,44.162617165257515
1306893757.45,2.0099219,6.6472575,2060.25,9.4,4.2,34.3,-1.0,351.2451848814632,186787612.77885884,186787612.77885884,23.82353075322856,7.899619154082108,25393.646797735695,88.30000000000001,44.224387725187526
1306893757.87,2.0110145,6.6482632,2068.18,9.4,4.2,34.4,-1.0,360.7998422075359,193741649.9332783,193741649.9332783,21.797960624359547,7.795443750456142,25345.558282615028,85.69999999999999,44.285875039273265
1306893758.29,2.012087,6.6492462,2075.91,9.6,4.2,34.5,-1.0,353.70064016796766,193484419.3258518,193484419.3258518,22.02511356039194,7.667976440432669,25982.66840066058,86.49999999999999,44.34695662282532
1306893758.71,2.0131756,6.6502397,2083.71,9.7,4.2,34.5,-1.0,357.73500913053994,189667997.06762704,189667997.06762704,21.625375603252945,7.5262614447477425,25304.262348982797,85.1,44.407739649946926
1306893759.13,2.0142672,6.6512318,2091.49,9.7,4.2,34.8,-1.0,357.73450292458864,192110541.50200483,192110541.50200483,23.651608550121054,7.375526243012639,25380.55872788679,85.69999999999999,44.46824708651736
1306893759.55,2.0153542,6.6522155,2099.19,9.7,4.0,34.9,-1.0,355.444952803296,192673141.44609407,192673141.44609407,24.240793416444628,7.3435495460742155,25037.70260883507,86.80000000000001,44.52844065607117
1306893759.98,2.0164809,6.6532305,2107.11,9.9,4.0,34.9,-1.0,358.6085826407648,190760970.73200113,190760970.73200113,23.273932425870697,7.1859054195340795,24177.34260114705,84.00000000000001,44.58851174093556
1306893760.4,2.017569,6.6542065,2114.72,10.0,4.0,34.9,-1.0,353.9320793535728,192310497.9559968,192310497.9559968,23.05946788219735,6.986558966122128,24374.36289974449,87.20000000000002,44.64832254583495
1306893760.83,2.018705,6.6552209,2122.62,10.0,4.0,35.3,-1.0,359.49810384016945,192025484.5857384,192025484.5857384,23.694235208706527,7.183449355371323,23773.59969165975,87.10000000000001,44.708148661320514
1306893761.25,2.0198232,6.656215,2130.34,10.0,4.0,35.4,-1.0,361.17153776878564,188878988.82206693,188878988.82206693,23.59391427089646,7.249765740799449,24063.34875211091,87.5,44.76772215213416
1306893761.68,2.0209501,6.6572122,2138.08,10.2,4.0,35.4,-1.0,354.8897381915616,188797156.8782049,188797156.8782049,21.564460258343075,7.247684801653792,23979.638847192447,89.7,44.8273032982409
1306893762.1,2.0220485,6.6581799,2145.57,10.3,4.0,35.7,-1.0,353.31555736945916,187800975.1616851,187800975.1616851,22.40458904001958,7.432212665709925,24853.164790655825,92.7,44.886547611451746
1306893762.52,2.0231687,6.6591624,2153.16,10.3,4.0,35.8,-1.0,358.8852365344022,188978349.77653116,188978349.77653116,20.809902663944033,7.359670331854956,25089.136478463293,94.10000000000001,44.94568475055935
1306893762.95,2.0243135,6.6601618,2160.87,10.3,4.0,35.8,-1.0,357.374110676254,187193030.07059735,187193030.07059735,18.761734296139473,7.334759290887174,25487.545233693134,97.0,45.00475299202917
1306893763.37,2.0254538,6.6611527,2168.5,10.5,3.9,36.1,-1.0,362.96817893864784,188106492.68859977,188106492.68859977,17.67879584177502,7.353757270582211,24781.313930619042,94.4,45.06370640410267
1306893764.21,2.0276827,6.6630763,2183.27,10.5,3.9,36.4,-1.0,353.8675212497434,186397781.51143727,186397781.51143727,17.71565030157266,7.400881144666958,24802.015782504324,94.30000000000001,45.12807210838963
1306893764.64,2.028852,6.6640783,2190.94,10.7,3.9,36.5,-1.0,360.62656041641753,182664593.29126832,182664593.29126832,18.88024197890664,7.401229067496152,25421.445846318875,95.30000000000001,45.192246430349385
1306893765.07,2.0300032,6.6650602,2198.44,10.8,3.9,36.5,-1.0,354.4931746764556,179887181.87740228,179887181.87740228,20.747542046086078,7.612129145213859,24816.19085381109,94.50000000000001,45.25633654408517
1306893765.49,2.0311551,6.6660381,2205.9,10.8,3.9,36.8,-1.0,361.55048200171615,178546722.31379652,178546722.31379652,21.645963978435894,7.521062326618329,25256.864082843793,93.9,45.32008982492506
1306893766.33,2.0334313,6.6679566,2220.48,10.8,3.9,37.1,-1.0,356.0675877560983,175686782.85245222,175686782.85245222,20.719246465414198,7.514765604916297,25912.73938894184,96.20000000000002,45.38909463682357
1306893766.76,2.0346019,6.6689361,2227.91,10.8,3.9,37.2,-1.0,356.1646171798093,175950125.73835707,175950125.73835707,21.246503075929688,7.5011569323828065,25931.47074590284,94.50000000000001,45.45786213463634
1306893767.18,2.0357705,6.6699093,2235.27,10.8,3.8,37.4,-1.0,362.5289652240343,177161441.50373197,177161441.50373197,20.86965004595734,7.395728973266251,25555.53020131587,94.10000000000001,45.52653011363897
1306893767.6,2.0369289,6.6708692,2242.52,11.3,3.8,37.5,-1.0,358.5740576232878,174714456.97453687,174714456.97453687,21.865704017966724,7.686586435966353,24649.82892341833,91.60000000000001,45.594937812676584
1306893768.02,2.0380716,6.6718114,2249.62,11.4,3.8,37.5,-1.0,353.04287382861065,174625233.86749732,174625233.86749732,23.41405154677914,7.814533106546936,24760.399601925717,91.9,45.66287853883581
1306893768.44,2.039237,6.6727677,2256.81,11.5,3.8,37.8,-1.0,358.63636465059056,175962380.88900205,175962380.88900205,24.790784345806873,7.655833493103197,25110.950759111125,94.0,45.73048243209915
1306893768.86,2.040406,6.6737222,2263.97,11.6,3.8,37.8,-1.0,358.72569776768864,175995465.99027961,175995465.99027961,25.35960476089338,7.869648560856732,24925.762125235826,93.8,45.79226064732225
1306893769.28,2.0415897,6.6746838,2271.17,11.7,3.8,38.1,-1.0,361.8880058546528,176022065.54501882,176022065.54501882,25.353723827973926,8.067706997018723,24877.779055890056,94.69999999999999,45.853679063770194
1306893769.7,2.0427435,6.6756165,2278.13,11.8,3.8,38.1,-1.0,352.3823072297127,177632746.97397184,177632746.97397184,26.027326873319918,7.851329626218077,25241.1461880886,94.69999999999999,45.91468409439137
1306893770.12,2.0439261,6.6765675,2285.22,11.9,3.8,38.4,-1.0,359.6185072988155,176852664.16019127,176852664.16019127,26.432866899348177,7.964852643964544,24862.071043807853,94.2,45.97540587916828
1306893770.54,2.0451095,6.6775144,2292.26,12.0,3.7,38.6,-1.0,358.8479241263769,174805112.12833938,174805112.12833938,28.307347599588613,7.974749888487031,24524.712671773606,92.10000000000001,46.03035557295655
1306893770.97,2.0463192,6.6784772,2299.4,12.1,3.7,38.7,-1.0,357.2761277538163,174909805.36600444,174909805.36600444,27.7287527519298,7.7396745526328345,24625.11749729921,94.5,46.08508326324527
1306893771.39,2.0475185,6.6794268,2306.42,12.1,3.7,38.9,-1.0,361.30769932808295,174353749.39358878,174353749.39358878,29.11123588950659,7.903195214089416,24579.51405572052,94.10000000000001,46.139550673568976
1306893772.24,2.0499369,6.6813265,2320.38,12.1,3.7,39.2,-1.0,358.5631338588323,171993520.97449163,171993520.97449163,29.773064275142804,7.875554524574837,24703.01069678885,96.20000000000002,46.199154785554974
1306893772.66,2.0511418,6.6822655,2327.23,12.4,3.7,39.4,-1.0,359.8423503974059,171221616.19551885,171221616.19551885,28.356880131458063,7.85275719932282,25173.27338832002,94.4,46.25856751521378
1306893773.08,2.0523361,6.6831914,2333.96,12.5,3.7,39.5,-1.0,355.8425225779486,170327267.1284056,170327267.1284056,26.36535943607676,8.180023155045827,25148.041715241357,95.89999999999998,46.3176281013905
1306893773.5,2.0535284,6.6841108,2340.61,12.6,3.7,39.7,-1.0,354.27897743329146,169840671.46616498,169840671.46616498,26.865681991895624,8.125909460857415,25676.04592483426,94.6,46.37629826761972
1306893774.35,2.0559904,6.6859941,2354.1,12.6,3.7,40.0,-1.0,359.56457139097586,169458429.8949001,169458429.8949001,27.48951589853867,8.043941226349684,25347.045807318198,94.7,46.43978361320152
1306893774.79,2.0572636,6.6869601,2360.96,12.6,3.7,40.2,-1.0,357.654388747439,171870637.98330146,171870637.98330146,24.96092989125606,8.138884397158906,25568.988015690404,92.2,46.503192405852445
1306893775.21,2.0584855,6.687882,2367.45,12.6,3.7,40.3,-1.0,358.40509978306966,172240064.2178282,172240064.2178282,25.28397261704113,7.9823574620394435,25322.935602061305,92.70000000000002,46.56614188091806
1306893775.64,2.0597317,6.6888171,2373.99,12.6,3.7,40.5,-1.0,356.12160595322035,171738854.92096415,171738854.92096415,24.928007246597623,7.785118522344691,24709.104384172206,93.10000000000001,46.628708591329264
1306893776.07,2.0609995,6.6897631,2380.54,12.6,3.4,40.7,-1.0,360.9290220025596,170849823.36370936,170849823.36370936,27.40853062673456,7.767747848077906,24831.027152597246,92.90000000000002,46.69082363944824
1306893776.5,2.0622537,6.6906938,2386.92,13.3,3.4,40.7,-1.0,356.222291005159,167885836.5425549,167885836.5425549,25.566305672334085,7.5314626891935355,24595.50318312314,93.4,46.75244874880957
1306893776.92,2.0635119,6.6916221,2393.23,13.5,3.4,41.0,-1.0,364.2421423206328,167096065.35915118,167096065.35915118,25.503657498726287,7.277959790686956,24771.338093428945,91.20000000000002,46.8082175589583
1306893777.34,2.0647386,6.6925222,2399.27,13.6,3.4,41.2,-1.0,354.64895416673517,163244899.23417637,163244899.23417637,27.134818854103443,7.184757359770929,24359.57298734274,91.60000000000002,46.86336629036687
1306893777.77,2.0660285,6.6934633,2405.52,13.8,3.4,41.4,-1.0,362.63090005749615,163343147.5722065,163343147.5722065,28.233500033044674,7.167870281909796,24757.3295298897,89.90000000000002,46.9181475677072
1306893778.2,2.06729,6.6943782,2411.53,14.0,3.4,41.5,-1.0,354.0503428510798,162142414.91953382,162142414.91953382,26.559991237910552,7.087501246292245,24704.35785886591,88.40000000000002,46.97243890628989
1306893778.63,2.0685825,6.6953101,2417.57,14.3,3.4,41.7,-1.0,361.18600822609477,162720949.5072321,162720949.5072321,25.616138640521903,6.9031460992814955,25168.17328625416,88.5,47.021027051521735
1306893779.05,2.0698434,6.6962137,2423.36,14.5,3.4,41.9,-1.0,359.65568254146797,162696222.9839305,162696222.9839305,28.024252737388302,6.685442233002309,24932.2457927336,90.1,47.06879608039313
1306893779.47,2.0710875,6.6971,2428.96,14.7,3.1,42.1,-1.0,354.08867841202533,162409141.97773018,162409141.97773018,28.545161635074727,6.785052925040119,25180.719341093423,90.9,47.115883788179644
1306893779.9,2.0724081,6.6980349,2434.8,15.0,3.1,42.3,-1.0,365.26122088515075,163796362.6618273,163796362.6618273,27.333519712454358,7.15636387115156,25487.85519613979,89.2,47.16243562544999
1306893780.32,2.0736597,6.6989154,2440.23,15.3,3.1,42.5,-1.0,353.9177366592904,160177379.06408578,160177379.06408578,26.890771604690165,7.146077333590439,25527.04974094485,86.5,47.20813006989444
1306893780.53,2.0743009,6.6993642,2442.98,15.5,3.1,42.6,-1.0,361.23604059172357,161258245.29367352,161258245.29367352,26.870130578909258,7.10797148855938,25901.01567450722,83.5,47.25104564294781
1306893780.96,2.0755908,6.7002621,2448.43,15.8,3.1,42.8,-1.0,354.29031011762504,156704486.32688236,156704486.32688236,25.6157786045309,7.302817289092584,25964.888961417873,83.5,47.29330286079558
1306893781.38,2.0768609,6.7011396,2453.71,16.1,3.1,43.0,-1.0,355.78148488362456,155017042.07540053,155017042.07540053,25.19776686461683,7.282149472776908,25846.720159768298,81.30000000000001,47.33497827636863
1306893781.8,2.0781265,6.7020069,2458.89,16.4,3.1,43.2,-1.0,353.1855879118834,151975201.16347462,151975201.16347462,24.019646811624852,7.154126805780514,25760.056186177957,81.7,47.37583457558122
1306893782.22,2.0793795,6.7028582,2463.95,16.7,3.1,43.4,-1.0,348.4525410047184,151933867.9259571,151933867.9259571,24.14968355336524,7.359155270851189,25894.34562147298,83.99999999999999,47.415963621950425
1306893782.65,2.0806403,6.7037071,2469.01,16.9,3.2,43.7,-1.0,341.41812587991706,151862592.4571702,151862592.4571702,22.547460623154617,7.482376328361875,25882.562860963968,83.2,47.45534244959698
1306893783.07,2.0818535,6.7045163,2473.86,17.1,3.2,43.9,-1.0,335.1893086870001,156475454.32478538,156475454.32478538,19.773723114613983,7.735678731852982,26096.586819928758,82.60000000000001,47.49400167969321
1306893783.5,2.0831009,6.7053404,2478.87,17.1,3.2,44.2,-1.0,335.12954577598765,161994959.69613403,161994959.69613403,19.429420439973192,7.544058173115856,26504.20333555693,82.10000000000001,47.53220924749724
1306893783.92,2.0843247,6.7061407,2483.84,17.0,3.2,44.4,-1.0,334.93307802821084,162842301.47405344,162842301.47405344,20.30467220477204,7.432551095885089,27147.35164374727,83.80000000000001,47.569750804802574
1306893784.34,2.0855196,6.7069142,2488.8,16.7,3.6,44.7,-1.0,326.03825534168095,164441763.74837148,164441763.74837148,19.66942994456401,7.545532063023324,27404.461238034262,83.6,47.606932563332755
1306893784.76,2.0867285,6.7076887,2493.95,16.4,3.7,45.0,-1.0,328.1304829558733,159822870.41536212,159822870.41536212,19.480490420724795,7.796110183565344,26822.690746415352,86.0,47.64595159220415
1306893785.18,2.0878895,6.7084246,2499.08,15.8,3.9,45.3,-1.0,314.51600826085945,152974137.67474192,152974137.67474192,19.484311564897485,7.861005044397209,26655.00145635153,86.60000000000001,47.68472565169671
1306893785.61,2.0891037,6.7091864,2504.67,15.1,4.1,45.5,-1.0,319.40567395795995,147833122.83957753,147833122.83957753,20.790888551933904,7.728541659631229,26719.51007578274,87.30000000000001,47.723737025275014
1306893786.03,2.0902785,6.7099156,2510.34,14.2,4.3,45.8,-1.0,315.2231454834151,142304586.59288573,142304586.59288573,20.470959763269523,7.745575166635104,26578.001306139788,87.0,47.763123508214655
1306893786.45,2.0914309,6.7106239,2516.2,13.2,4.5,46.1,-1.0,308.3150622818904,137037415.50352928,137037415.50352928,19.968166410013893,7.583660185663726,26037.514779548885,85.5,47.803122414601354
1306893786.87,2.0925831,6.7113252,2522.39,12.2,4.8,46.3,-1.0,307.1034925803134,133823191.57164784,133823191.57164784,21.531052060653437,7.435733177284201,25401.692057792767,84.9,47.84398636910704
1306893787.3,2.0937292,6.7120165,2528.9,11.0,5.1,46.5,-1.0,297.8138031713133,129594090.45980616,129594090.45980616,21.844001974537804,7.2742835593203985,25296.287743927474,86.70000000000002,47.8861211022654
1306893787.72,2.0948689,6.712698,2535.75,9.7,5.4,46.8,-1.0,301.83050978537125,125396417.51193696,125396417.51193696,21.30138091494888,7.534578817809179,25275.85071584231,89.0,47.929664409352014
1306893788.15,2.096018,6.7133796,2543.08,8.5,5.7,46.9,-1.0,296.6040152728618,120523842.36698209,120523842.36698209,21.961782882833646,7.520124015903616,24779.936291928934,90.2,47.975014365607485
1306893788.57,2.0971412,6.714041,2550.66,7.2,6.0,47.1,-1.0,296.03211162192747,116646046.05578426,116646046.05578426,22.503386174853627,7.4925540291363495,24809.44046027892,90.2,48.022370008652096
1306893788.99,2.0982336,6.7146801,2558.46,5.9,6.3,47.1,-1.0,287.77138898137594,110377725.08171333,110377725.08171333,22.993866793616917,7.381220892914821,24772.208156859193,87.50000000000001,48.07175430436513
1306893789.41,2.0993186,6.7153115,2566.64,4.7,6.6,47.4,-1.0,285.4330823798303,107529485.82663503,107529485.82663503,25.038121628327495,7.139667567197412,24933.123492028473,87.70000000000002,48.12347346447012
1306893789.83,2.1004165,6.7159472,2575.36,3.5,6.9,47.4,-1.0,288.11258201372345,102758875.551222,102758875.551222,22.52828987035219,7.388900125560463,24877.718110215534,87.30000000000001,48.177588731311765
1306893790.26,2.101506,6.7165756,2584.48,2.2,7.2,47.4,-1.0,279.49099696696,98535200.09781575,98535200.09781575,24.27393669822243,7.524564596995238,24336.05875299194,88.10000000000001,48.234345074268894
1306893790.69,2.1025968,6.7172026,2594.06,1.1,7.5,47.6,-1.0,279.55046955762464,96891005.14714006,96891005.14714006,24.80436625650573,7.655606147118346,25209.30328469049,89.4,48.29394918625489
1306893791.12,2.1036684,6.7178172,2603.94,0.0,7.8,47.6,-1.0,274.85418443568534,93340910.96015222,93340910.96015222,24.918485596969486,7.939163700369672,25479.079401923045,89.7,48.3563781013905
1306893791.54,2.1047069,6.7184119,2613.94,-1.0,8.1,47.6,-1.0,272.7206675419212,90717677.26230264,90717677.26230264,25.600958463545336,7.863022428694348,24953.015772705236,88.30000000000001,48.421478713813954
1306893791.96,2.1057295,6.7189972,2624.21,-1.9,8.5,47.6,-1.0,268.9572891529381,87699935.15180561,87699935.15180561,25.813092905082666,7.839431059686415,24550.790330223692,84.8,48.48919743647361
1306893792.38,2.1067662,6.719591,2635.06,-2.7,8.7,47.6,-1.0,272.5366520212304,85582651.76502258,85582651.76502258,23.993882049350233,7.788781014740515,24742.217593618057,85.2,48.559610822300385
1306893792.8,2.107788,6.7201771,2646.17,-3.5,8.9,47.6,-1.0,269.1676339314419,80853479.39820775,80853479.39820775,24.705412489701963,7.8615360123888385,24629.60924768509,86.60000000000001,48.63272652658735
1306893793.22,2.1088095,6.7207647,2657.69,-4.2,9.1,47.3,-1.0,269.4392950184958,78214082.39413577,78214082.39413577,24.67359967560519,8.036440738466133,25311.63355384521,87.7,48.70868999990318
1306893793.65,2.1098526,6.7213668,2669.88,-4.8,9.3,47.2,-1.0,269.29158776849374,74659927.70129682,74659927.70129682,22.431090977313563,8.0867085539857,25693.877436840277,87.7,48.78772324574746
1306893794.07,2.1108875,6.7219666,2682.36,-5.4,9.4,47.1,-1.0,273.7618342951237,69451425.40209426,69451425.40209426,23.8398930972262,8.076961862185541,25899.059149823894,89.80000000000001,48.86963488179295
1306893794.49,2.1119168,6.7225658,2695.15,-5.9,9.6,47.0,-1.0,272.920288314932,65716769.24360167,65716769.24360167,23.113761344894964,7.998794106037609,26228.640766861212,90.6,48.95435601040189
1306893794.91,2.1129502,6.7231702,2708.35,-6.3,9.6,47.0,-1.0,274.5634094870764,62631029.37027527,62631029.37027527,25.20131300735775,7.762437425858167,25904.02765818358,90.0,49.0418483551088
1306893795.33,2.1139797,6.7237749,2721.83,-6.7,9.9,46.7,-1.0,274.1541045694242,59898877.455156945,59898877.455156945,25.15477884558792,7.568063926556869,26315.060662240867,92.50000000000001,49.13209660532751
1306893795.77,2.1150467,6.7244042,2736.12,-8.3,9.9,46.6,-1.0,271.9436407386643,58143405.03865229,58143405.03865229,24.312451172801303,7.8574323401841895,26203.714003190424,91.60000000000002,49.22562897628114
1306893796.19,2.1160721,6.7250123,2750.15,-17.8,10.2,46.3,-1.0,274.32963503579776,58970447.889083244,58970447.889083244,22.9039702419658,7.547777402310321,26248.23147371195,93.70000000000002,49.32203973743599
1306893796.63,2.1171333,6.7256487,2764.95,-25.3,10.5,45.9,-1.0,272.5495782519954,59193765.35663794,59193765.35663794,25.0291999578949,7.375935432476488,26422.01112577023,91.60000000000002,49.421474339360756
1306893797.07,2.1181722,6.726282,2779.75,-24.1,10.7,45.3,-1.0,269.161883869205,60737557.490236335,60737557.490236335,24.83554407516485,7.466317471146707,26036.60854214942,93.30000000000003,49.52373374443513
1306893797.5,2.1191745,6.7269029,2794.35,-22.7,10.9,44.8,-1.0,267.82507563947837,63015913.14848581,63015913.14848581,25.140113892988456,7.1564648025031135,25593.798232016932,92.40000000000002,49.628350979780706
1306893797.92,2.120121,6.7274979,2808.44,-22.6,10.9,44.3,-1.0,261.3338213765892,64710927.364819445,64710927.364819445,26.62717311372564,7.205063631711539,25231.56844401052,92.90000000000002,49.73442272081308
1306893798.34,2.1210761,6.7281068,2822.93,-20.5,10.9,43.8,-1.0,265.1939201440097,66581471.673828475,66581471.673828475,25.03544153713336,6.899371890945486,24847.915411780166,91.20000000000002,49.842033175756214
1306893798.77,2.1220109,6.7287104,2837.37,-17.6,10.9,43.4,-1.0,255.8844643827055,67611014.06524046,67611014.06524046,25.965534412974254,6.764823439203382,24350.932417580323,89.80000000000001,49.95090675405892
1306893799.2,2.1229459,6.7293206,2852.03,-15.6,10.9,43.0,-1.0,257.24771590685947,68840425.34855549,68840425.34855549,25.72293123175319,6.743396321086011,24398.372965244977,89.4,50.06089800515254
1306893799.63,2.1238729,6.7299311,2866.74,-13.9,10.9,42.7,-1.0,256.26134883921316,68553042.92958793,68553042.92958793,26.734430075529218,6.653331754049616,23633.624818620912,86.99999999999999,50.171830857296015
1306893800.05,2.1247484,6.7305122,2880.77,-12.2,11.5,42.4,-1.0,249.3862780983867,67112852.3386033,67112852.3386033,26.572653418966798,6.565078827392284,24517.278447010016,88.3,50.282564671819195
1306893800.47,2.1256243,6.7310972,2894.92,-11.4,11.5,42.2,-1.0,250.24010448421467,66045862.367516585,66045862.367516585,27.400217242989,6.936343632114268,24405.943349601508,89.60000000000001,50.393390349859445
1306893800.9,2.1265003,6.7316857,2909.15,-10.8,11.5,42.0,-1.0,245.61930396109366,64099377.412998535,64099377.412998535,26.35209284533118,7.1953277977634365,24226.112675140794,88.30000000000001,50.503779676193645
1306893801.32,2.1273482,6.7322585,2923.0,-10.3,11.7,41.7,-1.0,244.23073389219948,62262048.11528023,62262048.11528023,24.93456738872514,7.253647402634912,24220.253585677598,87.80000000000003,50.61344174968447
1306893801.74,2.1281969,6.7328347,2936.92,-8.8,11.7,41.5,-1.0,244.97684056512773,61180128.16530165,61180128.16530165,24.25578899205443,7.435021944432993,24074.84206986544,88.20000000000002,50.72258326324527
1306893802.17,2.1290424,6.733411,2950.82,-5.2,11.8,41.4,-1.0,239.426292419424,59692020.46908164,59692020.46908164,23.331293446667395,7.331854076103395,24268.041645568326,89.8,50.831579326237396
1306893802.59,2.1298451,6.7339591,2964.02,-1.4,11.9,41.4,-1.0,233.5096627482966,57214001.94539853,57214001.94539853,25.873152974462716,7.60791130186609,24710.831812634842,91.80000000000001,50.93958785642113
1306893803.01,2.1306647,6.7345183,2977.46,1.7,11.9,41.4,-1.0,237.86232741002786,57261230.58902565,57261230.58902565,25.7496868881637,7.796980518572618,25565.61109270335,89.9,51.046830857296015
1306893803.44,2.1314731,6.7350681,2990.64,4.9,11.8,41.4,-1.0,229.56753392137654,54771923.50630911,54771923.50630911,24.202003463117965,8.107387242792973,25563.446204607604,91.3,51.15294087479383
1306893803.87,2.1322884,6.73562,3003.81,7.7,11.8,41.5,-1.0,230.83926269414548,54115315.6194451,54115315.6194451,24.350183031045624,8.206333363976206,25664.446667093307,92.6,51.25787197715603
1306893804.3,2.1331019,6.7361667,3016.77,10.2,11.8,41.7,-1.0,229.6104441612483,53674484.60920569,53674484.60920569,26.844134983004963,8.132391650029945,24775.725470958034,93.4,51.361983963157776
1306893804.73,2.1339013,6.7366994,3029.31,12.3,11.8,41.9,-1.0,225.04149461275037,50943610.28896489,50943610.28896489,26.90740834237563,7.904692349520868,24719.577827280562,93.00000000000001,51.4648634469723
1306893805.17,2.1347226,6.7372412,3041.94,14.3,11.6,42.2,-1.0,224.76709224585818,49897709.58474918,49897709.58474918,28.226068472019136,7.91541350585954,24505.70262685089,95.9,51.56651808389269
1306893805.59,2.1354922,6.7377432,3053.51,16.0,11.5,42.5,-1.0,219.91022750738645,48479749.67784975,48479749.67784975,29.47002060299458,7.7511181359341474,24066.913006692357,95.4,51.666427313988926
1306893806.02,2.1362848,6.7382539,3065.14,17.6,11.4,42.9,-1.0,219.86091167625852,46506785.343029894,46506785.343029894,30.75738979634471,7.551805463608598,23995.410652729173,95.00000000000001,51.764583481967925
1306893806.45,2.1370786,6.7387585,3076.46,19.1,11.4,43.3,-1.0,218.72879442646092,45731437.24916713,45731437.24916713,30.605844190393945,7.8537757921329625,23724.562713779836,94.00000000000001,51.86076458433013
1306893806.87,2.1378409,6.7392362,3087.0,20.5,11.1,43.7,-1.0,214.06620350279525,45191449.57657758,45191449.57657758,30.769496611396608,7.7545804258102145,23479.143986656312,93.00000000000001,51.95490937873083
1306893807.3,2.1386456,6.7397328,3097.74,21.8,11.1,44.2,-1.0,218.5244766849192,43646598.380873114,43646598.380873114,30.280570295607568,7.464471742288677,23155.13929613441,93.2,52.04698724399768
1306893807.73,2.1394287,6.7402082,3107.8,23.0,10.8,44.6,-1.0,211.76200461392972,41974286.85899662,41974286.85899662,30.847572175930434,7.463196852452368,23397.285859894208,93.30000000000001,52.13667665782095
1306893808.18,2.1402419,6.7406933,3117.79,24.3,10.5,45.2,-1.0,208.6335095352341,40372554.57315603,40372554.57315603,28.41592797225897,7.5875325372288875,23622.978641555237,92.50000000000001,52.22393168844212
1306893808.62,2.1410434,6.7411627,3127.18,25.5,10.3,45.7,-1.0,208.5112326904237,39351857.85599553,39351857.85599553,28.007615505447973,7.628097490532329,23807.7356413418,92.0,52.30845377943074
1306893809.04,2.1418038,6.7415998,3135.63,26.6,10.0,46.2,-1.0,205.69323124764466,38167232.30387467,38167232.30387467,28.550285229739224,7.518692403667933,24357.204860401886,89.8,52.38984485554624
1306893809.46,2.1425786,6.7420373,3143.79,27.5,9.7,46.8,-1.0,207.75939180695846,37481927.56584451,37481927.56584451,27.842117197447422,7.553556893737251,24223.061160201843,89.6,52.46781401565122
1306893809.9,2.1433966,6.7424906,3151.91,28.2,9.4,47.4,-1.0,207.58985572337954,36951174.61858185,36951174.61858185,25.477675500378954,7.700102187378119,25044.059831548188,88.29999999999998,52.543142099640725
1306893810.32,2.1441787,6.7429161,3159.2,28.0,8.9,48.0,-1.0,206.43284924137637,34743735.85888047,34743735.85888047,24.388639014780733,7.864313431097803,25616.30824254558,88.60000000000001,52.61514778642987
1306893810.74,2.1449651,6.7433366,3166.05,29.4,8.5,48.6,-1.0,206.0138316006408,32552801.896760482,32552801.896760482,26.669163426407426,7.579824956773348,25255.192827843046,88.9,52.68373155720853
1306893811.16,2.1457666,6.7437579,3172.54,30.5,8.1,49.1,-1.0,208.27762985779785,30918852.77902217,30918852.77902217,25.635213522653025,7.708071658279259,25360.93672856739,87.3,52.7492149342864
1306893811.6,2.1466279,6.7442025,3178.95,30.8,7.6,49.8,-1.0,211.6557171702309,28090856.0976609,28090856.0976609,24.802131864187665,7.9773018496491,25288.01810160098,90.1,52.811383569457
1306893812.04,2.1474945,6.7446418,3184.84,31.2,7.1,50.4,-1.0,211.40948971798187,26458929.379938953,26458929.379938953,23.551613877139904,7.884797443557263,24870.194394933154,90.0,52.87035994740975
1306893812.46,2.1483485,6.745067,3190.08,31.5,6.6,51.0,-1.0,216.25098394667376,25290023.511889767,25290023.511889767,23.15239451373849,7.642889114768442,24880.98629182555,91.80000000000001,52.925700061145534
1306893812.89,2.1492303,6.7454984,3194.93,31.4,6.1,51.5,-1.0,216.55769465467762,23164631.296937715,23164631.296937715,22.250269292099993,7.517861155056329,25482.51681169782,89.9,52.97756467181921
1306893813.32,2.1501387,6.7459351,3199.35,30.9,5.6,52.1,-1.0,221.24500202088393,22012481.070278816,22012481.070278816,21.826308135618763,7.671392379467282,25148.345410256086,88.99999999999999,53.026344199378265
1306893813.74,2.1510358,6.7463593,3203.14,30.1,5.1,52.6,-1.0,222.2072358998824,20801312.46015819,20801312.46015819,21.010528923429867,7.468165186554953,24879.41861852436,89.8,53.071778363857696
1306893814.16,2.1519442,6.7467822,3206.42,28.9,4.6,53.1,-1.0,223.6656868028046,20133766.498116273,20133766.498116273,23.65835007822275,7.541570931733396,24834.910054596945,89.70000000000002,53.11350736648237
1306893814.58,2.1528657,6.7472051,3209.18,27.2,4.1,53.6,-1.0,225.54461678285887,20349056.095394984,20349056.095394984,25.009982032290257,7.420212426615201,24650.071440004747,90.70000000000002,53.151768521338006
1306893815.0,2.153816,6.7476353,3211.46,25.1,3.6,54.0,-1.0,231.0005263079745,21281901.25464365,21281901.25464365,22.225555538925928,7.529974906697865,25216.621873407028,87.9,53.186531207252266
1306893815.42,2.154761,6.748058,3213.16,22.9,3.1,54.4,-1.0,228.98899080393463,21703775.264653064,21703775.264653064,20.763819565786815,7.526165188260169,25432.71840860935,88.1,53.21762700777721
1306893815.84,2.1557297,6.7484869,3214.33,20.4,2.6,54.7,-1.0,233.57921919762575,23044463.64595205,23044463.64595205,21.259872373804022,7.27418685636865,25320.382255652446,85.00000000000001,53.24471143472384
1306893816.26,2.1567144,6.7489189,3214.97,17.4,2.1,55.0,-1.0,236.42932484778143,23998974.49346826,23998974.49346826,22.311015943530748,7.041988705145905,25111.380537873287,82.00000000000001,53.26777683279907
1306893816.69,2.1577425,6.7493663,3215.05,13.9,1.7,55.2,-1.0,240.242898951638,24166503.371352524,24166503.371352524,23.75683835766718,7.219437427254613,25455.799140931624,82.30000000000001,53.286892099640724
1306893817.11,2.1587304,6.7497934,3214.61,9.8,1.3,55.4,-1.0,236.1733155534308,25113632.661704563,25113632.661704563,22.609118686104658,7.1598566778319634,25653.202366422964,84.60000000000002,53.30195771643863
1306893817.53,2.1597571,6.7502351,3213.63,5.7,1.0,55.4,-1.0,244.39362160183856,26804313.295586847,26804313.295586847,22.509460553336705,7.364764306329791,26069.61234535402,88.00000000000003,53.31288947496881
1306893817.96,2.1607828,6.7506753,3212.16,1.4,0.7,55.4,-1.0,238.71425919351125,27079546.12858413,27079546.12858413,21.717679984220347,7.3780574981631135,26112.868118822415,84.39999999999999,53.31979454933451
1306893818.38,2.1617963,6.7511099,3210.27,-3.0,0.5,55.4,-1.0,241.37391610752258,29949384.277880203,29949384.277880203,19.349341343560233,7.021873058312426,26304.047604364332,86.19999999999999,53.32274183717353
1306893818.81,2.1628278,6.7515531,3207.96,-7.2,0.3,55.5,-1.0,240.0868549971521,33133586.992230494,33133586.992230494,17.393013428519044,7.003291389624568,26500.49828953626,88.0,53.32180789141675
1306893819.23,2.1638493,6.7519938,3205.32,-11.2,0.3,55.3,-1.0,243.51553969297666,35201603.78076495,35201603.78076495,18.569986458357604,6.853064434998899,26031.13510692182,90.0,53.317107541460494
1306893819.66,2.1648982,6.7524496,3202.32,-15.0,0.3,55.1,-1.0,244.6945409147655,37760308.89085564,37760308.89085564,19.741145860448846,6.613174336176439,25829.62199515529,90.6,53.308809203752716
1306893820.08,2.1658938,6.7528864,3199.25,-18.0,0.2,54.8,-1.0,238.97191566966387,39538541.26166698,39538541.26166698,18.96951725011245,6.769333934328481,25760.83288192125,93.3,53.29726502177545
1306893820.5,2.1669026,6.7533344,3195.98,-20.1,0.2,54.4,-1.0,242.74272540749323,41207513.17473638,41207513.17473638,20.436529326408596,6.877407567601246,25949.244547890234,95.39999999999999,53.28272762020065
1306893820.92,2.1679161,6.7537908,3192.83,-20.9,4.8,54.0,-1.0,244.732759527224,41431938.18732825,41431938.18732825,21.238499286660304,6.817514051422676,25866.50725803027,91.6,53.26571755895831
1306893821.34,2.1688919,6.7542387,3192.14,-25.1,8.5,53.2,-1.0,237.66823641166536,42580235.286370605,42580235.286370605,21.595012913379193,6.861591139272334,24936.032656550735,88.69999999999999,53.24851611538875
1306893821.76,2.1698638,6.7546976,3194.91,-25.0,10.2,52.3,-1.0,238.90647389064065,44273403.779943995,44273403.779943995,20.476518935795156,6.4782409312425004,24116.739007003347,86.3,53.234185406727335
1306893822.19,2.1708609,6.7551802,3201.02,-25.0,10.5,51.8,-1.0,241.58087973136503,45790438.16920819,45790438.16920819,22.29443102646722,6.43590791069801,24631.617270710256,89.20000000000002,53.2256574102269
1306893822.61,2.1718113,6.7556475,3209.17,-25.2,11.7,51.3,-1.0,237.7902550567245,45661631.51844882,45661631.51844882,21.957587086817032,6.679448823115569,24359.09507565906,87.4,53.22481532798718
1306893823.04,2.1727575,6.756118,3219.21,-25.5,12.4,51.0,-1.0,233.05562492104622,47770179.26436471,47770179.26436471,23.546032961756904,7.010268660097571,24255.231079410984,85.30000000000001,53.23342753271159
1306893823.47,2.1737091,6.7565951,3230.93,-25.8,12.5,50.8,-1.0,235.31971748349733,48640574.10601495,48640574.10601495,25.18331669429015,7.089451101371998,24824.300523785594,83.20000000000002,53.25303273831089
1306893823.89,2.1746357,6.7570613,3243.39,-26.0,11.9,50.8,-1.0,235.26165522497433,47267928.83491129,47267928.83491129,25.66851356458099,7.4031574599025145,24437.969301600613,82.60000000000001,53.284473027024795
1306893824.31,2.1755589,6.7575255,3256.18,-26.0,11.3,50.8,-1.0,234.50863283412394,47694786.93396878,47694786.93396878,26.119733303548255,7.561110056601468,24602.96059516882,79.9,53.32805461057685
1306893824.73,2.1764592,6.7579767,3268.58,-25.6,10.7,50.9,-1.0,228.8908916825493,46846184.505085215,46846184.505085215,23.209850457828995,7.4735605608955495,24846.446547159772,80.50000000000001,53.383632038398375
1306893825.15,2.1773866,6.7584396,3281.03,-25.0,10.3,51.1,-1.0,234.8135562985326,44809965.22521789,44809965.22521789,21.93784918618742,7.35257293405976,24192.516420213855,81.0,53.45115172343775
1306893825.57,2.1783294,6.758908,3293.31,-24.1,10.3,51.3,-1.0,237.84569470448898,42616694.82725735,42616694.82725735,21.89831374144515,7.55128001205204,24229.788981205755,81.5,53.528600323612736
1306893825.99,2.1792834,6.7593794,3305.41,-22.9,10.3,51.5,-1.0,240.01339973123663,40148907.173629984,40148907.173629984,21.381640890649816,7.772990563233443,24929.099199562574,83.80000000000001,53.61319131223915
1306893826.41,2.1802533,6.7598559,3317.5,-21.5,10.2,51.7,-1.0,243.08740909385804,36818744.632559925,36818744.632559925,19.676600675031303,7.715731882409456,24692.158691646862,82.8,53.70236016613241
1306893826.83,2.1812159,6.7603256,3329.48,-19.7,10.5,52.0,-1.0,240.88847997908317,32839619.58810376,32839619.58810376,22.3060471301539,7.786876314752232,24382.390984315865,84.3,53.79446099727852
1306893827.25,2.1821918,6.7607981,3341.82,-17.4,11.1,52.3,-1.0,243.378728409673,30929707.932920847,30929707.932920847,23.140791373954535,7.569427605477492,23948.4120060057,85.10000000000001,53.88832254583494
1306893827.67,2.1831993,6.7612821,3355.06,-14.9,12.0,52.5,-1.0,250.20341236035918,30260519.07911803,30260519.07911803,22.51608138059265,7.850258446291781,24167.1975145549,87.5,53.983347698940804
1306893828.09,2.1841999,6.7617589,3369.03,-13.5,12.8,52.8,-1.0,248.2611923384696,29481101.06620737,29481101.06620737,21.30818739706721,7.819209844825066,24721.446081572798,90.8,54.079528801303006
1306893828.51,2.1852144,6.7622382,3384.19,-12.1,13.6,53.1,-1.0,251.09141198991105,30633057.655921984,30633057.655921984,21.10369570039637,7.6088763194237785,25080.491488942178,93.80000000000001,54.17752420812717
1306893828.93,2.1862209,6.762709,3400.27,-10.8,14.3,53.4,-1.0,248.8500143837466,32527839.172605895,32527839.172605895,23.470262720843902,7.686234168489979,24523.452459661155,94.30000000000001,54.278336762807825
1306893829.35,2.1872607,6.7631901,3417.97,-9.5,15.0,53.8,-1.0,256.04170435590197,33718041.687516816,33718041.687516816,25.268398383762566,8.003982405696075,24783.61702097192,97.30000000000001,54.38316834635988
1306893829.98,2.1888172,6.7638989,3446.59,-7.6,16.3,54.4,-1.0,254.95661275052038,34702900.75853438,34702900.75853438,26.233628135390145,8.034720934451752,25442.691396638762,100.00000000000001,54.50050867881832
1306893830.61,2.1904047,6.7646069,3478.6,-7.6,17.8,55.0,-1.0,258.91649484444946,36405432.68171855,36405432.68171855,26.224834087162996,7.965639717460268,24775.410648150584,98.60000000000001,54.633090699815696
1306893831.03,2.191471,6.765075,3501.95,-7.6,18.8,55.3,-1.0,260.51403181333365,36978276.19702622,36978276.19702622,26.037269140894704,8.309429033431181,24748.680080610582,98.80000000000003,54.77429258083057
1306893831.46,2.1925619,6.7655496,3527.47,-7.6,19.8,55.5,-1.0,260.50928287825167,37865555.04108506,37865555.04108506,25.57704431232715,8.2031633275142,24682.16629346125,98.50000000000001,54.92585972868709
1306893831.88,2.1936126,6.7660033,3553.62,-7.8,20.7,55.8,-1.0,257.5514656885169,39354553.79990639,39354553.79990639,24.84424509138082,8.303797585205452,24913.97810859663,97.00000000000001,55.08799883629864
1306893832.51,2.1952157,6.7666909,3596.55,-7.8,22.3,55.8,-1.0,262.38303749382436,41420458.70438988,41420458.70438988,25.024727767539872,8.227824778293447,24073.287875252565,95.80000000000003,55.27286650908954
1306893832.73,2.195776,6.7669309,3612.48,-8.1,22.9,55.8,-1.0,263.6586832546321,43559006.70738487,43559006.70738487,26.651664436993492,8.224145357349464,23716.9105364797,92.30000000000001,55.459234619325755
1306893833.15,2.1968671,6.7673979,3644.98,-7.6,24.1,55.8,-1.0,269.45409914688923,45572068.13931615,45572068.13931615,28.76679168793769,8.229844305228251,23338.97422622179,90.10000000000001,55.6588770077772
1306893833.59,2.1979674,6.7678684,3679.9,-7.8,25.4,55.9,-1.0,261.43715945175023,46941782.79180402,46941782.79180402,27.771438107111827,8.126110401687459,23342.170108333212,90.7,55.872941968407126
1306893833.8,2.1984954,6.7680944,3697.46,-7.9,26.1,55.9,-1.0,264.0727735038995,47608359.51371357,47608359.51371357,26.544066714884764,8.07540209065524,23704.15743039393,87.60000000000001,56.08689975493381
1306893834.45,2.2001352,6.7687997,3755.76,-8.2,28.3,55.6,-1.0,267.0797362588172,47450872.8707814,47450872.8707814,27.87121447979315,7.885074112069733,23617.435220618445,86.9,56.32357845134676
1306893835.3,2.202212,6.7697077,3839.15,-9.1,31.8,54.9,-1.0,264.231609917657,47199591.96190026,47199591.96190026,27.820143152403414,7.94120768483466,24082.887181651262,87.2,56.59959004364773
1306893835.73,2.2032407,6.7701677,3885.21,-9.8,33.7,54.4,-1.0,264.8233601232496,48406392.760776214,48406392.760776214,28.606653308991667,7.8858652005437735,24285.37611411489,86.10000000000001,56.89298680655236
1306893835.95,2.2037714,6.7704088,3910.43,-10.3,34.7,54.0,-1.0,270.66020460787485,49308806.49003229,49308806.49003229,28.09023201166367,7.999181409758051,24703.281255346577,85.0,57.18615391066434
1306893836.16,2.2042557,6.7706317,3934.41,-10.8,35.7,53.6,-1.0,262.2821579127214,48281927.19141009,48281927.19141009,26.736055046500198,7.929558658003372,25164.257014221774,84.3,57.47765981617615
1306893836.39,2.2047931,6.7708826,3962.13,-11.4,36.7,53.2,-1.0,268.66780909830965,51531966.88498914,51531966.88498914,25.841490814332392,7.899152659531831,25528.913852423,86.6,57.75752202090056
1306893836.61,2.2052746,6.7711111,3988.05,-12.1,37.7,52.7,-1.0,255.9770350319183,52432345.92027183,52432345.92027183,23.691032556340957,7.684972959586248,25515.582054006532,89.6,58.04503186342025
1306893837.03,2.2062136,6.7715692,4041.84,-13.4,39.8,51.6,-1.0,266.5610533670665,56047361.43996413,56047361.43996413,21.535746208921378,7.902725101775165,25535.266675253857,89.19999999999999,58.348839824925065
1306893837.24,2.2066634,6.7717956,4069.33,-14.3,41.0,50.9,-1.0,262.2150801473763,60665002.414092906,60665002.414092906,20.316097850791365,8.273110291717597,26245.991554374785,85.5,58.64695990366522
1306893837.87,2.2079419,6.7724711,4155.04,-18.3,45.7,48.4,-1.0,258.5916677037465,64649831.33121164,64649831.33121164,20.90607839830945,7.943200229154626,26421.916175965318,85.49999999999999,58.997250804802576
1306893838.29,2.2087336,6.7729242,4215.98,-22.5,49.1,46.0,-1.0,256.8469424665336,66863484.19475412,66863484.19475412,18.47648298463207,8.092172694071117,26327.70056730134,84.70000000000002,59.34956270331526
1306893839.14,2.2101102,6.7738249,4344.34,-34.5,54.4,39.6,-1.0,247.09426208585242,67591711.89366041,67591711.89366041,19.19322225946312,8.021767460335825,26677.68068832301,82.50000000000001,59.73630045484632
1306893839.35,2.2104113,6.7740494,4377.61,-36.8,55.4,38.0,-1.0,244.8356479488723,66109821.647369996,66109821.647369996,19.85257733510049,8.03248588836908,26261.641034355816,82.3,60.11324708651736
1306893839.56,2.2106799,6.7742618,4409.44,-38.7,56.5,36.0,-1.0,230.764665451782,64791067.50390198,64791067.50390198,20.101408021287806,7.895051604241412,26338.652800370473,84.10000000000001,60.49525386691982
