timestamp,longitude,latitude,altitude,roll,pitch,yaw,heading,air_speed,engine_0,engine_1,engine_2,engine_3,temperature_in,humidity_in,pressure_in,heart_rate,oxygen_mask
1306893651.15,5.8544104,3.9282649,-1.0,-1.0,1.1,-1.0,-1.0,50.03768929419622,21371702.26022393,21371702.26022393,21371702.26022393,21371702.26022393,23.818281625476274,7.366853739030922,24780.246017824902,91.50000000000001,34.436061850530486
1306893663.79,5.86171,3.9296268,-1.0,-1.0,1.0,-1.0,-1.0,50.03768929419622,25612757.17339503,25612757.17339503,25612757.17339503,25612757.17339503,23.66046687770903,7.546814202259972,24693.699558232485,89.10000000000001,34.36315283915691
1306893705.11,5.9020464,3.9372573,99.6,1.1,6.6,-1.0,-1.0,84.31027827999617,24926402.751267295,24926402.751267295,24926402.751267295,24926402.751267295,24.237153393990873,7.372329097946805,24406.7365569531,88.00000000000001,34.36665896339138
1306893705.97,5.9030301,3.9374466,99.04,1.1,6.5,77.0,-1.0,98.82950318745638,14651657.609383143,14651657.609383143,14651657.609383143,14651657.609383143,22.858667771211845,7.318893200918295,24185.728230036508,88.39999999999999,34.36864168430127
1306893706.19,5.9032916,3.9374964,98.64,1.1,6.4,77.0,-1.0,102.60552679231037,12913524.271423776,12913524.271423776,12913524.271423776,12913524.271423776,23.165899543156037,7.4005357237895515,24055.007122526975,90.39999999999999,34.36985122060922
1306893706.63,5.9037975,3.9375924,97.65,1.1,6.3,77.0,-1.0,99.22011548662987,12913524.271423774,12913524.271423774,12913524.271423774,12913524.271423774,23.165899543156037,7.400535723789552,24055.007122526975,90.4,34.36985122060923
1306893706.84,5.9040524,3.9376405,97.06,1.1,6.2,77.0,-1.0,104.59647900360753,14651657.609383142,14651657.609383142,14651657.609383142,14651657.609383142,22.85866777121184,7.318893200918295,24185.728230036508,88.4,34.36864168430126
1306893707.05,5.9042916,3.9376854,96.45,1.1,6.1,77.1,-1.0,98.22176902852085,24926402.751267295,24926402.751267295,24926402.751267295,24926402.751267295,24.237153393990866,7.372329097946807,24406.736556953103,88.00000000000001,34.36665896339137
1306893707.48,5.9048008,3.9377805,95.02,1.1,6.0,77.1,-1.0,102.19680808811309,25612757.173395038,25612757.173395038,25612757.173395038,25612757.173395038,23.660466877709023,7.546814202259972,24693.699558232485,89.1,34.3631528391569
1306893707.7,5.9050568,3.937828,94.24,1.0,5.9,77.1,-1.0,100.32132719968853,21371702.260223925,21371702.260223925,21371702.260223925,21371702.260223925,23.818281625476274,7.3668537390309226,24780.246017824906,91.5,34.436061850530486
1306893708.12,5.9055605,3.9379211,92.64,1.0,6.0,77.2,-1.0,103.46033258753401,13433897.00190994,13433897.00190994,13433897.00190994,13433897.00190994,23.77774281440002,7.5512361380353505,24621.80394969515,90.60000000000001,34.50774601500992
1306893708.34,5.9058213,3.937969,91.83,0.9,6.1,77.2,-1.0,102.10009792450819,3552435.467431008,3552435.467431008,3552435.467431008,3552435.467431008,24.11500680207096,7.570734616261486,24914.185304316663,91.60000000000001,34.57881010074921
1306893708.56,5.906095,3.9380192,91.05,0.9,6.3,77.2,-1.0,107.16151099176727,7450487.564722869,7450487.564722869,7450487.564722869,7450487.564722869,26.012003255051518,7.363632312955157,25211.799248674295,92.30000000000001,34.572264825158655
1306893708.77,5.906343,3.9380645,90.43,0.9,6.5,77.2,-1.0,101.76230976474069,5406610.325064779,5406610.325064779,5406610.325064779,5406610.325064779,27.230994084494657,7.418920815790938,25185.41218826957,93.00000000000001,34.56567361780957
1306893708.99,5.9066061,3.9381124,89.89,0.8,6.9,77.2,-1.0,103.15059666991547,5191246.720046033,5191246.720046033,5191246.720046033,5191246.720046033,26.556633705833327,7.358882866412286,25195.404808579155,90.0,34.558975236357256
1306893709.21,5.9068687,3.9381601,89.5,0.7,7.3,77.3,-1.0,102.52747481703074,4931222.389338355,4931222.389338355,4931222.389338355,4931222.389338355,26.405145734113503,7.247020696575446,25394.23228532414,86.9,34.552736172490235
1306893709.42,5.9071305,3.9382076,89.29,0.7,7.8,77.3,-1.0,107.39863405679675,1400636.2206865763,1400636.2206865763,1400636.2206865763,1400636.2206865763,27.207383678286977,7.32030755052712,25695.807180467913,86.8,34.546788009760576
1306893709.63,5.9073892,3.9382543,89.3,0.6,8.3,77.3,-1.0,106.06145307475794,1193972.7373702915,1193972.7373702915,1193972.7373702915,1193972.7373702915,27.080341962341407,7.054525162998769,25694.821292360808,86.50000000000001,34.5413144752024
1306893709.84,5.9076359,3.9382989,89.52,0.6,8.8,77.3,-1.0,101.05431531376114,1417117.1185647105,1417117.1185647105,1417117.1185647105,1417117.1185647105,29.80769637041145,6.965537480371453,25107.870447391942,86.9,34.5371040640038
1306893710.06,5.907906,3.9383477,90.0,0.5,9.2,77.3,-1.0,105.78674602448923,1113528.8787754655,1113528.8787754655,1113528.8787754655,1113528.8787754655,28.199475967542607,7.3068265360271045,24910.252431564633,84.2,34.533858219734334
1306893710.27,5.908164,3.9383942,90.7,0.4,9.4,77.3,-1.0,105.81291928869382,2760845.369233943,2760845.369233943,2760845.369233943,2760845.369233943,27.731060301511558,7.230067815605121,25563.035896579946,82.7,34.53237309287519
1306893710.48,5.9084208,3.9384406,91.61,0.3,9.6,77.4,-1.0,105.24323415432733,552746.2222801106,552746.2222801106,552746.2222801106,552746.2222801106,26.819430791673422,7.286723237848517,25167.299015307304,84.10000000000001,34.53220467642724
1306893710.69,5.9086776,3.938487,92.71,0.3,9.7,77.4,-1.0,105.53012721784435,1119798.7315859483,1119798.7315859483,1119798.7315859483,1119798.7315859483,26.661736263325672,7.474931981362774,25060.092597302886,82.70000000000002,34.53347545507991
1306893710.9,5.9089318,3.938533,93.98,0.2,9.8,77.4,-1.0,104.38059527129442,1472111.0645541977,1472111.0645541977,1472111.0645541977,1472111.0645541977,26.366023816817513,7.30557655001481,25628.559368904378,82.4,34.53619308412628
1306893711.32,5.9094375,3.9386247,96.95,0.1,9.7,77.4,-1.0,103.83739859333976,1429868.122640893,1429868.122640893,1429868.122640893,1429868.122640893,28.554980082000476,7.376649819167338,25075.66262221308,83.80000000000001,34.54159772104667
1306893711.54,5.9096998,3.9386725,98.68,0.0,9.6,77.4,-1.0,103.13010231243595,6838877.336923874,6838877.336923874,6838877.336923874,6838877.336923874,28.83108620088452,7.362790438260638,24942.401039228705,83.7,34.54862528010179
1306893711.76,5.9099741,3.9387226,100.6,0.0,9.5,77.4,-1.0,107.67801857578677,7281661.424363685,7281661.424363685,7281661.424363685,7281661.424363685,28.14407619199363,7.320260691756788,24008.69707390804,83.7,34.557283416584724
1306893711.97,5.9102324,3.9387699,102.5,-0.1,9.4,77.4,-1.0,106.27057015632236,4321943.601392761,4321943.601392761,4321943.601392761,4321943.601392761,28.86333653438491,7.309691510744244,23605.846893883358,85.00000000000001,34.567388403461365
1306893712.18,5.9104771,3.9388149,104.37,-0.1,9.3,77.4,-1.0,100.60490525647921,6724805.494075812,6724805.494075812,6724805.494075812,6724805.494075812,26.52558281537618,7.326191256800341,24206.056672489813,82.50000000000001,34.578756513697584
1306893712.39,5.9107375,3.9388629,106.4,-0.1,9.1,77.4,-1.0,107.32202865973278,8497562.820090542,8497562.820090542,8497562.820090542,8497562.820090542,26.270998496963053,7.159197970634936,24572.415423716422,83.6,34.591311194362504
1306893712.61,5.9110073,3.9389129,108.56,-0.2,9.0,77.4,-1.0,106.11775821976853,3301563.432185725,3301563.432185725,3301563.432185725,3301563.432185725,25.265534283023097,7.290512016397897,24562.67261497361,86.69999999999999,34.604983547818314
1306893712.82,5.9112613,3.9389601,110.61,-0.2,8.8,77.4,-1.0,104.84499285744884,3332760.007911558,3332760.007911558,3332760.007911558,3332760.007911558,23.910180525442954,7.105217378361362,25091.568978799867,85.10000000000001,34.61952860468621
1306893713.04,5.9115163,3.9390076,112.67,-0.2,8.6,77.4,-1.0,100.39554718753314,5703466.1407219805,5703466.1407219805,5703466.1407219805,5703466.1407219805,24.068344307508795,7.238782752219388,25295.09819106024,85.10000000000001,34.63480856969058
1306893713.26,5.9117882,3.9390585,114.84,-0.2,8.4,77.4,-1.0,106.85807985559315,7235424.350935158,7235424.350935158,7235424.350935158,7235424.350935158,22.757316460687612,7.222375621311077,24883.260094724967,85.9,34.65077751107291
1306893713.47,5.9120469,3.9391071,116.82,-0.3,8.1,77.4,-1.0,106.79938124739994,5043606.448458028,5043606.448458028,5043606.448458028,5043606.448458028,22.4712734145926,7.236919426607387,25353.182876509825,87.50000000000001,34.66598857843949
1306893713.68,5.9122922,3.9391535,118.61,-0.3,7.8,77.4,-1.0,101.06686162096754,7816532.798347052,7816532.798347052,7816532.798347052,7816532.798347052,21.673186857230768,7.376375658115642,25435.567031367453,91.20000000000002,34.681245577564596
1306893713.89,5.9125523,3.9392028,120.38,-0.3,7.6,77.4,-1.0,107.11534774805992,9721313.93096079,9721313.93096079,9721313.93096079,9721313.93096079,20.966323195393315,7.387739486310601,25858.624695892355,92.9,34.696387747293386
1306893714.11,5.912821,3.939254,122.05,-0.3,7.3,77.4,-1.0,105.59096727375388,4583002.0350230485,4583002.0350230485,4583002.0350230485,4583002.0350230485,20.725707109494913,7.529529264660628,26544.41930270208,91.50000000000001,34.71135384528114
1306893714.32,5.9130755,3.9393026,123.46,-0.3,7.0,77.3,-1.0,104.81408954726314,4967287.629462283,4967287.629462283,4967287.629462283,4967287.629462283,21.583265285578396,7.348782924072891,26412.2203441552,90.5,34.72596779978682
1306893714.53,5.9133279,3.9393509,124.68,-0.2,6.8,77.3,-1.0,103.8270133910237,5542710.282512412,5542710.282512412,5542710.282512412,5542710.282512412,23.572737495216536,7.430749192996354,26018.832167759647,89.5,34.73996167555236
1306893714.75,5.9135929,3.9394018,125.75,-0.2,6.6,77.3,-1.0,104.26541812660405,4768219.919441429,4768219.919441429,4768219.919441429,4768219.919441429,24.47400820512403,7.37410203183283,25398.612856600474,87.2,34.75312112437125
1306893714.97,5.9138548,3.9394522,126.6,-0.2,6.4,77.3,-1.0,102.74402346120162,4569630.497026005,4569630.497026005,4569630.497026005,4569630.497026005,27.427897576666076,7.556830355191295,25386.401880889178,86.80000000000001,34.765361938019545
1306893715.18,5.914116,3.9395025,127.26,-0.2,6.3,77.3,-1.0,107.5032713221326,10387014.778744416,10387014.778744416,10387014.778744416,10387014.778744416,25.26196036536636,7.480713041313726,25022.931650335653,88.9,34.776531010635466
1306893715.61,5.9146413,3.9396038,128.08,-0.1,6.4,77.3,-1.0,105.41278290377686,6724855.555979398,6724855.555979398,6724855.555979398,6724855.555979398,27.191165983177854,7.377164264605112,24881.982742297852,89.6,34.786666618684464
1306893715.82,5.9149018,3.9396539,128.3,-0.1,6.5,77.3,-1.0,107.19016780807283,3518488.767626687,3518488.767626687,3518488.767626687,3518488.767626687,26.706261278852537,7.528644780926252,25289.712995442176,90.39999999999999,34.79545489514991
1306893716.03,5.9151629,3.9397042,128.41,-0.1,6.6,77.3,-1.0,107.24429041168776,2891858.494714626,2891858.494714626,2891858.494714626,2891858.494714626,26.554051475377747,7.24727654400782,24779.819044622272,86.7,34.80295708237651
1306893716.24,5.915416,3.9397529,128.44,-0.0,6.8,77.3,-1.0,104.01098915620678,9335368.41205126,9335368.41205126,9335368.41205126,9335368.41205126,26.41126051779835,7.477592568679568,24403.364628017665,85.80000000000001,34.809127248605726
1306893716.46,5.9156932,3.9398062,128.41,-0.0,6.9,77.3,-1.0,108.69020486743281,9479032.455733372,9479032.455733372,9479032.455733372,9479032.455733372,26.08084603143599,7.47594014873682,23838.844109722253,86.00000000000001,34.81399601500992
1306893716.67,5.9159499,3.9398554,128.33,0.1,7.0,77.3,-1.0,105.60579051024803,9638575.104314044,9638575.104314044,9638575.104314044,9638575.104314044,27.112518722553126,7.531914631646415,23385.06490670998,87.60000000000001,34.817724142743955
1306893716.9,5.9162321,3.9399096,128.21,0.1,7.1,77.3,-1.0,106.01458124803405,4884328.582266878,4884328.582266878,4884328.582266878,4884328.582266878,25.267093394270272,7.284863382119177,23439.694799901146,91.20000000000002,34.82042646120414
1306893717.11,5.9164938,3.9399597,128.08,0.1,7.2,77.3,-1.0,107.47365067092414,1037310.7618908243,1037310.7618908243,1037310.7618908243,1037310.7618908243,23.734224778703904,7.409620985014812,23647.69736287839,93.80000000000001,34.82221014449374
1306893717.33,5.9167811,3.9400146,127.92,0.2,7.2,77.3,-1.0,112.63031948565727,3418326.035621794,3418326.035621794,3418326.035621794,3418326.035621794,23.458824386666514,7.3706191919325015,23100.767086749154,95.90000000000002,34.8232206431814
1306893717.54,5.9170365,3.9400634,127.77,0.2,7.3,77.3,-1.0,104.88805119645824,3107228.583667308,3107228.583667308,3107228.583667308,3107228.583667308,24.01452382608736,7.188511224959113,23145.414856885578,94.20000000000002,34.82361106312891
1306893717.75,5.9173063,3.940115,127.61,0.2,7.4,77.3,-1.0,110.99732017892659,987249.8729538321,987249.8729538321,987249.8729538321,987249.8729538321,23.233383564222503,7.467236874723384,23076.63960262774,92.10000000000001,34.82325126435376
1306893717.96,5.9175654,3.9401644,127.46,0.3,7.5,77.4,-1.0,106.46775347097662,6332948.050410716,6332948.050410716,6332948.050410716,6332948.050410716,24.16720330647511,7.398055832839203,23103.389094436145,90.80000000000001,34.82260821973433
1306893718.59,5.9183634,3.9403164,127.1,0.3,7.7,77.4,-1.0,109.2464745618632,6943973.107679251,6943973.107679251,6943973.107679251,6943973.107679251,23.939431134429324,7.5144663180428735,23662.00264718365,92.10000000000001,34.821605376339754
1306893719.02,5.9189079,3.9404199,126.96,0.4,7.7,77.4,-1.0,109.24710684371225,1655886.0725087572,1655886.0725087572,1655886.0725087572,1655886.0725087572,26.832118700258597,7.5415681001077,23922.880549880032,91.7,34.82047239296268
1306893719.44,5.9194405,3.9405209,126.96,0.4,8.0,77.4,-1.0,109.46233167873005,2927861.123903456,2927861.123903456,2927861.123903456,2927861.123903456,25.77458219702768,7.670575747314035,23978.971297354517,92.4,34.81936237546486
1306893719.65,5.9197127,3.9405725,126.96,0.4,8.1,77.4,-1.0,111.58253158856003,5964467.698095683,5964467.698095683,5964467.698095683,5964467.698095683,25.706938218941147,7.539815360772656,24219.947024294805,92.39999999999999,34.81831360031176
1306893719.88,5.9199995,3.9406268,127.04,0.4,8.2,77.4,-1.0,107.62646856664415,8234107.193630847,8234107.193630847,8234107.193630847,8234107.193630847,26.664248622739755,7.79811312906243,24240.448627829443,90.6,34.81741793102042
1306893720.09,5.9202739,3.9406787,127.15,0.4,8.3,77.4,-1.0,112.77615387830963,9015338.499096602,9015338.499096602,9015338.499096602,9015338.499096602,27.99882710304597,7.649383287898328,23919.565737079753,90.19999999999999,34.8167059887632
1306893720.3,5.9205489,3.9407307,127.3,0.4,8.4,77.4,-1.0,112.73167748026337,477090.4589247517,477090.4589247517,477090.4589247517,477090.4589247517,26.6023295305974,7.654569783983486,24354.8579168145,89.69999999999999,34.81623136059173
1306893720.51,5.9208127,3.9407806,127.48,0.4,8.5,77.4,-1.0,108.36878573864765,1505973.9263868895,1505973.9263868895,1505973.9263868895,1505973.9263868895,28.188090167328003,7.96841169288796,24552.223284575208,91.60000000000001,34.81600935709216
1306893720.95,5.9213881,3.9408892,128.02,0.4,8.5,77.5,-1.0,112.79103657417355,2270952.3485565106,2270952.3485565106,2270952.3485565106,2270952.3485565106,27.530245288145956,8.062752499390239,25087.244238329622,94.10000000000001,34.816323224108785
1306893721.37,5.9219278,3.940991,128.65,0.4,8.4,77.5,-1.0,110.85152495405801,2153292.8175383313,2153292.8175383313,2153292.8175383313,2153292.8175383313,25.260743883976417,8.13144530249417,24806.982913770036,92.10000000000001,34.8172342039863
1306893722.01,5.9227501,3.9411461,129.81,0.4,8.3,77.5,-1.0,110.80572939515851,447056.3326394068,447056.3326394068,447056.3326394068,447056.3326394068,26.986856010847884,8.329858674984823,24840.861303748046,91.30000000000001,34.819308788413245
1306893722.66,5.9235995,3.9413063,131.14,0.4,8.2,77.5,-1.0,112.66933644393804,7748318.083209259,7748318.083209259,7748318.083209259,7748318.083209259,26.60082605462048,8.311059330655967,24676.41561429132,91.10000000000001,34.822508700924175
1306893723.51,5.9247183,3.9415172,133.02,0.4,8.2,77.6,-1.0,113.48555489143473,10006737.419492498,10006737.419492498,10006737.419492498,10006737.419492498,27.738837784642854,8.077379485441352,25179.421139880527,91.6,34.82714780853573
1306893723.72,5.9249947,3.9415694,133.5,0.4,8.1,77.6,-1.0,113.68682079400998,7502617.9588927245,7502617.9588927245,7502617.9588927245,7502617.9588927245,27.155500510267967,8.073846187028172,25017.17434132778,90.3,34.83215437021552
1306893724.98,5.9266557,3.9418832,136.44,0.4,8.1,77.6,-1.0,113.68668478418519,9775097.594814623,9775097.594814623,9775097.594814623,9775097.594814623,28.10066856810518,8.051407155531225,25511.37800073185,90.4,34.83935034571858
1306893726.47,5.9286492,3.9422599,140.2,0.4,8.1,77.7,-1.0,115.39065868345453,5352178.779950643,5352178.779950643,5352178.779950643,5352178.779950643,26.8418557573014,8.234516545881512,26035.202959335358,88.00000000000001,34.849340503198896
1306893728.18,5.93095,3.9426942,144.97,0.4,8.1,77.7,-1.0,116.03636020972351,1624104.370667962,1624104.370667962,1624104.370667962,1624104.370667962,26.895841635659046,8.145584479864592,26551.483283974754,87.4,34.86286740608604
1306893729.46,5.9326953,3.9430227,148.92,0.4,8.1,77.8,-1.0,117.57028552953714,2920657.8503275607,2920657.8503275607,2920657.8503275607,2920657.8503275607,24.39162778790557,7.881159434269905,26682.979724176468,85.50000000000001,34.87928035446749
1306893731.35,5.9352955,3.9435133,155.3,0.4,8.1,77.8,-1.0,118.64280361849478,2304634.419162549,2304634.419162549,2304634.419162549,2304634.419162549,25.084936373328166,7.790503822976476,26600.66572519943,85.20000000000002,34.900163994012544
1306893732.82,5.9373202,3.9438942,160.65,0.4,8.1,77.9,-1.0,118.81117667797223,2737065.146168811,2737065.146168811,2737065.146168811,2737065.146168811,25.609127585353907,7.841116657940606,26354.97532300434,86.90000000000002,34.92466093189531
1306893733.45,5.9382029,3.9440604,163.07,0.3,8.1,77.9,-1.0,120.8140239777668,3416753.203642071,3416753.203642071,3416753.203642071,3416753.203642071,25.11775531279534,7.6018051489097,26481.9988137557,89.4,34.950122436707204
1306893734.93,5.9402798,3.9444519,168.98,0.3,8.1,77.9,-1.0,121.00573305562074,3121236.69526524,3121236.69526524,3121236.69526524,3121236.69526524,25.360279938408468,7.3471484449141675,26754.48058789051,88.80000000000001,34.97909006575358
1306893735.99,5.941762,3.9447322,173.38,0.4,8.1,77.9,-1.0,120.64038850334565,2972648.839168332,2972648.839168332,2972648.839168332,2972648.839168332,25.164284626411256,7.424043754572685,26254.2589094661,87.4,35.009986828658214
1306893736.44,5.9423976,3.9448525,175.31,0.4,8.1,78.0,-1.0,121.91307746863218,3068523.2131687347,3068523.2131687347,3068523.2131687347,3068523.2131687347,25.360473800227744,7.549706374407488,26063.156027463676,88.5,35.04199360906067
1306893738.57,5.9454272,3.9454275,184.83,0.4,8.1,78.0,-1.0,122.7185922222865,2721092.46020222,2721092.46020222,2721092.46020222,2721092.46020222,25.43724399290968,7.6155333639081055,26182.82262304387,89.5,35.07903757231526
1306893739.0,5.9460384,3.9455438,186.82,0.5,8.1,78.0,-1.0,122.68875349466781,2741260.9673244106,2741260.9673244106,2741260.9673244106,2741260.9673244106,24.958854516037924,7.329784175029264,26065.477652951868,91.2,35.11472654869321
1306893739.44,5.9466693,3.9456639,188.89,0.5,8.1,78.1,-1.0,123.69619505670559,3319843.4132917696,3319843.4132917696,3319843.4132917696,3319843.4132917696,25.545380568217972,7.237967886937474,25974.40069172567,90.8,35.148348595937314
1306893740.92,5.9488007,3.94607,196.05,0.6,8.1,78.1,-1.0,124.28591778525566,3164829.2932262276,3164829.2932262276,3164829.2932262276,3164829.2932262276,27.945811295273707,7.179506235626997,25517.386982407763,90.2,35.18442799226277
1306893741.13,5.9490975,3.9461266,197.06,0.6,8.1,78.1,-1.0,122.12337951099484,3306456.640186014,3306456.640186014,3306456.640186014,3306456.640186014,29.259156884308695,6.93947269517441,25207.8788171865,87.50000000000001,35.21639649619978
1306893741.99,5.9503361,3.9463638,201.35,0.6,8.1,78.2,-1.0,124.32055445108887,6375285.546869989,6375285.546869989,6375285.546869989,6375285.546869989,29.369680392708496,6.614746414441608,25365.62048829434,85.9,35.247553539069415
1306893742.62,5.9512506,3.9465399,204.56,0.7,8.1,78.2,-1.0,125.3160203030781,8371425.3400177015,8371425.3400177015,8371425.3400177015,8371425.3400177015,29.52206020715356,6.716750501315706,24863.226136152567,84.4,35.27931535009304
1306893743.26,5.9521757,3.9467188,207.85,0.7,8.1,78.2,-1.0,124.88650347108648,10519597.551236805,10519597.551236805,10519597.551236805,10519597.551236805,26.77710758720749,7.031654840027535,25110.398828670786,87.4,35.30907147432751
1306893743.69,5.9528047,3.9468405,210.11,0.8,8.1,78.2,-1.0,126.43456912414604,13597572.147934979,13597572.147934979,13597572.147934979,13597572.147934979,25.778680940580507,7.059394034319994,25226.947037170994,88.2,35.33718936584107
1306893743.91,5.9531262,3.9469027,211.28,0.8,8.1,78.3,-1.0,126.13080250195101,12651337.618069632,12651337.618069632,12651337.618069632,12651337.618069632,23.936871182252474,6.878671562446403,25175.004172935875,89.3,35.36472545507991
1306893744.57,5.9540805,3.9470867,214.75,0.9,8.1,78.3,-1.0,124.91244247326406,10060738.430666313,10060738.430666313,10060738.430666313,10060738.430666313,23.765371411526942,6.64054126753309,25130.625500516173,86.30000000000001,35.38763009200029
1306893745.0,5.9547097,3.9472078,217.07,0.9,8.1,78.3,-1.0,126.26450457045655,8947910.827729901,8947910.827729901,8947910.827729901,8947910.827729901,25.11425067544662,6.973777532140897,24613.733325760597,85.40000000000002,35.410787353592596
1306893745.42,5.9553223,3.9473255,219.34,0.9,8.1,78.4,-1.0,126.04143936284589,6725779.185495881,6725779.185495881,6725779.185495881,6725779.185495881,25.50396256726012,7.091377937810854,24018.431479756207,87.10000000000002,35.43409772104666
1306893745.84,5.9559418,3.9474442,221.65,1.0,8.1,78.4,-1.0,127.3091510998907,5269403.886905854,5269403.886905854,5269403.886905854,5269403.886905854,24.774772472836595,7.165895426979345,24053.55613455597,86.30000000000001,35.45369527135287
1306893746.5,5.9569117,3.9476296,225.3,1.0,8.1,78.4,-1.0,126.85903944038817,5980938.406661285,5980938.406661285,5980938.406661285,5980938.406661285,22.79858887884562,7.2178449029900555,23952.04825510597,89.30000000000001,35.47531381903441
1306893746.72,5.9572336,3.947691,226.52,1.0,8.1,78.5,-1.0,126.30111236155547,5552835.685617474,5552835.685617474,5552835.685617474,5552835.685617474,24.238537919843406,7.444074017934213,24375.55775920872,92.00000000000001,35.49458219173783
1306893748.04,5.959185,3.9480616,234.01,1.0,8.1,78.6,-1.0,127.60404309066719,5626164.212930708,5626164.212930708,5626164.212930708,5626164.212930708,21.93265438329282,7.430064557161991,24930.92556972523,93.70000000000002,35.517127029883056
1306893748.89,5.9604382,3.9482982,238.89,0.9,8.1,78.6,-1.0,127.23977147580253,6283148.940073736,6283148.940073736,6283148.940073736,6283148.940073736,22.70859154277812,7.3397200287340025,25075.827447587035,92.2,35.54088905962934
1306893750.2,5.9623776,3.9486623,246.56,0.8,8.1,78.6,-1.0,127.71025231481563,6804224.407516561,6804224.407516561,6804224.407516561,6804224.407516561,22.089925717507445,7.4617198459905545,24929.950805880468,91.10000000000001,35.568792602936426
1306893751.06,5.9636698,3.9489037,251.74,0.7,8.1,78.6,-1.0,129.54251015076903,8123322.30052362,8123322.30052362,8123322.30052362,8123322.30052362,22.13355196950889,7.466482755673931,25268.934356844078,89.2,35.59976591877195
1306893751.91,5.9649297,3.9491383,256.85,0.6,8.1,78.6,-1.0,127.81059230764366,8646128.898523856,8646128.898523856,8646128.898523856,8646128.898523856,21.65628206791897,7.4788402210457665,24597.250909730916,89.39999999999999,35.631994702673964
1306893752.77,5.9662199,3.9493778,262.14,0.5,8.1,78.6,-1.0,129.3272404556147,8573818.582020974,8573818.582020974,8573818.582020974,8573818.582020974,22.81492625292376,7.263239227308619,24597.469252917952,90.50000000000001,35.66649710862321
1306893754.06,5.9681591,3.9497368,270.18,0.3,8.1,78.6,-1.0,129.61599367359386,8316522.274793185,8316522.274793185,8316522.274793185,8316522.274793185,22.036842361010137,7.479639672463165,24639.597326080893,88.50000000000001,35.70541661868446
1306893754.91,5.9694485,3.9499751,275.6,0.2,8.1,78.6,-1.0,130.73898627348177,7285097.09846976,7285097.09846976,7285097.09846976,7285097.09846976,20.961629632131356,7.620239004757866,25079.661885973634,88.30000000000001,35.746716924896184
1306893755.34,5.9700935,3.9500942,278.32,0.2,8.0,78.6,-1.0,129.2938947312348,6732138.581439193,6732138.581439193,6732138.581439193,6732138.581439193,21.64323656115225,7.5738020379070905,25608.750478229726,85.3,35.78730528885069
1306893755.76,5.9707378,3.9502131,281.06,0.1,8.0,78.6,-1.0,132.20161826948697,7579528.819322023,7579528.819322023,7579528.819322023,7579528.819322023,21.041450406642245,7.65889113627524,25325.42845878241,83.80000000000001,35.82905725735463
1306893759.98,5.9771517,3.9513968,308.93,-0.2,8.0,78.6,-1.0,131.01308672168292,6441016.95713473,6441016.95713473,6441016.95713473,6441016.95713473,22.444915130937737,7.735625399027562,25061.239624947022,80.4,35.88641071317265
1306893776.92,6.0035546,3.9563025,433.14,-0.2,8.0,78.9,-1.0,134.41604496844582,5967787.493033353,5967787.493033353,5967787.493033353,5967787.493033353,24.386022611009107,7.544004646489632,24799.84063025832,78.9,36.03511478141412
1306893778.2,6.0055752,3.9566777,443.13,-0.1,8.5,78.9,-1.0,136.14769837144556,5751100.473119979,5751100.473119979,5751100.473119979,5751100.473119979,26.602014254016588,7.427857896302989,25210.569675053448,78.60000000000001,36.18559487765209
1306893778.63,6.0062622,3.9568058,446.89,-10.5,13.7,78.7,-1.0,137.87364369133647,4414760.189432404,4414760.189432404,4414760.189432404,4414760.189432404,26.610653726785145,7.482945440804006,25479.67963776369,78.00000000000001,36.33498792227151
1306893779.05,6.0069263,3.9569355,451.98,-25.5,15.7,77.6,-1.0,137.01673064631925,3676922.3773773303,3676922.3773773303,3676922.3773773303,3676922.3773773303,24.984685425534746,7.525574392411652,25680.556081512907,80.20000000000002,36.48436565630475
1306893779.47,6.0075721,3.9570752,458.45,-30.1,17.0,76.0,-1.0,134.4396508765131,4491503.558057519,4491503.558057519,4491503.558057519,4491503.558057519,25.228288123509962,7.597917521147606,25677.80089242117,80.50000000000001,36.63464671492244
1306893779.9,6.0082456,3.9572382,466.66,-33.2,17.9,74.2,-1.0,138.45387580942892,7717922.050701116,7717922.050701116,7717922.050701116,7717922.050701116,26.180626277795454,7.262374339741699,26037.14635309454,80.50000000000001,36.78505791352261
1306893780.32,6.0088718,3.9574073,475.49,-38.0,18.6,72.4,-1.0,133.69368139129944,10634911.884778772,10634911.884778772,10634911.884778772,10634911.884778772,28.28987244807571,7.038518858455545,26027.91129401122,84.00000000000001,36.93807956706591
1306893780.53,6.0091882,3.9574999,480.34,-39.5,18.7,71.4,-1.0,136.41077611317414,19662908.375519395,19662908.375519395,19662908.375519395,19662908.375519395,29.731958983769992,7.229298335630865,25905.839415814204,86.30000000000001,37.09273179803704
1306893780.96,6.0098164,3.9576987,490.61,-40.9,18.5,69.4,-1.0,133.5478068468446,27150104.4615982,27150104.4615982,27150104.4615982,27150104.4615982,28.114545994280927,7.124987042978168,25434.12700457975,87.7,37.253148464703706
1306893781.38,6.0104256,3.9579103,501.21,-42.3,18.7,67.6,-1.0,134.43205765834327,33576630.09717365,33576630.09717365,33576630.09717365,33576630.09717365,27.49353193270779,7.05677055609703,25180.024658309772,89.0,37.400344440206766
1306893781.8,6.0110243,3.958137,512.14,-43.6,18.9,65.8,-1.0,134.10033092338773,39272085.936991274,39272085.936991274,39272085.936991274,39272085.936991274,25.274706079632782,7.009116643603016,24671.689056210955,92.4,37.46082125560485
1306893782.22,6.0116093,3.9583775,523.27,-44.3,18.9,64.0,-1.0,133.1745433541067,43154336.439251184,43154336.439251184,43154336.439251184,43154336.439251184,25.61452400236889,7.0593249735589225,24347.103839184565,93.80000000000001,37.522170774414995
1306893782.65,6.0121899,3.9586355,534.69,-44.7,18.9,62.2,-1.0,131.2885836741736,43986821.64778733,43986821.64778733,43986821.64778733,43986821.64778733,27.223224407478753,7.324691703500957,23876.517265547096,93.60000000000001,37.589384247730834
1306893783.07,6.0127402,3.9588987,545.83,-45.2,18.9,60.4,-1.0,129.70773007335097,45004627.12644725,45004627.12644725,45004627.12644725,45004627.12644725,28.762440148400515,7.315992205535141,24393.402922844376,93.9,37.66122917336513
1306893783.5,6.013297,3.9591846,557.42,-45.4,19.1,58.5,-1.0,130.82089519552045,46928933.95759203,46928933.95759203,46928933.95759203,46928933.95759203,28.197240388096876,7.328804758034562,25216.265663929746,92.9,37.73699360906066
1306893783.92,6.0138334,3.95948,568.89,-45.6,19.1,56.7,-1.0,131.68687499052047,46764228.15337416,46764228.15337416,46764228.15337416,46764228.15337416,26.36841559891283,7.502506492116204,25265.297420755945,94.10000000000001,37.81525367030301
1306893784.34,6.0143472,3.9597826,580.16,-45.8,19.1,54.9,-1.0,128.96811160138165,48022701.9668996,48022701.9668996,48022701.9668996,48022701.9668996,25.370942686835107,7.561761604803965,25160.841983582373,92.4,37.89538162305891
1306893784.76,6.0148564,3.9601029,591.63,-45.9,19.3,53.1,-1.0,130.99931350821242,47647652.96369472,47647652.96369472,47647652.96369472,47647652.96369472,24.253358541164214,7.425202715661378,24634.260370302614,92.5,37.980577379839325
1306893785.18,6.0153345,3.9604237,602.7,-45.9,19.3,51.3,-1.0,125.9654770187157,46681822.02579057,46681822.02579057,46681822.02579057,46681822.02579057,26.746290706324704,7.369495127879836,24473.626645534736,91.39999999999999,38.06638556006679
1306893785.61,6.0158226,3.9607731,614.32,-45.9,19.3,49.5,-1.0,129.201959710362,45806854.31352262,45806854.31352262,45806854.31352262,45806854.31352262,25.86134632379284,7.4758383041048715,25067.29305485645,91.6,38.15297458018927
1306893786.03,6.0162826,3.9611245,625.61,-45.9,19.3,47.7,-1.0,128.42630850653015,45068531.80789002,45068531.80789002,45068531.80789002,45068531.80789002,26.75065416980081,7.610255312577094,25878.74251881777,91.49999999999999,38.239839190862945
1306893786.45,6.0167214,3.9614819,636.72,-45.9,19.6,45.9,-1.0,126.32554926457333,44373726.356962964,44373726.356962964,44373726.356962964,44373726.356962964,25.83985160339586,7.632946610169652,26441.922445523654,93.1,38.32668849095043
1306893786.87,6.0171473,3.9618516,647.87,-45.9,19.6,44.1,-1.0,126.84645574761157,43822600.884428374,43822600.884428374,43822600.884428374,43822600.884428374,25.658151153523526,7.6929075229633295,26412.58696209667,93.89999999999999,38.41333109812454
1306893787.3,6.0175576,3.9622317,659.0,-45.9,19.6,42.2,-1.0,123.5951361706803,43225753.345196545,43225753.345196545,43225753.345196545,43225753.345196545,25.70098814351596,7.6527067100171955,25775.498173381256,92.90000000000002,38.49996605000555
1306893787.72,6.0179519,3.9626218,670.11,-45.9,19.6,40.3,-1.0,126.45531494480002,41820349.22670855,41820349.22670855,41820349.22670855,41820349.22670855,26.08630284913599,7.448089092820275,25668.82769066572,94.00000000000001,38.586233547818324
1306893788.15,6.018335,3.9630271,681.36,-45.9,19.9,38.5,-1.0,125.091992266524,40563355.43401556,40563355.43401556,40563355.43401556,40563355.43401556,26.532090321187642,7.548455004111098,24994.653542702155,95.50000000000001,38.67233262918315
1306893788.57,6.0186948,3.9634352,692.4,-45.9,20.0,36.6,-1.0,125.82579034601302,39346680.29708081,39346680.29708081,39346680.29708081,39346680.29708081,25.22343170721364,7.637657983858613,24653.149501565968,96.20000000000002,38.75825563880695
1306893788.99,6.0190303,3.9638431,703.19,-45.9,20.0,34.8,-1.0,123.01074613994861,37922124.72186628,37922124.72186628,37922124.72186628,37922124.72186628,23.790480850269745,7.740451740786102,25159.74095460786,95.0,38.84365808850074
1306893789.41,6.019349,3.964259,713.95,-45.9,20.0,32.9,-1.0,122.73092119247451,36655941.155180514,36655941.155180514,36655941.155180514,36655941.155180514,23.393442755376196,7.616155132557845,25836.811601424593,93.3,38.92882322410879
1306893789.83,6.019656,3.9646907,724.9,-45.9,20.0,31.0,-1.0,125.19671106531106,34941644.46720254,34941644.46720254,34941644.46720254,34941644.46720254,25.781751956116786,7.642825876914116,25235.695409761116,95.6,39.01347545507992
1306893790.26,6.0199446,3.9651299,735.83,-45.9,20.0,29.0,-1.0,121.90958243649284,33651229.20481431,33651229.20481431,33651229.20481431,33651229.20481431,26.87652024152655,7.817820011688957,25116.19320139543,92.8,39.09785209549987
1306893790.69,6.0202172,3.9655802,746.84,-45.9,20.4,27.1,-1.0,122.96554835994351,31584360.812870193,31584360.812870193,31584360.812870193,31584360.812870193,26.03931842733812,7.63747807966631,25080.356499200607,92.39999999999999,39.18215218298893
1306893791.12,6.020468,3.9660329,757.72,-45.9,20.5,25.1,-1.0,121.63442454049923,29926697.21413048,29926697.21413048,29926697.21413048,29926697.21413048,25.90254616290162,7.2618584630331195,25574.02703615408,91.89999999999999,39.26624557756461
1306893791.54,6.0206945,3.9664808,768.32,-45.9,20.6,23.2,-1.0,121.50884569668052,28201725.837417923,28201725.837417923,28201725.837417923,28201725.837417923,25.60810666401267,7.391874775353486,25800.063815159694,92.7,39.3499332416066
1306893791.96,6.0209004,3.9669297,778.8,-46.1,20.6,21.3,-1.0,120.01106375399317,26195914.8281848,26195914.8281848,26195914.8281848,26195914.8281848,24.892467761161804,7.5611615152046125,25282.615018366596,91.7,39.433138622184025
1306893792.38,6.0210908,3.9673909,789.43,-45.9,20.6,19.4,-1.0,122.15334430703817,24085476.44427829,24085476.44427829,24085476.44427829,24085476.44427829,25.868491530406445,7.227590172330646,25298.931737902018,88.3,39.515869374589975
1306893792.8,6.02126,3.9678497,799.88,-45.5,20.6,17.5,-1.0,120.08117692636733,22604527.69811855,22604527.69811855,22604527.69811855,22604527.69811855,26.759319951748815,7.2684822184365325,25263.037880357173,88.3,39.59814846470371
1306893793.22,6.0214104,3.9683111,810.26,-45.1,20.6,15.6,-1.0,119.52901313383872,20700659.393768672,20700659.393768672,20700659.393768672,20700659.393768672,27.438922556246364,7.171042080037119,25395.236826690234,90.10000000000001,39.68011368780082
1306893793.65,6.0215447,3.9687834,820.78,-44.6,20.6,13.8,-1.0,118.5730385851076,19037970.552880153,19037970.552880153,19037970.552880153,19037970.552880153,27.876272508219373,7.35897122103378,25386.13181383314,91.40000000000002,39.761895183863814
1306893794.07,6.0216588,3.9692516,831.12,-44.1,20.6,11.9,-1.0,119.5600446608728,17440734.06396044,17440734.06396044,17440734.06396044,17440734.06396044,27.687168311210172,7.031165242393987,25867.551606428424,90.4,39.84320970704842
1306893794.49,6.021754,3.9697162,841.3,-43.6,20.6,10.1,-1.0,117.8292744909747,16069044.467834147,16069044.467834147,16069044.467834147,16069044.467834147,26.60885146387581,6.886300302781434,25194.960455344113,90.1,39.9239500832514
1306893794.91,6.021832,3.9701825,851.45,-43.0,20.6,8.3,-1.0,117.59420225134319,15129037.529989112,15129037.529989112,15129037.529989112,15129037.529989112,26.269815240982936,6.908249594385524,24305.821244039118,89.30000000000001,40.004032104248765
1306893795.33,6.0218927,3.9706475,861.53,-42.4,20.6,6.6,-1.0,116.84190695928812,14547909.503910424,14547909.503910424,14547909.503910424,14547909.503910424,25.321518848751307,7.051939941403447,24379.49319807411,89.30000000000001,40.083501701799065
1306893795.77,6.0219383,3.9711309,871.97,-41.7,20.6,4.8,-1.0,115.40319086548119,14220097.281845363,14220097.281845363,14220097.281845363,14220097.281845363,26.133727588277033,6.870727938421153,24574.547329469686,89.9,40.16284881465996
1306893796.19,6.0219657,3.9715978,882.02,-41.1,20.6,3.1,-1.0,116.62749044470604,15210462.999672769,15210462.999672769,15210462.999672769,15210462.999672769,24.7433523792449,6.735676186798377,24892.655495303745,91.2,40.241866749918046
1306893796.63,6.0219775,3.9720853,892.5,-40.4,20.6,1.3,-1.0,115.96992424183496,15077667.8004019,15077667.8004019,15077667.8004019,15077667.8004019,24.826679839732662,6.774405482858909,25082.839229882477,92.3,40.32076985577983
1306893797.07,6.0219725,3.9725686,902.89,-39.7,20.6,359.6,-1.0,114.84010185366942,15363358.594105555,15363358.594105555,15363358.594105555,15363358.594105555,23.863635752131234,6.8581376228044535,24891.725952563447,90.2,40.399627029883064
1306893797.5,6.0219519,3.9730408,913.06,-39.0,20.6,357.9,-1.0,114.78205569552289,16015388.785986528,16015388.785986528,16015388.785986528,16015388.785986528,25.276178727083153,6.924767174295663,24409.781900809678,88.6,40.47832344283144
1306893797.92,6.021918,3.973492,922.78,-38.3,20.6,356.3,-1.0,112.18685746327382,16240234.972614055,16240234.972614055,16240234.972614055,16240234.972614055,25.07344286220551,7.063028674285449,24591.64129492287,87.8,40.556407432332755
1306893798.34,6.0218694,3.9739523,932.72,-37.6,20.6,354.8,-1.0,114.78942316942269,17064757.274736393,17064757.274736393,17064757.274736393,17064757.274736393,25.74738062195409,7.299816948497456,23990.13033405912,86.30000000000001,40.63418521011053
1306893798.77,6.0218077,3.9744073,942.58,-36.8,20.6,353.3,-1.0,110.63367573533245,17818646.241692,17818646.241692,17818646.241692,17818646.241692,26.071777445951724,7.289697200603522,24016.68598614987,88.50000000000001,40.71171801850949
1306893799.2,6.0217319,3.9748663,952.56,-35.9,20.6,351.7,-1.0,111.92768461430148,19635465.52466548,19635465.52466548,19635465.52466548,19635465.52466548,27.178664940252865,7.545938814635739,24744.85041921293,90.30000000000001,40.789120686925926
1306893799.63,6.0216433,3.9753248,962.56,-32.9,19.9,350.4,-1.0,112.14487020830944,20628268.354721572,20628268.354721572,20628268.354721572,20628268.354721572,27.92842272989822,7.62994256802253,24446.21671094918,93.50000000000001,40.86646211299767
1306893800.05,6.0215486,3.975761,972.03,-27.1,19.1,349.3,-1.0,109.29834501747742,20856335.030113503,20856335.030113503,20856335.030113503,20856335.030113503,26.821099693379363,7.673646342872941,24044.237169952186,93.7,40.943060975639845
1306893800.47,6.0214458,3.9762007,981.5,-21.1,19.1,348.5,-1.0,110.38302733642287,21564292.459931105,21564292.459931105,21564292.459931105,21564292.459931105,28.745749321089647,7.903848723750885,24292.406346320597,91.3,41.01921583128289
1306893800.9,6.0213367,3.9766438,991.02,-15.3,19.2,347.8,-1.0,108.58286075761015,21257180.67681478,21257180.67681478,21257180.67681478,21257180.67681478,28.34008332733967,8.129778677589687,24482.59718758586,92.2,41.09463577878945
1306893801.32,6.0212268,3.9770761,1000.34,-9.9,19.3,347.3,-1.0,108.65835749571626,20646389.74768272,20646389.74768272,20646389.74768272,20646389.74768272,29.10396517420153,8.082183067857638,25068.706292545303,94.5,41.16923660993556
1306893801.74,6.0211171,3.9775125,1009.85,-5.2,19.5,347.6,-1.0,109.82454477913424,20385099.707471225,20385099.707471225,20385099.707471225,20385099.707471225,27.40109820580506,8.12203101264894,25683.39858070592,96.0,41.24333219173783
1306893802.17,6.0210142,3.9779518,1019.53,-2.7,19.6,348.0,-1.0,107.47639483245767,19285935.92399178,19285935.92399178,19285935.92399178,19285935.92399178,25.9759134766985,7.8064225873347,24907.798930323544,97.5,41.31739715236775
1306893803.01,6.0208272,3.9788042,1038.53,-1.9,19.6,348.0,-1.0,106.65269890577679,16803297.738065064,16803297.738065064,16803297.738065064,16803297.738065064,24.340681476562878,7.852524650573432,25144.644938105663,98.60000000000001,41.39839780853573
1306893803.44,6.0207371,3.9792322,1048.14,-1.2,19.6,348.0,-1.0,104.32702805455578,15971908.004952587,15971908.004952587,15971908.004952587,15971908.004952587,24.283834071619243,7.726738058569323,25396.423774834748,95.80000000000001,41.4792070823765
1306893803.87,6.0206485,3.9796655,1057.88,-0.9,19.8,348.0,-1.0,105.62400372908047,14922063.204729069,14922063.204729069,14922063.204729069,14922063.204729069,24.89019577046914,7.662014501583318,25042.56483170168,95.8,41.55983262918315
1306893804.3,6.0205626,3.9800989,1067.65,-0.7,19.8,348.0,-1.0,105.68936638129136,14081864.669645604,14081864.669645604,14081864.669645604,14081864.669645604,25.441929314126725,7.680781549745422,24670.691202492577,92.29999999999998,41.64028210424876
1306893804.73,6.0204808,3.9805255,1077.27,-0.5,19.9,348.0,-1.0,103.7896794899297,14326386.672141703,14326386.672141703,14326386.672141703,14326386.672141703,25.014794986295442,7.785596948371183,25309.284297189315,89.5,41.72084640871071
1306893806.02,6.0202527,3.9817986,1106.04,-0.2,20.1,348.0,-1.0,103.03116284293792,14096589.149374982,14096589.149374982,14096589.149374982,14096589.149374982,23.083249168239043,7.496078713663288,24621.44006136501,91.80000000000001,41.816185428833194
1306893807.73,6.0199905,3.9834709,1143.91,-0.2,20.4,348.0,-1.0,101.8296822196749,13786178.830881638,13786178.830881638,13786178.830881638,13786178.830881638,22.29207973983102,7.454639253308992,24482.308444319024,91.30000000000001,41.93322720486119
1306893809.46,6.0197732,3.9851236,1181.42,-0.2,20.7,348.0,-1.0,99.07436745269972,13332503.669476973,13332503.669476973,13332503.669476973,13332503.669476973,23.000773785180748,7.196650828793535,23671.197513584302,89.9,42.07184925210529
1306893809.9,6.0197246,3.9855433,1190.95,-0.2,20.7,347.9,-1.0,98.86557942007643,13156394.17801232,13156394.17801232,13156394.17801232,13156394.17801232,25.0458939780144,7.110500792851485,22841.649231954456,88.69999999999999,42.21048660993556
1306893811.16,6.0196023,3.9867202,1217.73,-0.2,21.0,347.9,-1.0,96.49182863115718,13103945.12957866,13103945.12957866,13103945.12957866,13103945.12957866,25.52967079206772,7.393756699456741,23339.543947789356,86.9,42.362214518946935
1306893811.6,6.0195644,3.9871319,1227.1,-0.2,21.1,347.9,-1.0,96.63260770827554,12716099.008246042,12716099.008246042,12716099.008246042,12716099.008246042,26.243944553884464,7.159013552939861,23592.263922696267,85.9,42.506570380714216
1306893812.89,6.0194685,3.9883221,1254.23,-0.2,21.1,347.9,-1.0,95.1243413177362,12795963.578188656,12795963.578188656,12795963.578188656,12795963.578188656,25.09308805553355,7.400385735229067,23834.70828395181,87.10000000000001,42.66433831597231
1306893813.74,6.0194166,3.9891031,1272.06,-0.2,21.5,347.9,-1.0,94.65027391203233,12297600.67302619,12297600.67302619,12297600.67302619,12297600.67302619,25.163794953144205,7.394009348770953,23828.84174814645,84.39999999999999,42.82829938333888
1306893814.16,6.0193944,3.9894834,1280.74,-0.2,21.6,347.9,-1.0,93.13768608674597,11655072.365825415,11655072.365825415,11655072.365825415,11655072.365825415,24.36902020484475,7.503280648952792,24626.093148321383,85.1,42.99142602375883
1306893814.58,6.0193742,3.9898612,1289.38,-0.2,21.7,347.9,-1.0,92.42082922057341,11730199.107926115,11730199.107926115,11730199.107926115,11730199.107926115,24.67877984140448,7.630466367855204,24038.30745424979,85.9,43.153802445456115
1306893816.69,6.0193018,3.9917467,1332.22,-0.2,21.4,347.7,-1.0,91.73484151880544,11929437.481779894,11929437.481779894,11929437.481779894,11929437.481779894,26.52783976346612,7.740611710950048,24401.918564121133,84.89999999999999,43.326949864528736
1306893817.11,6.0192929,3.9921121,1340.38,-0.2,21.3,347.7,-1.0,89.01737145676563,12193965.906374566,12193965.906374566,12193965.906374566,12193965.906374566,26.564702660657012,7.843963138635527,24664.54611716768,85.0,43.47735340783582
1306893817.53,6.0192853,3.9924886,1348.71,-0.2,21.2,347.7,-1.0,91.92851593387293,13288296.402288493,13288296.402288493,13288296.402288493,13288296.402288493,26.98073125610629,7.859043303162805,24929.828822147007,87.10000000000001,43.60541880591106
1306893818.38,6.0192748,3.993229,1364.78,-0.2,20.9,347.7,-1.0,88.99533026958322,12912909.849619055,12912909.849619055,12912909.849619055,12912909.849619055,26.312315390123896,8.048080516056848,24898.13557592178,85.8,43.73849076566609
1306893818.81,6.0192717,3.993601,1372.68,-0.2,20.7,347.7,-1.0,88.22859310915936,12540601.653855499,12540601.653855499,12540601.653855499,12540601.653855499,26.358276700780127,7.9777207937027965,24294.426040109003,86.3,43.85710953207029
1306893819.23,6.0192699,3.9939685,1380.35,-0.2,20.5,347.6,-1.0,89.2949647229686,12052136.721172182,12052136.721172182,12052136.721172182,12052136.721172182,26.509859875803905,8.066096937629183,24358.838166902264,84.99999999999999,43.97442689864946
1306893819.66,6.0192693,3.9943455,1388.07,-0.2,20.3,347.6,-1.0,89.44802596801587,10698758.36289285,10698758.36289285,10698758.36289285,10698758.36289285,26.45811171660467,7.987415613290052,24018.9729135308,87.6,44.07688534134413
1306893820.08,6.0192699,3.9947035,1395.24,-0.2,20.1,347.6,-1.0,86.6186266917466,9725102.116650678,9725102.116650678,9725102.116650678,9725102.116650678,25.88202582273813,8.092830185234071,24257.923326558615,89.90000000000002,44.17118324160659
1306893820.5,6.0192715,3.9950667,1402.35,-0.2,19.9,347.6,-1.0,87.89518779050147,9905160.209426533,9905160.209426533,9905160.209426533,9905160.209426533,26.009209168171175,7.985044726093928,24141.59267497147,90.70000000000002,44.26427926085419
1306893820.92,6.0192742,3.9954327,1409.34,-0.2,19.6,347.6,-1.0,88.63617858189399,9570063.705956647,9570063.705956647,9570063.705956647,9570063.705956647,25.42674897470175,7.954153224222025,24095.461944591887,92.9,44.3561121567422
1306893821.34,6.0192776,3.9957877,1415.94,-0.2,19.4,347.6,-1.0,85.59725411835477,9205401.668479871,9205401.668479871,9205401.668479871,9205401.668479871,23.37283127179081,7.9775078569654205,24379.83498071653,93.20000000000002,44.42020227047798
1306893821.76,6.0192819,3.9961466,1422.43,-0.2,19.1,347.5,-1.0,86.56746926843643,10213854.67118813,10213854.67118813,10213854.67118813,10213854.67118813,23.60487166600078,7.732960138744572,24336.310851438044,91.4,44.48301395026801
1306893822.19,6.0192872,3.9965204,1428.97,-0.2,18.8,347.5,-1.0,88.12754220539819,9795673.113214785,9795673.113214785,9795673.113214785,9795673.113214785,22.05358892196457,7.75647907573902,24607.67461663931,91.60000000000001,44.54445533259522
1306893822.61,6.019293,3.9968811,1435.07,-0.2,18.5,347.5,-1.0,86.90490107568019,9053776.095309392,9053776.095309392,9053776.095309392,9053776.095309392,22.51523323581669,7.767583121556603,25015.383280472422,91.9,44.59826438771333
1306893823.04,6.0192994,3.997244,1440.99,-0.2,18.2,347.5,-1.0,85.15134307715375,9174843.689088061,9174843.689088061,9174843.689088061,9174843.689088061,21.064173846771673,7.758927162506214,25095.75161878164,94.6,44.65055769479995
1306893823.47,6.0193065,3.9976127,1446.78,-0.2,17.9,347.5,-1.0,86.52465061932114,8927052.196367687,8927052.196367687,8927052.196367687,8927052.196367687,19.60462264536252,7.9747825001134895,25208.049103162848,98.4,44.70141180678595
1306893823.89,6.0193139,3.9979745,1452.23,-0.2,17.6,347.5,-1.0,86.93345774143476,8013279.268206135,8013279.268206135,8013279.268206135,8013279.268206135,19.912215285673472,8.029277847381806,24929.675064773248,97.8,44.750528167240894
1306893824.31,6.0193218,3.9983363,1457.45,-0.2,17.3,347.5,-1.0,86.91607938754969,8008376.710872478,8008376.710872478,8008376.710872478,8008376.710872478,19.508243025532966,7.953049286875216,25246.55345526401,96.80000000000001,44.798151745543606
1306893824.73,6.0193298,3.9986887,1462.3,-0.2,17.0,347.5,-1.0,84.28074058069284,7836274.157452185,7836274.157452185,7836274.157452185,7836274.157452185,20.80858860499489,7.972840216347831,24732.99608304061,96.60000000000001,44.84404522760835
1306893825.15,6.0193382,3.9990482,1467.03,-0.2,16.6,347.5,-1.0,86.08032581071215,7446272.623825072,7446272.623825072,7446272.623825072,7446272.623825072,23.300227009431186,7.764195539128372,25424.548994462246,96.2,44.88820861343512
1306893825.57,6.0193468,3.9994095,1471.54,-0.2,16.3,347.5,-1.0,86.46915745097675,7217838.208191557,7217838.208191557,7217838.208191557,7217838.208191557,25.02093424772693,7.642237772252733,25189.901956215035,97.70000000000002,44.930772043006414
1306893825.99,6.0193557,3.9997712,1475.82,-0.2,16.0,347.5,-1.0,86.61529349280578,7057255.71145158,7057255.71145158,7057255.71145158,7057255.71145158,25.47212172599074,7.696004957613335,25593.349400793017,99.9,44.97164365280519
1306893826.41,6.0193646,4.000135,1479.88,-0.2,15.7,347.3,-1.0,87.00415339027207,6642369.109680425,6642369.109680425,6642369.109680425,6642369.109680425,26.17941791965605,7.791968458518538,25230.52446761852,97.7,45.01061674991805
1306893826.83,6.0193735,4.0004923,1483.64,-0.2,15.3,347.3,-1.0,85.30485502833756,6001892.467215281,6001892.467215281,6001892.467215281,6001892.467215281,25.504803116226253,7.706456404000811,25490.839380127363,97.60000000000001,45.04779850844823
1306893827.25,6.0193824,4.000851,1487.18,-0.2,15.0,347.3,-1.0,85.59002687752375,5739251.951344263,5739251.951344263,5739251.951344263,5739251.951344263,26.057823010473626,7.771780216075517,25669.06656301269,94.89999999999999,45.08315830722339
1306893827.67,6.0193914,4.0012181,1490.57,-0.2,14.7,347.3,-1.0,87.74991031748586,5543613.99820811,5543613.99820811,5543613.99820811,5543613.99820811,27.315455501513373,7.6343331570178625,25717.011352003105,92.2,45.116680835657334
1306893828.09,6.0194003,4.0015799,1493.69,-0.2,14.4,347.3,-1.0,86.25541291958386,5104540.373428791,5104540.373428791,5104540.373428791,5104540.373428791,29.03066704771684,7.660019528094756,25867.867908489614,89.7,45.148419680801695
1306893828.51,6.019409,4.0019441,1496.59,-0.2,14.1,347.3,-1.0,86.89061971073905,4888104.741453762,4888104.741453762,4888104.741453762,4888104.741453762,29.467645856105523,7.492399867402741,25722.40500297399,90.3,45.17838249794955
1306893828.93,6.0194173,4.002303,1499.25,-0.2,13.8,347.3,-1.0,85.43286200060095,4799047.562083975,4799047.562083975,4799047.562083975,4799047.562083975,28.796874546404467,7.387401012518744,26338.818146169146,92.3,45.20666880591105
1306893829.35,6.0194257,4.0026714,1501.76,-0.2,13.5,347.3,-1.0,87.94574640572667,4443820.023868771,4443820.023868771,4443820.023868771,4443820.023868771,26.338137594659067,7.487856201788517,25808.22823875183,91.8,45.23325563880694
1306893829.98,6.0194376,4.0032189,1505.09,-0.2,13.1,347.3,-1.0,86.98349765114611,4040321.6774532287,4040321.6774532287,4040321.6774532287,4040321.6774532287,24.475132985322123,7.836065366673084,25762.90045052243,90.7,45.258939147118404
1306893830.61,6.0194489,4.0037729,1508.03,-0.2,12.7,347.3,-1.0,88.1035593174644,3799114.2189910063,3799114.2189910063,3799114.2189910063,3799114.2189910063,24.353367616815582,8.019191707361681,25543.89447817018,89.5,45.28359684615602
1306893831.03,6.019456,4.0041436,1509.75,-0.2,12.4,347.3,-1.0,88.4479277253749,3360250.6401888966,3360250.6401888966,3360250.6401888966,3360250.6401888966,24.812143943027408,8.044536699986327,25494.354416731836,90.0,45.30646320661097
1306893831.46,6.0194628,4.0045225,1511.33,-0.2,12.2,347.3,-1.0,88.25762552548078,3083907.619185651,3083907.619185651,3083907.619185651,3083907.619185651,25.434502016447723,7.822197983063856,24949.345198146937,90.8,45.327660713172655
1306893831.88,6.0194689,4.0048876,1512.69,-0.2,12.0,347.3,-1.0,86.84480342538187,2816052.4194433284,2816052.4194433284,2816052.4194433284,2816052.4194433284,27.252778415982533,7.568807322118995,24888.072265749866,92.69999999999999,45.347189365841075
1306893832.51,6.0194774,4.0054459,1514.47,-0.2,12.0,347.3,-1.0,88.7940980376546,2500581.1950656925,2500581.1950656925,2500581.1950656925,2500581.1950656925,26.698949012099543,7.504823931024571,24168.803666678552,94.9,45.36548551632226
1306893832.73,6.0194801,4.0056418,1515.02,-0.2,11.6,347.3,-1.0,89.27198972331702,2296042.0906031895,2296042.0906031895,2296042.0906031895,2296042.0906031895,24.82497260849867,7.5102999311668945,24935.076967530647,95.80000000000001,45.38181425647974
1306893833.15,6.019485,4.0060249,1515.98,-0.2,11.4,347.3,-1.0,91.63691687793585,2165079.6589140478,2165079.6589140478,2165079.6589140478,2165079.6589140478,24.16345657489014,7.740823705366967,24761.67790584152,93.70000000000002,45.39665786977808
1306893833.59,6.0194894,4.0064138,1516.83,-0.2,11.2,347.3,-1.0,88.41021535805538,1915331.330300344,1915331.330300344,1915331.330300344,1915331.330300344,25.158230420360034,7.712555577876847,24632.226336597567,93.70000000000002,45.41011587502742
1306893833.8,6.0194913,4.0066016,1517.19,-0.2,11.1,347.3,-1.0,89.65447503356691,1555025.371924444,1555025.371924444,1555025.371924444,1555025.371924444,26.01737253928622,7.68252112913698,24662.26537238506,94.2,45.42192799226277
1306893834.45,6.0194964,4.0071915,1518.16,-0.2,10.9,347.3,-1.0,91.10831274730732,1874256.676178462,1874256.676178462,1874256.676178462,1874256.676178462,27.712886579491183,7.3871455604696425,24677.384223777764,91.39999999999999,45.43193346032926
1306893835.3,6.0195009,4.0079586,1519.11,-0.2,10.7,347.3,-1.0,90.50902825145582,2820270.4966623327,2820270.4966623327,2820270.4966623327,2820270.4966623327,26.230520363518796,7.194674819549609,24609.878020993554,91.69999999999999,45.440415525071174
1306893835.73,6.0195022,4.0083502,1519.49,-0.2,10.6,347.3,-1.0,91.38921852604862,2475118.609171641,2475118.609171641,2475118.609171641,2475118.609171641,26.347453269807765,7.377982445058287,24995.392311593645,90.5,45.44787178053924
1306893836.61,6.0195022,4.0091582,1520.11,-0.2,10.5,347.3,-1.0,92.27933318483569,2724963.1356869848,2724963.1356869848,2724963.1356869848,2724963.1356869848,24.453313240372697,7.710705273166134,25531.049000636165,90.39999999999999,45.454593127870815
1306893837.24,6.019502,4.009746,1520.48,-0.2,10.5,346.8,-1.0,93.9098002635809,2818527.4545562114,2818527.4545562114,2818527.4545562114,2818527.4545562114,23.72943660739329,7.840655927576361,25906.019378419718,87.6,45.460556601186646
1306893839.35,6.0194883,4.0117217,1521.88,-0.2,10.7,346.7,-1.0,94.26329922619406,2443765.9663506285,2443765.9663506285,2443765.9663506285,2443765.9663506285,23.381045128745512,8.031930057688983,25699.13960614487,84.8,45.46622917336512
1306893841.03,6.019467,4.0133123,1523.95,-0.2,11.1,346.7,-1.0,95.44437435964102,2212325.478506273,2212325.478506273,2212325.478506273,2212325.478506273,23.16359629210962,7.9025823535056965,25455.442739602913,84.39999999999999,45.47306535009303
1306893841.45,6.0194603,4.0137148,1524.7,-0.2,11.2,346.6,-1.0,96.71029870671609,2994662.276729976,2994662.276729976,2994662.276729976,2994662.276729976,24.4004879042043,7.552844242422158,25232.303434331887,83.9,45.47974076566609
1306893841.66,6.0194568,4.013916,1525.12,-0.2,11.3,346.6,-1.0,96.60893341025255,2346616.5753261065,2346616.5753261065,2346616.5753261065,2346616.5753261065,21.99931588828505,7.482406089676391,25409.741228656436,83.80000000000001,45.48608700363634
1306893841.87,6.0194532,4.0141155,1525.56,-0.2,11.4,346.6,-1.0,95.82681797662944,2044191.3564003513,2044191.3564003513,2044191.3564003513,2044191.3564003513,21.52334000573021,7.33515130898671,25356.458131792933,84.0,45.4924944839513
1306893842.72,6.0194373,4.0149325,1527.71,-0.2,11.7,346.6,-1.0,97.05951165454043,892850.2669200831,892850.2669200831,892850.2669200831,892850.2669200831,21.191760541178684,7.414775647889866,25064.944281619835,84.7,45.49980528885069
1306893842.99,6.0194318,4.015198,1528.53,-0.2,11.8,346.6,-1.0,99.57017134572911,814501.7052897649,814501.7052897649,814501.7052897649,814501.7052897649,21.580250151370883,7.680585669490325,25125.327154178314,85.70000000000002,45.50701657493993
1306893843.43,6.0194227,4.0156196,1529.97,-0.2,12.0,346.5,-1.0,96.71122552819415,752032.6625739974,752032.6625739974,752032.6625739974,752032.6625739974,21.414860693814457,7.36426831208166,24720.670072573907,87.60000000000002,45.51503932209654
1306893843.64,6.0194182,4.0158239,1530.73,-0.2,12.1,346.5,-1.0,98.49341577264047,1645249.2955217662,1645249.2955217662,1645249.2955217662,1645249.2955217662,21.695393911413543,7.298035784125306,24932.239473744856,86.9,45.52316924335638
1306893843.85,6.0194135,4.0160304,1531.53,-0.2,12.2,346.5,-1.0,99.49074549830415,1205548.322536764,1205548.322536764,1205548.322536764,1205548.322536764,21.709227761999287,7.1980816039455995,24834.769600173728,90.30000000000001,45.531628342219015
1306893844.27,6.019404,4.0164391,1533.26,-0.2,12.4,346.5,-1.0,98.43741480701422,4464084.677319018,4464084.677319018,4464084.677319018,4464084.677319018,23.189406933610286,7.163367668992632,25242.97993892714,92.80000000000001,45.540340065753576
1306893844.91,6.0193892,4.0170568,1536.19,-0.2,12.7,346.5,-1.0,97.56579479444136,5347897.0242832275,5347897.0242832275,5347897.0242832275,5347897.0242832275,25.57663001495315,7.1868383997560965,25378.369913585208,95.2,45.54971014449374
1306893845.12,6.0193842,4.0172574,1537.24,-0.2,12.9,346.5,-1.0,96.43911042319161,5942150.050416703,5942150.050416703,5942150.050416703,5942150.050416703,23.33734229489533,7.177602738036466,25319.071679465906,96.8,45.55930988202655
1306893845.75,6.0193687,4.0178757,1540.74,-0.2,13.2,346.5,-1.0,99.47585163773208,4900392.8250090545,4900392.8250090545,4900392.8250090545,4900392.8250090545,25.92104810903138,7.236445371717153,25328.023630844917,94.4,45.57126744983057
1306893846.4,6.0193524,4.0185067,1544.78,-0.2,13.6,346.5,-1.0,98.2274048482229,1846978.49475358,1846978.49475358,1846978.49475358,1846978.49475358,27.22584122011887,7.446952896243066,25843.478108560426,93.60000000000001,45.58598092314641
1306893846.62,6.0193466,4.0187276,1546.3,-0.2,13.7,346.5,-1.0,102.17555114554521,3962820.579446756,3962820.579446756,3962820.579446756,3962820.579446756,27.539172915136408,7.362676947455964,26381.679542796366,96.30000000000001,45.60021211299767
1306893847.07,6.019335,4.0191676,1549.51,-0.2,14.0,346.5,-1.0,99.13978761412339,2148345.7867947677,2148345.7867947677,2148345.7867947677,2148345.7867947677,29.32649937895714,7.126656749820466,25976.128347468828,94.80000000000001,45.61627291789706
1306893847.49,6.0193242,4.0195775,1552.72,-0.2,14.2,346.3,-1.0,98.93785114444603,2089519.558567903,2089519.558567903,2089519.558567903,2089519.558567903,27.671191957668654,7.279882737876404,26056.879261671133,93.2,45.63368870967309
1306893847.93,6.0193127,4.020008,1556.32,-0.2,14.5,346.3,-1.0,99.27137538272528,3827010.8626656425,3827010.8626656425,3827010.8626656425,3827010.8626656425,28.633070537981002,7.166689760328019,25824.727142277632,91.7,45.653278604686214
1306893848.15,6.0193069,4.0202262,1558.24,-0.2,14.6,346.3,-1.0,100.89031556319223,7047316.413896123,7047316.413896123,7047316.413896123,7047316.413896123,29.621948554565726,7.096413349528657,25522.781686299237,88.10000000000001,45.67372589252523
1306893848.58,6.0192959,4.020643,1562.06,-0.2,14.9,346.3,-1.0,98.28085179869666,8017480.799390115,8017480.799390115,8017480.799390115,8017480.799390115,28.48407539664633,7.037170529771438,25890.992151570896,87.9,45.69577313661972
1306893849.22,6.0192793,4.0212698,1568.23,-0.2,15.3,346.3,-1.0,99.5182848222849,5202729.661140463,5202729.661140463,5202729.661140463,5202729.661140463,26.528467178342297,7.0923923329730325,25858.773710946167,87.60000000000001,45.72030069567483
1306893850.1,6.0192569,4.0221293,1577.51,-0.2,15.9,346.3,-1.0,99.3119611140719,3652811.2687473795,3652811.2687473795,3652811.2687473795,3652811.2687473795,27.504820308079942,7.146385958563624,26247.292173641028,86.00000000000001,45.75112856094167
1306893850.73,6.0192414,4.0227416,1584.69,-0.2,16.2,346.3,-1.0,98.8709838521331,3322630.8209501463,3322630.8209501463,3322630.8209501463,3322630.8209501463,25.939966897575278,7.146980099955464,26026.319764776224,87.7,45.78477357406503
1306893851.36,6.0192261,4.0233557,1592.38,-0.2,16.6,346.3,-1.0,99.32817180064484,4680215.271512368,4680215.271512368,4680215.271512368,4680215.271512368,24.819925917157487,7.138419938683164,25818.007036200645,86.5,45.82121276916565
1306893851.57,6.0192211,4.0235637,1595.09,-0.2,16.7,346.1,-1.0,101.03580600865929,4774389.124099372,4774389.124099372,4774389.124099372,4774389.124099372,24.632842424198518,7.150830111294653,25116.314993658976,87.0,45.85856294414378
