timestamp,longitude,latitude,altitude,roll,pitch,yaw,heading,air_speed,engine_0,engine_1,engine_2,engine_3,temperature_in,humidity_in,pressure_in,heart_rate,oxygen_mask
1306893651.15,5.8544104,3.9282649,-1.0,-1.0,1.1,-1.0,-1.0,50.03768929419622,21371702.26022393,21371702.26022393,21371702.26022393,21371702.26022393,25.730456804873494,7.7478460655751515,24179.077427777454,91.5,27.75094495642945
1306893663.79,5.86171,3.9296268,-1.0,-1.0,1.0,-1.0,-1.0,50.03768929419622,25612757.17339503,25612757.17339503,25612757.17339503,25612757.17339503,25.337621326953357,7.979300853317262,23948.926761701747,92.6,27.678035945055875
1306893705.11,5.9020464,3.9372573,99.6,1.1,6.6,-1.0,-1.0,84.31027827999617,24926402.751267295,24926402.751267295,24926402.751267295,24926402.751267295,24.3045817256646,7.993115129157004,23482.249707527215,91.0,27.681542069290344
1306893705.97,5.9030301,3.9374466,99.04,1.1,6.5,77.0,-1.0,98.82950318745638,14651657.609383143,14651657.609383143,14651657.609383143,14651657.609383143,24.472304345110114,7.748084779994443,23723.632056258073,91.1,27.683524790200234
1306893706.19,5.9032916,3.9374964,98.64,1.1,6.4,77.0,-1.0,102.60552679231037,12913524.271423776,12913524.271423776,12913524.271423776,12913524.271423776,22.35165442169161,7.770308833557994,24449.32720055781,90.30000000000001,27.68473432650819
1306893706.63,5.9037975,3.9375924,97.65,1.1,6.3,77.0,-1.0,99.22011548662987,12913524.271423774,12913524.271423774,12913524.271423774,12913524.271423774,22.351654421691613,7.770308833557994,24449.327200557807,90.30000000000001,27.68473432650819
1306893706.84,5.9040524,3.9376405,97.06,1.1,6.2,77.0,-1.0,104.59647900360753,14651657.609383142,14651657.609383142,14651657.609383142,14651657.609383142,24.47230434511011,7.748084779994443,23723.632056258073,91.10000000000001,27.68352479020023
1306893707.05,5.9042916,3.9376854,96.45,1.1,6.1,77.1,-1.0,98.22176902852085,24926402.751267295,24926402.751267295,24926402.751267295,24926402.751267295,24.304581725664594,7.993115129157003,23482.24970752721,91.0,27.681542069290344
1306893707.48,5.9048008,3.9377805,95.02,1.1,6.0,77.1,-1.0,102.19680808811309,25612757.173395038,25612757.173395038,25612757.173395038,25612757.173395038,25.337621326953354,7.979300853317261,23948.926761701747,92.60000000000001,27.678035945055875
1306893707.7,5.9050568,3.937828,94.24,1.0,5.9,77.1,-1.0,100.32132719968853,21371702.260223925,21371702.260223925,21371702.260223925,21371702.260223925,25.730456804873487,7.7478460655751515,24179.077427777454,91.50000000000001,27.75094495642945
1306893708.12,5.9055605,3.9379211,92.64,1.0,6.0,77.2,-1.0,103.46033258753401,13433897.00190994,13433897.00190994,13433897.00190994,13433897.00190994,28.149270349519924,7.843138436652118,24154.026987423764,94.4,27.82262912090889
1306893708.34,5.9058213,3.937969,91.83,0.9,6.1,77.2,-1.0,102.10009792450819,3552435.467431008,3552435.467431008,3552435.467431008,3552435.467431008,29.251085619687654,7.769843170464523,24815.582665482594,92.5,27.893693206648173
1306893708.56,5.906095,3.9380192,91.05,0.9,6.3,77.2,-1.0,107.16151099176727,7450487.564722869,7450487.564722869,7450487.564722869,7450487.564722869,29.106839227546512,7.7877680695494345,25080.33414779926,95.1,27.887147931057623
1306893708.77,5.906343,3.9380645,90.43,0.9,6.5,77.2,-1.0,101.76230976474069,5406610.325064779,5406610.325064779,5406610.325064779,5406610.325064779,26.90794004223596,7.972420964884137,25149.043266632634,95.7,27.880556723708537
1306893708.99,5.9066061,3.9381124,89.89,0.8,6.9,77.2,-1.0,103.15059666991547,5191246.720046033,5191246.720046033,5191246.720046033,5191246.720046033,27.745514396268046,7.971848508936315,24647.296340776185,98.10000000000001,27.87385834225622
1306893709.21,5.9068687,3.9381601,89.5,0.7,7.3,77.3,-1.0,102.52747481703074,4931222.389338355,4931222.389338355,4931222.389338355,4931222.389338355,27.829542159140207,7.78494804764628,25390.382906343297,97.50000000000003,27.8676192783892
1306893709.42,5.9071305,3.9382076,89.29,0.7,7.8,77.3,-1.0,107.39863405679675,1400636.2206865763,1400636.2206865763,1400636.2206865763,1400636.2206865763,27.576134432044537,7.924166301686499,26161.80581650359,98.50000000000001,27.861671115659544
1306893709.63,5.9073892,3.9382543,89.3,0.6,8.3,77.3,-1.0,106.06145307475794,1193972.7373702915,1193972.7373702915,1193972.7373702915,1193972.7373702915,27.68739527143564,7.616467737856835,26027.957121539686,98.4,27.856197581101362
1306893709.84,5.9076359,3.9382989,89.52,0.6,8.8,77.3,-1.0,101.05431531376114,1417117.1185647105,1417117.1185647105,1417117.1185647105,1417117.1185647105,27.202262734590054,7.514502842473697,25772.6314753705,96.3,27.851987169902767
1306893710.06,5.907906,3.9383477,90.0,0.5,9.2,77.3,-1.0,105.78674602448923,1113528.8787754655,1113528.8787754655,1113528.8787754655,1113528.8787754655,29.197744572030082,7.398524886340545,25451.156084755494,94.50000000000001,27.8487413256333
1306893710.27,5.908164,3.9383942,90.7,0.4,9.4,77.3,-1.0,105.81291928869382,2760845.369233943,2760845.369233943,2760845.369233943,2760845.369233943,27.40570591453488,7.449170600393954,25863.240796415434,93.19999999999999,27.847256198774154
1306893710.48,5.9084208,3.9384406,91.61,0.3,9.6,77.4,-1.0,105.24323415432733,552746.2222801106,552746.2222801106,552746.2222801106,552746.2222801106,26.851668349090435,7.462197543175177,25167.888167843303,94.1,27.847087782326213
1306893710.69,5.9086776,3.938487,92.71,0.3,9.7,77.4,-1.0,105.53012721784435,1119798.7315859483,1119798.7315859483,1119798.7315859483,1119798.7315859483,28.68340964772608,7.621250180186704,25483.82253382502,94.30000000000001,27.84835856097888
1306893710.9,5.9089318,3.938533,93.98,0.2,9.8,77.4,-1.0,104.38059527129442,1472111.0645541977,1472111.0645541977,1472111.0645541977,1472111.0645541977,29.262997026206172,7.49873605571502,24770.666583256912,92.0,27.851076190025246
1306893711.32,5.9094375,3.9386247,96.95,0.1,9.7,77.4,-1.0,103.83739859333976,1429868.122640893,1429868.122640893,1429868.122640893,1429868.122640893,30.12929370269714,7.373985773537071,24843.302127730534,92.8,27.856480826945635
1306893711.54,5.9096998,3.9386725,98.68,0.0,9.6,77.4,-1.0,103.13010231243595,6838877.336923874,6838877.336923874,6838877.336923874,6838877.336923874,29.331441584201333,7.708761215147915,24992.4462191512,92.80000000000001,27.863508386000753
1306893711.76,5.9099741,3.9387226,100.6,0.0,9.5,77.4,-1.0,107.67801857578677,7281661.424363685,7281661.424363685,7281661.424363685,7281661.424363685,26.818959304236454,7.541319340706023,24303.788556877975,94.4,27.872166522483695
1306893711.97,5.9102324,3.9387699,102.5,-0.1,9.4,77.4,-1.0,106.27057015632236,4321943.601392761,4321943.601392761,4321943.601392761,4321943.601392761,23.9849134397254,7.798321902117954,24772.0202200453,94.20000000000002,27.88227150936033
1306893712.18,5.9104771,3.9388149,104.37,-0.1,9.3,77.4,-1.0,100.60490525647921,6724805.494075812,6724805.494075812,6724805.494075812,6724805.494075812,22.683505105945972,7.833524638627783,25044.896953639403,97.50000000000001,27.893639619596556
1306893712.39,5.9107375,3.9388629,106.4,-0.1,9.1,77.4,-1.0,107.32202865973278,8497562.820090542,8497562.820090542,8497562.820090542,8497562.820090542,20.40615780043951,7.831103477239653,25038.435459184777,99.00000000000001,27.906194300261472
1306893712.61,5.9110073,3.9389129,108.56,-0.2,9.0,77.4,-1.0,106.11775821976853,3301563.432185725,3301563.432185725,3301563.432185725,3301563.432185725,21.32470961361452,7.845066545842066,24695.947373292434,98.8,27.919866653717285
1306893712.82,5.9112613,3.9389601,110.61,-0.2,8.8,77.4,-1.0,104.84499285744884,3332760.007911558,3332760.007911558,3332760.007911558,3332760.007911558,21.748441557682877,7.717889151780458,24923.45168316654,96.8,27.93441171058518
1306893713.04,5.9115163,3.9390076,112.67,-0.2,8.6,77.4,-1.0,100.39554718753314,5703466.1407219805,5703466.1407219805,5703466.1407219805,5703466.1407219805,19.233945288332908,7.649231660658663,24290.927362697494,97.2,27.949691675589552
1306893713.26,5.9117882,3.9390585,114.84,-0.2,8.4,77.4,-1.0,106.85807985559315,7235424.350935158,7235424.350935158,7235424.350935158,7235424.350935158,18.741543373857326,7.757689976991225,24323.329285497588,95.80000000000001,27.965660616971878
1306893713.47,5.9120469,3.9391071,116.82,-0.3,8.1,77.4,-1.0,106.79938124739994,5043606.448458028,5043606.448458028,5043606.448458028,5043606.448458028,17.2876988897588,7.69389314484083,24063.017981538076,95.50000000000001,27.98087168433846
1306893713.68,5.9122922,3.9391535,118.61,-0.3,7.8,77.4,-1.0,101.06686162096754,7816532.798347052,7816532.798347052,7816532.798347052,7816532.798347052,17.158924911817557,7.727981031944046,23399.47891521275,95.2,27.99612868346357
1306893713.89,5.9125523,3.9392028,120.38,-0.3,7.6,77.4,-1.0,107.11534774805992,9721313.93096079,9721313.93096079,9721313.93096079,9721313.93096079,17.070932944270513,7.584854878469458,23799.972460579946,92.3,28.011270853192354
1306893714.11,5.912821,3.939254,122.05,-0.3,7.3,77.4,-1.0,105.59096727375388,4583002.0350230485,4583002.0350230485,4583002.0350230485,4583002.0350230485,20.00253755762377,7.318683002341365,23164.13034268787,91.30000000000001,28.026236951180106
1306893714.32,5.9130755,3.9393026,123.46,-0.3,7.0,77.3,-1.0,104.81408954726314,4967287.629462283,4967287.629462283,4967287.629462283,4967287.629462283,21.142207682210838,7.416220639459716,22703.574453380857,88.80000000000001,28.040850905685794
1306893714.53,5.9133279,3.9393509,124.68,-0.2,6.8,77.3,-1.0,103.8270133910237,5542710.282512412,5542710.282512412,5542710.282512412,5542710.282512412,21.622582130670732,7.580378058837805,22610.922364518363,89.7,28.05484478145132
1306893714.75,5.9135929,3.9394018,125.75,-0.2,6.6,77.3,-1.0,104.26541812660405,4768219.919441429,4768219.919441429,4768219.919441429,4768219.919441429,21.26095878565619,7.57877479098568,23135.49267303612,88.39999999999999,28.068004230270216
1306893714.97,5.9138548,3.9394522,126.6,-0.2,6.4,77.3,-1.0,102.74402346120162,4569630.497026005,4569630.497026005,4569630.497026005,4569630.497026005,20.164371236589353,7.641684212352704,23556.760595024727,88.69999999999999,28.08024504391851
1306893715.18,5.914116,3.9395025,127.26,-0.2,6.3,77.3,-1.0,107.5032713221326,10387014.778744416,10387014.778744416,10387014.778744416,10387014.778744416,20.306674904854844,7.727460286834339,23308.259586458364,86.0,28.091414116534438
1306893715.61,5.9146413,3.9396038,128.08,-0.1,6.4,77.3,-1.0,105.41278290377686,6724855.555979398,6724855.555979398,6724855.555979398,6724855.555979398,22.477545965562665,7.442389659478829,23789.004000931523,87.00000000000001,28.10154972458343
1306893715.82,5.9149018,3.9396539,128.3,-0.1,6.5,77.3,-1.0,107.19016780807283,3518488.767626687,3518488.767626687,3518488.767626687,3518488.767626687,23.339063007181608,7.352915181183108,23874.974432737512,85.80000000000001,28.110338001048873
1306893716.03,5.9151629,3.9397042,128.41,-0.1,6.6,77.3,-1.0,107.24429041168776,2891858.494714626,2891858.494714626,2891858.494714626,2891858.494714626,23.852517987388328,7.076184250282119,24369.185838519927,83.00000000000001,28.117840188275466
1306893716.24,5.915416,3.9397529,128.44,-0.0,6.8,77.3,-1.0,104.01098915620678,9335368.41205126,9335368.41205126,9335368.41205126,9335368.41205126,24.26653980952294,7.142123857166658,24168.22965507247,83.40000000000002,28.124010354504687
1306893716.46,5.9156932,3.9398062,128.41,-0.0,6.9,77.3,-1.0,108.69020486743281,9479032.455733372,9479032.455733372,9479032.455733372,9479032.455733372,23.91511904209006,7.18304375291049,24913.083369388423,82.60000000000001,28.128879120908888
1306893716.67,5.9159499,3.9398554,128.33,0.1,7.0,77.3,-1.0,105.60579051024803,9638575.104314044,9638575.104314044,9638575.104314044,9638575.104314044,23.663321530785698,7.249083148594195,25046.9123271667,85.20000000000002,28.132607248642923
1306893716.9,5.9162321,3.9399096,128.21,0.1,7.1,77.3,-1.0,106.01458124803405,4884328.582266878,4884328.582266878,4884328.582266878,4884328.582266878,23.621558480872487,7.199583222009592,25774.147745109312,82.60000000000002,28.135309567103118
1306893717.11,5.9164938,3.9399597,128.08,0.1,7.2,77.3,-1.0,107.47365067092414,1037310.7618908243,1037310.7618908243,1037310.7618908243,1037310.7618908243,22.322121077013282,6.867034455924911,25471.08000509594,82.30000000000001,28.137093250392706
1306893717.33,5.9167811,3.9400146,127.92,0.2,7.2,77.3,-1.0,112.63031948565727,3418326.035621794,3418326.035621794,3418326.035621794,3418326.035621794,24.499044082737917,6.964831491142336,25492.84934083667,84.60000000000002,28.138103749080372
1306893717.54,5.9170365,3.9400634,127.77,0.2,7.3,77.3,-1.0,104.88805119645824,3107228.583667308,3107228.583667308,3107228.583667308,3107228.583667308,24.55072742496566,6.953041615405747,25627.927907248923,85.80000000000001,28.138494169027876
1306893717.75,5.9173063,3.940115,127.61,0.2,7.4,77.3,-1.0,110.99732017892659,987249.8729538321,987249.8729538321,987249.8729538321,987249.8729538321,21.884852077048762,7.226651546532456,25390.238893558668,87.00000000000001,28.138134370252722
1306893717.96,5.9175654,3.9401644,127.46,0.3,7.5,77.4,-1.0,106.46775347097662,6332948.050410716,6332948.050410716,6332948.050410716,6332948.050410716,20.209914785530017,7.240404307477307,25996.61610290263,86.10000000000001,28.1374913256333
1306893718.59,5.9183634,3.9403164,127.1,0.3,7.7,77.4,-1.0,109.2464745618632,6943973.107679251,6943973.107679251,6943973.107679251,6943973.107679251,20.089234548945626,7.1476745410706535,25262.118911119254,89.89999999999999,28.136488482238722
1306893719.02,5.9189079,3.9404199,126.96,0.4,7.7,77.4,-1.0,109.24710684371225,1655886.0725087572,1655886.0725087572,1655886.0725087572,1655886.0725087572,19.81980333872863,7.1722948079016104,25568.29880164512,89.2,28.135355498861646
1306893719.44,5.9194405,3.9405209,126.96,0.4,8.0,77.4,-1.0,109.46233167873005,2927861.123903456,2927861.123903456,2927861.123903456,2927861.123903456,19.483529594271612,7.423242322489584,25630.07955466077,89.19999999999999,28.134245481363834
1306893719.65,5.9197127,3.9405725,126.96,0.4,8.1,77.4,-1.0,111.58253158856003,5964467.698095683,5964467.698095683,5964467.698095683,5964467.698095683,18.52788196986776,7.386633173781737,25941.473273193104,85.89999999999999,28.13319670621073
1306893719.88,5.9199995,3.9406268,127.04,0.4,8.2,77.4,-1.0,107.62646856664415,8234107.193630847,8234107.193630847,8234107.193630847,8234107.193630847,18.562431212598028,7.36600478816474,25722.193572439523,86.09999999999998,28.132301036919394
1306893720.09,5.9202739,3.9406787,127.15,0.4,8.3,77.4,-1.0,112.77615387830963,9015338.499096602,9015338.499096602,9015338.499096602,9015338.499096602,20.387076024918148,7.410351055667881,26070.681035726397,86.9,28.131589094662175
1306893720.3,5.9205489,3.9407307,127.3,0.4,8.4,77.4,-1.0,112.73167748026337,477090.4589247517,477090.4589247517,477090.4589247517,477090.4589247517,19.90473838241111,7.401754808687592,25630.055700096396,85.30000000000001,28.131114466490693
1306893720.51,5.9208127,3.9407806,127.48,0.4,8.5,77.4,-1.0,108.36878573864765,1505973.9263868895,1505973.9263868895,1505973.9263868895,1505973.9263868895,21.778078017178835,7.464915191404327,25632.529529050305,85.7,28.130892462991127
1306893720.95,5.9213881,3.9408892,128.02,0.4,8.5,77.5,-1.0,112.79103657417355,2270952.3485565106,2270952.3485565106,2270952.3485565106,2270952.3485565106,24.179676311080218,7.399905034448606,25639.5674473251,85.5,28.131206330007746
1306893721.37,5.9219278,3.940991,128.65,0.4,8.4,77.5,-1.0,110.85152495405801,2153292.8175383313,2153292.8175383313,2153292.8175383313,2153292.8175383313,24.362119237928958,7.724361146711724,25726.186938985833,87.90000000000002,28.132117309885263
1306893722.01,5.9227501,3.9411461,129.81,0.4,8.3,77.5,-1.0,110.80572939515851,447056.3326394068,447056.3326394068,447056.3326394068,447056.3326394068,25.30566180902457,7.844328383889001,26603.085999334286,84.4,28.134191894312213
1306893722.66,5.9235995,3.9413063,131.14,0.4,8.2,77.5,-1.0,112.66933644393804,7748318.083209259,7748318.083209259,7748318.083209259,7748318.083209259,27.986264822716016,7.9305414292960705,26903.577715162104,86.80000000000001,28.137391806823146
1306893723.51,5.9247183,3.9415172,133.02,0.4,8.2,77.6,-1.0,113.48555489143473,10006737.419492498,10006737.419492498,10006737.419492498,10006737.419492498,26.887122629880654,7.622735288139276,26104.7558304247,87.50000000000001,28.1420309144347
1306893723.72,5.9249947,3.9415694,133.5,0.4,8.1,77.6,-1.0,113.68682079400998,7502617.9588927245,7502617.9588927245,7502617.9588927245,7502617.9588927245,27.208792808850415,7.582481078042484,25494.312980042985,88.10000000000001,28.147037476114484
1306893724.98,5.9266557,3.9418832,136.44,0.4,8.1,77.6,-1.0,113.68668478418519,9775097.594814623,9775097.594814623,9775097.594814623,9775097.594814623,27.54197223551719,7.725923833454723,25191.801273960937,88.50000000000001,28.15423345161755
1306893726.47,5.9286492,3.9422599,140.2,0.4,8.1,77.7,-1.0,115.39065868345453,5352178.779950643,5352178.779950643,5352178.779950643,5352178.779950643,26.45613945070199,7.767404650871591,25329.082256470978,87.9,28.164223609097867
1306893728.18,5.93095,3.9426942,144.97,0.4,8.1,77.7,-1.0,116.03636020972351,1624104.370667962,1624104.370667962,1624104.370667962,1624104.370667962,24.818992455171944,7.75513625212695,25341.29551480018,88.9,28.177750511985007
1306893729.46,5.9326953,3.9430227,148.92,0.4,8.1,77.8,-1.0,117.57028552953714,2920657.8503275607,2920657.8503275607,2920657.8503275607,2920657.8503275607,24.574155189509163,7.75442303263761,25428.27804636066,88.50000000000001,28.19416346036646
1306893731.35,5.9352955,3.9435133,155.3,0.4,8.1,77.8,-1.0,118.64280361849478,2304634.419162549,2304634.419162549,2304634.419162549,2304634.419162549,23.450792750714697,7.827048660609677,25866.01959737015,88.50000000000001,28.215047099911516
1306893732.82,5.9373202,3.9438942,160.65,0.4,8.1,77.9,-1.0,118.81117667797223,2737065.146168811,2737065.146168811,2737065.146168811,2737065.146168811,24.047876831104265,7.7242188829831315,25867.212531883608,85.20000000000002,28.239544037794282
1306893733.45,5.9382029,3.9440604,163.07,0.3,8.1,77.9,-1.0,120.8140239777668,3416753.203642071,3416753.203642071,3416753.203642071,3416753.203642071,21.763242986416323,7.6788266488075125,25589.431480571744,88.2,28.26500554260618
1306893734.93,5.9402798,3.9444519,168.98,0.3,8.1,77.9,-1.0,121.00573305562074,3121236.69526524,3121236.69526524,3121236.69526524,3121236.69526524,19.3663255929302,7.624896418064261,24946.771582049416,86.60000000000001,28.29397317165255
1306893735.99,5.941762,3.9447322,173.38,0.4,8.1,77.9,-1.0,120.64038850334565,2972648.839168332,2972648.839168332,2972648.839168332,2972648.839168332,20.819481996473584,7.886819681096653,25625.05356438423,87.2,28.32486993455718
1306893736.44,5.9423976,3.9448525,175.31,0.4,8.1,78.0,-1.0,121.91307746863218,3068523.2131687347,3068523.2131687347,3068523.2131687347,3068523.2131687347,21.222257809772238,7.824250110667787,26110.721235348294,87.30000000000001,28.356876714959633
1306893738.57,5.9454272,3.9454275,184.83,0.4,8.1,78.0,-1.0,122.7185922222865,2721092.46020222,2721092.46020222,2721092.46020222,2721092.46020222,20.920983125075438,7.8145030369972055,26147.34732973753,88.70000000000002,28.39392067821423
1306893739.0,5.9460384,3.9455438,186.82,0.5,8.1,78.0,-1.0,122.68875349466781,2741260.9673244106,2741260.9673244106,2741260.9673244106,2741260.9673244106,20.463843689065953,7.9995099715613955,26164.69423496478,89.19999999999999,28.42960965459218
1306893739.44,5.9466693,3.9456639,188.89,0.5,8.1,78.1,-1.0,123.69619505670559,3319843.4132917696,3319843.4132917696,3319843.4132917696,3319843.4132917696,23.246799382762205,8.032484158106282,26536.376880717868,86.99999999999999,28.46323170183627
1306893740.92,5.9488007,3.94607,196.05,0.6,8.1,78.1,-1.0,124.28591778525566,3164829.2932262276,3164829.2932262276,3164829.2932262276,3164829.2932262276,23.302307911686295,7.905424403918544,26629.316845448753,86.69999999999999,28.499311098161733
1306893741.13,5.9490975,3.9461266,197.06,0.6,8.1,78.1,-1.0,122.12337951099484,3306456.640186014,3306456.640186014,3306456.640186014,3306456.640186014,22.25331104626235,7.768315257809505,26521.212672730246,85.9,28.531279602098742
1306893741.99,5.9503361,3.9463638,201.35,0.6,8.1,78.2,-1.0,124.32055445108887,6375285.546869989,6375285.546869989,6375285.546869989,6375285.546869989,23.005338025060553,7.605985186821725,25788.48879990519,87.7,28.562436644968383
1306893742.62,5.9512506,3.9465399,204.56,0.7,8.1,78.2,-1.0,125.3160203030781,8371425.3400177015,8371425.3400177015,8371425.3400177015,8371425.3400177015,24.64926234581659,7.65597115031718,25842.18818008201,85.60000000000001,28.594198455992004
1306893743.26,5.9521757,3.9467188,207.85,0.7,8.1,78.2,-1.0,124.88650347108648,10519597.551236805,10519597.551236805,10519597.551236805,10519597.551236805,25.431617380001704,7.521095350697846,25654.484632771087,86.30000000000001,28.623954580226474
1306893743.69,5.9528047,3.9468405,210.11,0.8,8.1,78.2,-1.0,126.43456912414604,13597572.147934979,13597572.147934979,13597572.147934979,13597572.147934979,24.80260929266002,7.608592907103374,25662.38640338197,84.30000000000001,28.652072471740034
1306893743.91,5.9531262,3.9469027,211.28,0.8,8.1,78.3,-1.0,126.13080250195101,12651337.618069632,12651337.618069632,12651337.618069632,12651337.618069632,24.130935031047848,7.55047919355544,25198.996298237005,85.10000000000001,28.67960856097888
1306893744.57,5.9540805,3.9470867,214.75,0.9,8.1,78.3,-1.0,124.91244247326406,10060738.430666313,10060738.430666313,10060738.430666313,10060738.430666313,23.74732179695105,7.525013477574719,24964.270087150355,83.9,28.702513197899265
1306893745.0,5.9547097,3.9472078,217.07,0.9,8.1,78.3,-1.0,126.26450457045655,8947910.827729901,8947910.827729901,8947910.827729901,8947910.827729901,24.869980238437297,7.43653003530176,24660.200145104693,83.30000000000001,28.725670459491567
1306893745.42,5.9553223,3.9473255,219.34,0.9,8.1,78.4,-1.0,126.04143936284589,6725779.185495881,6725779.185495881,6725779.185495881,6725779.185495881,22.77231369580466,7.150186235039704,24720.26583157973,86.50000000000001,28.748980826945633
1306893745.84,5.9559418,3.9474442,221.65,1.0,8.1,78.4,-1.0,127.3091510998907,5269403.886905854,5269403.886905854,5269403.886905854,5269403.886905854,23.139428485296516,7.226478435779638,24770.01657678489,86.9,28.768578377251846
1306893746.5,5.9569117,3.9476296,225.3,1.0,8.1,78.4,-1.0,126.85903944038817,5980938.406661285,5980938.406661285,5980938.406661285,5980938.406661285,24.111534031047377,7.204107624606809,24203.991767368105,86.8,28.790196924933383
1306893746.72,5.9572336,3.947691,226.52,1.0,8.1,78.5,-1.0,126.30111236155547,5552835.685617474,5552835.685617474,5552835.685617474,5552835.685617474,22.555554580721477,7.419056726447199,24657.193881289728,86.60000000000001,28.809465297636798
1306893748.04,5.959185,3.9480616,234.01,1.0,8.1,78.6,-1.0,127.60404309066719,5626164.212930708,5626164.212930708,5626164.212930708,5626164.212930708,20.85123826288779,7.616281260072517,24551.551783528947,87.80000000000001,28.83201013578203
1306893748.89,5.9604382,3.9482982,238.89,0.9,8.1,78.6,-1.0,127.23977147580253,6283148.940073736,6283148.940073736,6283148.940073736,6283148.940073736,21.850876360116093,7.8188319337151,25432.36441932583,88.50000000000001,28.85577216552831
1306893750.2,5.9623776,3.9486623,246.56,0.8,8.1,78.6,-1.0,127.71025231481563,6804224.407516561,6804224.407516561,6804224.407516561,6804224.407516561,21.525215574033023,7.758563483384329,25037.210970129556,91.50000000000001,28.883675708835398
1306893751.06,5.9636698,3.9489037,251.74,0.7,8.1,78.6,-1.0,129.54251015076903,8123322.30052362,8123322.30052362,8123322.30052362,8123322.30052362,23.73119750457082,8.04222726277346,25268.19471998279,91.60000000000001,28.91464902467092
1306893751.91,5.9649297,3.9491383,256.85,0.6,8.1,78.6,-1.0,127.81059230764366,8646128.898523856,8646128.898523856,8646128.898523856,8646128.898523856,25.44600102598494,7.975184233646551,25755.607726239996,93.0,28.946877808572932
1306893752.77,5.9662199,3.9493778,262.14,0.5,8.1,78.6,-1.0,129.3272404556147,8573818.582020974,8573818.582020974,8573818.582020974,8573818.582020974,25.423060324097754,7.905416928539872,25946.613050857763,96.0,28.981380214522186
1306893754.06,5.9681591,3.9497368,270.18,0.3,8.1,78.6,-1.0,129.61599367359386,8316522.274793185,8316522.274793185,8316522.274793185,8316522.274793185,24.855805495524177,8.024166413463849,26047.402410596478,92.7,29.02029972458343
1306893754.91,5.9694485,3.9499751,275.6,0.2,8.1,78.6,-1.0,130.73898627348177,7285097.09846976,7285097.09846976,7285097.09846976,7285097.09846976,23.180158604203832,7.93579635064073,25713.162361787457,93.9,29.06160003079516
1306893755.34,5.9700935,3.9500942,278.32,0.2,8.0,78.6,-1.0,129.2938947312348,6732138.581439193,6732138.581439193,6732138.581439193,6732138.581439193,23.812378545866395,8.013983099710279,25667.306030443593,95.5,29.10218839474966
1306893755.76,5.9707378,3.9502131,281.06,0.1,8.0,78.6,-1.0,132.20161826948697,7579528.819322023,7579528.819322023,7579528.819322023,7579528.819322023,25.529863833663935,7.856478050869606,25884.93033535764,93.90000000000002,29.1439403632536
1306893759.98,5.9771517,3.9513968,308.93,-0.2,8.0,78.6,-1.0,131.01308672168292,6441016.95713473,6441016.95713473,6441016.95713473,6441016.95713473,27.1115002200298,7.64022269359665,25328.015571798893,94.00000000000001,29.201293819071623
1306893776.92,6.0035546,3.9563025,433.14,-0.2,8.0,78.9,-1.0,134.41604496844582,5967787.493033353,5967787.493033353,5967787.493033353,5967787.493033353,27.612066925908017,7.436190835678907,24753.61315625131,92.50000000000003,29.34999788731309
1306893778.2,6.0055752,3.9566777,443.13,-0.1,8.5,78.9,-1.0,136.14769837144556,5751100.473119979,5751100.473119979,5751100.473119979,5751100.473119979,27.00447936579142,7.124040974111318,24592.430469862353,89.10000000000001,29.500477983551058
1306893778.63,6.0062622,3.9568058,446.89,-10.5,13.7,78.7,-1.0,137.87364369133647,4414760.189432404,4414760.189432404,4414760.189432404,4414760.189432404,24.553077527816843,7.067689361757889,24554.107505085605,90.7,29.64987102817048
1306893779.05,6.0069263,3.9569355,451.98,-25.5,15.7,77.6,-1.0,137.01673064631925,3676922.3773773303,3676922.3773773303,3676922.3773773303,3676922.3773773303,24.85530520823486,7.027398229577047,24368.002485946647,91.8,29.799248762203728
1306893779.47,6.0075721,3.9570752,458.45,-30.1,17.0,76.0,-1.0,134.4396508765131,4491503.558057519,4491503.558057519,4491503.558057519,4491503.558057519,24.009420875745835,7.00921048927601,23721.726895243977,90.39999999999999,29.9495298208214
1306893779.9,6.0082456,3.9572382,466.66,-33.2,17.9,74.2,-1.0,138.45387580942892,7717922.050701116,7717922.050701116,7717922.050701116,7717922.050701116,25.00485925812063,6.805093518604985,22898.82431942351,90.19999999999999,30.09994101942157
1306893780.32,6.0088718,3.9574073,475.49,-38.0,18.6,72.4,-1.0,133.69368139129944,10634911.884778772,10634911.884778772,10634911.884778772,10634911.884778772,24.382895688537506,6.8631706003994415,23214.040363461605,89.1,30.25296267296488
1306893780.53,6.0091882,3.9574999,480.34,-39.5,18.7,71.4,-1.0,136.41077611317414,19662908.375519395,19662908.375519395,19662908.375519395,19662908.375519395,22.56658840189651,6.8429985424975275,23591.574144914026,90.1,30.407614903936008
1306893780.96,6.0098164,3.9576987,490.61,-40.9,18.5,69.4,-1.0,133.5478068468446,27150104.4615982,27150104.4615982,27150104.4615982,27150104.4615982,23.25741886763454,6.828937285095975,23588.295964169934,92.10000000000002,30.568031570602674
1306893781.38,6.0104256,3.9579103,501.21,-42.3,18.7,67.6,-1.0,134.43205765834327,33576630.09717365,33576630.09717365,33576630.09717365,33576630.09717365,23.15076443523828,7.065885012927412,24162.763543218756,93.20000000000002,30.715227546105737
1306893781.8,6.0110243,3.958137,512.14,-43.6,18.9,65.8,-1.0,134.10033092338773,39272085.936991274,39272085.936991274,39272085.936991274,39272085.936991274,22.72753901800762,7.294716272096884,24462.239221831092,94.9,30.775704361503813
1306893782.22,6.0116093,3.9583775,523.27,-44.3,18.9,64.0,-1.0,133.1745433541067,43154336.439251184,43154336.439251184,43154336.439251184,43154336.439251184,23.938439146055337,7.4925631547060165,24271.970963536573,96.9,30.837053880313963
1306893782.65,6.0121899,3.9586355,534.69,-44.7,18.9,62.2,-1.0,131.2885836741736,43986821.64778733,43986821.64778733,43986821.64778733,43986821.64778733,24.26438729550352,7.302070432333863,24300.515046245753,96.80000000000001,30.9042673536298
1306893783.07,6.0127402,3.9588987,545.83,-45.2,18.9,60.4,-1.0,129.70773007335097,45004627.12644725,45004627.12644725,45004627.12644725,45004627.12644725,23.209785945109164,7.507623213401405,24722.470357048558,95.4,30.976112279264097
1306893783.5,6.013297,3.9591846,557.42,-45.4,19.1,58.5,-1.0,130.82089519552045,46928933.95759203,46928933.95759203,46928933.95759203,46928933.95759203,23.003238165691,7.737218854321002,24521.1555548182,95.1,31.051876714959636
1306893783.92,6.0138334,3.95948,568.89,-45.6,19.1,56.7,-1.0,131.68687499052047,46764228.15337416,46764228.15337416,46764228.15337416,46764228.15337416,23.738140335721194,8.019638054098584,25083.465284090482,98.3,31.13013677620198
1306893784.34,6.0143472,3.9597826,580.16,-45.8,19.1,54.9,-1.0,128.96811160138165,48022701.9668996,48022701.9668996,48022701.9668996,48022701.9668996,24.022518153462386,7.820380601296032,25493.23162831166,97.3,31.210264728957885
1306893784.76,6.0148564,3.9601029,591.63,-45.9,19.3,53.1,-1.0,130.99931350821242,47647652.96369472,47647652.96369472,47647652.96369472,47647652.96369472,26.115293941323173,7.744052671283805,25963.13648290001,96.69999999999999,31.295460485738285
1306893785.18,6.0153345,3.9604237,602.7,-45.9,19.3,51.3,-1.0,125.9654770187157,46681822.02579057,46681822.02579057,46681822.02579057,46681822.02579057,24.049896058527633,7.9182706275988215,26075.7722799116,97.9,31.381268665965756
1306893785.61,6.0158226,3.9607731,614.32,-45.9,19.3,49.5,-1.0,129.201959710362,45806854.31352262,45806854.31352262,45806854.31352262,45806854.31352262,24.838000650437408,7.920134256559749,25930.576084287168,95.89999999999998,31.467857686088237
1306893786.03,6.0162826,3.9611245,625.61,-45.9,19.3,47.7,-1.0,128.42630850653015,45068531.80789002,45068531.80789002,45068531.80789002,45068531.80789002,24.201800795649774,7.893707767791308,25732.58357448868,96.50000000000001,31.554722296761902
1306893786.45,6.0167214,3.9614819,636.72,-45.9,19.6,45.9,-1.0,126.32554926457333,44373726.356962964,44373726.356962964,44373726.356962964,44373726.356962964,24.05118196661325,7.858359737145048,26422.67669900046,96.60000000000001,31.641571596849396
1306893786.87,6.0171473,3.9618516,647.87,-45.9,19.6,44.1,-1.0,126.84645574761157,43822600.884428374,43822600.884428374,43822600.884428374,43822600.884428374,23.638238093081732,8.007566286115676,26735.603846827238,94.9,31.7282142040235
1306893787.3,6.0175576,3.9622317,659.0,-45.9,19.6,42.2,-1.0,123.5951361706803,43225753.345196545,43225753.345196545,43225753.345196545,43225753.345196545,24.85703901734396,7.880109367535926,26577.517413974518,96.20000000000002,31.81484915590452
1306893787.72,6.0179519,3.9626218,670.11,-45.9,19.6,40.3,-1.0,126.45531494480002,41820349.22670855,41820349.22670855,41820349.22670855,41820349.22670855,26.31898337608304,7.653992995778545,26997.169508902563,97.0,31.90111665371729
1306893788.15,6.018335,3.9630271,681.36,-45.9,19.9,38.5,-1.0,125.091992266524,40563355.43401556,40563355.43401556,40563355.43401556,40563355.43401556,24.55429399708766,7.6038233189729265,26544.665898775464,94.60000000000001,31.987215735082117
1306893788.57,6.0186948,3.9634352,692.4,-45.9,20.0,36.6,-1.0,125.82579034601302,39346680.29708081,39346680.29708081,39346680.29708081,39346680.29708081,24.492044662104178,7.697041397526053,26346.03983148937,95.30000000000001,32.073138744705915
1306893788.99,6.0190303,3.9638431,703.19,-45.9,20.0,34.8,-1.0,123.01074613994861,37922124.72186628,37922124.72186628,37922124.72186628,37922124.72186628,23.070293932115156,7.710302682599712,25463.12154865209,92.1,32.1585411943997
1306893789.41,6.019349,3.964259,713.95,-45.9,20.0,32.9,-1.0,122.73092119247451,36655941.155180514,36655941.155180514,36655941.155180514,36655941.155180514,24.134848812543176,7.4946731279371175,24705.29477380319,90.5,32.243706330007754
1306893789.83,6.019656,3.9646907,724.9,-45.9,20.0,31.0,-1.0,125.19671106531106,34941644.46720254,34941644.46720254,34941644.46720254,34941644.46720254,24.096791198203775,7.251735119771878,25030.91129196597,92.1,32.328358560978884
1306893790.26,6.0199446,3.9651299,735.83,-45.9,20.0,29.0,-1.0,121.90958243649284,33651229.20481431,33651229.20481431,33651229.20481431,33651229.20481431,23.145690144844536,7.186202975806031,25469.211560527765,90.3,32.41273520139883
1306893790.69,6.0202172,3.9655802,746.84,-45.9,20.4,27.1,-1.0,122.96554835994351,31584360.812870193,31584360.812870193,31584360.812870193,31584360.812870193,21.869170940897252,7.401766648102193,25011.62406162171,88.8,32.4970352888879
1306893791.12,6.020468,3.9660329,757.72,-45.9,20.5,25.1,-1.0,121.63442454049923,29926697.21413048,29926697.21413048,29926697.21413048,29926697.21413048,23.249722047490344,7.559501069835103,24576.321023477107,89.70000000000002,32.58112868346358
1306893791.54,6.0206945,3.9664808,768.32,-45.9,20.6,23.2,-1.0,121.50884569668052,28201725.837417923,28201725.837417923,28201725.837417923,28201725.837417923,21.747388943376386,7.606945632899338,24911.031798776083,86.19999999999999,32.664816347505564
1306893791.96,6.0209004,3.9669297,778.8,-46.1,20.6,21.3,-1.0,120.01106375399317,26195914.8281848,26195914.8281848,26195914.8281848,26195914.8281848,21.64217867687514,7.815169767991485,25152.36939097569,83.8,32.74802172808299
1306893792.38,6.0210908,3.9673909,789.43,-45.9,20.6,19.4,-1.0,122.15334430703817,24085476.44427829,24085476.44427829,24085476.44427829,24085476.44427829,22.01347108393867,7.589619818651573,25604.23535985399,83.2,32.83075248048894
1306893792.8,6.02126,3.9678497,799.88,-45.5,20.6,17.5,-1.0,120.08117692636733,22604527.69811855,22604527.69811855,22604527.69811855,22604527.69811855,23.15012634349106,7.413159148116139,25086.379195792397,83.7,32.913031570602676
1306893793.22,6.0214104,3.9683111,810.26,-45.1,20.6,15.6,-1.0,119.52901313383872,20700659.393768672,20700659.393768672,20700659.393768672,20700659.393768672,23.23493847012025,7.350107619413013,25081.81200456195,83.60000000000001,32.99499679369979
1306893793.65,6.0215447,3.9687834,820.78,-44.6,20.6,13.8,-1.0,118.5730385851076,19037970.552880153,19037970.552880153,19037970.552880153,19037970.552880153,22.243374181624723,7.550674309032452,25167.85698221482,81.80000000000001,33.076778289762785
1306893794.07,6.0216588,3.9692516,831.12,-44.1,20.6,11.9,-1.0,119.5600446608728,17440734.06396044,17440734.06396044,17440734.06396044,17440734.06396044,22.70165037399419,7.582930978192824,25222.125551083518,79.10000000000001,33.15809281294739
1306893794.49,6.021754,3.9697162,841.3,-43.6,20.6,10.1,-1.0,117.8292744909747,16069044.467834147,16069044.467834147,16069044.467834147,16069044.467834147,22.97327564608129,7.421523752892388,24968.963383492006,77.8,33.238833189150355
1306893794.91,6.021832,3.9701825,851.45,-43.0,20.6,8.3,-1.0,117.59420225134319,15129037.529989112,15129037.529989112,15129037.529989112,15129037.529989112,25.062527782028624,7.121059286405637,25380.165268120643,78.3,33.31891521014773
1306893795.33,6.0218927,3.9706475,861.53,-42.4,20.6,6.6,-1.0,116.84190695928812,14547909.503910424,14547909.503910424,14547909.503910424,14547909.503910424,25.16651743687084,6.817128604598719,25467.202356395017,78.2,33.39838480769804
1306893795.77,6.0219383,3.9711309,871.97,-41.7,20.6,4.8,-1.0,115.40319086548119,14220097.281845363,14220097.281845363,14220097.281845363,14220097.281845363,26.553621527822703,6.777226650802362,25550.17479382519,79.2,33.47773192055893
1306893796.19,6.0219657,3.9715978,882.02,-41.1,20.6,3.1,-1.0,116.62749044470604,15210462.999672769,15210462.999672769,15210462.999672769,15210462.999672769,27.00171382183375,6.747418789471043,24905.50197246163,82.3,33.556749855817024
1306893796.63,6.0219775,3.9720853,892.5,-40.4,20.6,1.3,-1.0,115.96992424183496,15077667.8004019,15077667.8004019,15077667.8004019,15077667.8004019,28.872990029592415,6.939999769468249,25211.816385525868,83.89999999999999,33.635652961678794
1306893797.07,6.0219725,3.9725686,902.89,-39.7,20.6,359.6,-1.0,114.84010185366942,15363358.594105555,15363358.594105555,15363358.594105555,15363358.594105555,29.005746192997766,7.272927138531822,25505.670433349795,81.89999999999999,33.71451013578203
1306893797.5,6.0219519,3.9730408,913.06,-39.0,20.6,357.9,-1.0,114.78205569552289,16015388.785986528,16015388.785986528,16015388.785986528,16015388.785986528,30.725927931616248,7.579829504025665,25628.90922703422,83.3,33.79320654873041
1306893797.92,6.021918,3.973492,922.78,-38.3,20.6,356.3,-1.0,112.18685746327382,16240234.972614055,16240234.972614055,16240234.972614055,16240234.972614055,31.9257073762251,7.3052379290755685,26358.58863553839,86.4,33.87129053823172
1306893798.34,6.0218694,3.9739523,932.72,-37.6,20.6,354.8,-1.0,114.78942316942269,17064757.274736393,17064757.274736393,17064757.274736393,17064757.274736393,29.849551868930227,7.414121890796293,25517.067361543985,85.89999999999999,33.9490683160095
1306893798.77,6.0218077,3.9744073,942.58,-36.8,20.6,353.3,-1.0,110.63367573533245,17818646.241692,17818646.241692,17818646.241692,17818646.241692,31.52545395537475,7.664553434873115,25578.16893951115,85.89999999999999,34.02660112440845
1306893799.2,6.0217319,3.9748663,952.56,-35.9,20.6,351.7,-1.0,111.92768461430148,19635465.52466548,19635465.52466548,19635465.52466548,19635465.52466548,29.93326961318512,7.810897596902421,25594.727906462063,88.7,34.1040037928249
1306893799.63,6.0216433,3.9753248,962.56,-32.9,19.9,350.4,-1.0,112.14487020830944,20628268.354721572,20628268.354721572,20628268.354721572,20628268.354721572,30.877409651310526,8.059597941046551,25728.57462788223,86.7,34.18134521889664
1306893800.05,6.0215486,3.975761,972.03,-27.1,19.1,349.3,-1.0,109.29834501747742,20856335.030113503,20856335.030113503,20856335.030113503,20856335.030113503,30.091334032501315,8.118388157315959,25301.18495405494,88.30000000000001,34.25794408153881
1306893800.47,6.0214458,3.9762007,981.5,-21.1,19.1,348.5,-1.0,110.38302733642287,21564292.459931105,21564292.459931105,21564292.459931105,21564292.459931105,28.670445250535177,7.891013153425856,25961.798827723716,85.6,34.33409893718186
1306893800.9,6.0213367,3.9766438,991.02,-15.3,19.2,347.8,-1.0,108.58286075761015,21257180.67681478,21257180.67681478,21257180.67681478,21257180.67681478,28.44135321714228,7.739900525131043,25185.99776767973,86.4,34.40951888468842
1306893801.32,6.0212268,3.9770761,1000.34,-9.9,19.3,347.3,-1.0,108.65835749571626,20646389.74768272,20646389.74768272,20646389.74768272,20646389.74768272,27.730466586814842,7.464991928061067,25581.241428963367,88.5,34.484119715834524
1306893801.74,6.0211171,3.9775125,1009.85,-5.2,19.5,347.6,-1.0,109.82454477913424,20385099.707471225,20385099.707471225,20385099.707471225,20385099.707471225,27.61481427609386,7.285354576280631,25952.650809066043,90.60000000000002,34.55821529763679
1306893802.17,6.0210142,3.9779518,1019.53,-2.7,19.6,348.0,-1.0,107.47639483245767,19285935.92399178,19285935.92399178,19285935.92399178,19285935.92399178,26.942354157487557,7.453293140786374,25065.543113753232,90.10000000000001,34.63228025826671
1306893803.01,6.0208272,3.9788042,1038.53,-1.9,19.6,348.0,-1.0,106.65269890577679,16803297.738065064,16803297.738065064,16803297.738065064,16803297.738065064,26.194790526486962,7.579397770396638,25129.822024405606,92.60000000000001,34.71328091443469
1306893803.44,6.0207371,3.9792322,1048.14,-1.2,19.6,348.0,-1.0,104.32702805455578,15971908.004952587,15971908.004952587,15971908.004952587,15971908.004952587,24.977351105059647,7.300614681439572,24543.54032988412,92.2,34.79409018827547
1306893803.87,6.0206485,3.9796655,1057.88,-0.9,19.8,348.0,-1.0,105.62400372908047,14922063.204729069,14922063.204729069,14922063.204729069,14922063.204729069,24.45801313644098,7.331796632570277,24140.46929866472,91.9,34.87471573508212
1306893804.3,6.0205626,3.9800989,1067.65,-0.7,19.8,348.0,-1.0,105.68936638129136,14081864.669645604,14081864.669645604,14081864.669645604,14081864.669645604,22.6780523547606,7.159530009890129,24460.12727472744,94.10000000000001,34.95516521014773
1306893804.73,6.0204808,3.9805255,1077.27,-0.5,19.9,348.0,-1.0,103.7896794899297,14326386.672141703,14326386.672141703,14326386.672141703,14326386.672141703,23.318662556436035,7.261096150472794,23980.930405927964,93.30000000000003,35.03572951460968
1306893806.02,6.0202527,3.9817986,1106.04,-0.2,20.1,348.0,-1.0,103.03116284293792,14096589.149374982,14096589.149374982,14096589.149374982,14096589.149374982,24.76647224765091,7.536858096979514,24097.27252828326,95.7,35.13106853473216
1306893807.73,6.0199905,3.9834709,1143.91,-0.2,20.4,348.0,-1.0,101.8296822196749,13786178.830881638,13786178.830881638,13786178.830881638,13786178.830881638,25.386488864784322,7.616014476297264,24047.07115797835,96.20000000000002,35.248110310760154
1306893809.46,6.0197732,3.9851236,1181.42,-0.2,20.7,348.0,-1.0,99.07436745269972,13332503.669476973,13332503.669476973,13332503.669476973,13332503.669476973,24.441092193240653,7.652796317582185,23710.88901545674,95.10000000000001,35.38673235800425
1306893809.9,6.0197246,3.9855433,1190.95,-0.2,20.7,347.9,-1.0,98.86557942007643,13156394.17801232,13156394.17801232,13156394.17801232,13156394.17801232,24.04950195664604,7.624267424808169,23450.840036427737,92.50000000000001,35.52536971583453
1306893811.16,6.0196023,3.9867202,1217.73,-0.2,21.0,347.9,-1.0,96.49182863115718,13103945.12957866,13103945.12957866,13103945.12957866,13103945.12957866,25.914733832963567,7.812720709028668,24125.136894184354,92.80000000000001,35.6770976248459
1306893811.6,6.0195644,3.9871319,1227.1,-0.2,21.1,347.9,-1.0,96.63260770827554,12716099.008246042,12716099.008246042,12716099.008246042,12716099.008246042,26.464164030929975,7.807157550179475,24517.127307920233,93.20000000000002,35.82145348661318
1306893812.89,6.0194685,3.9883221,1254.23,-0.2,21.1,347.9,-1.0,95.1243413177362,12795963.578188656,12795963.578188656,12795963.578188656,12795963.578188656,27.238804087751525,7.9653948027924075,24769.036208538982,93.80000000000003,35.97922142187127
1306893813.74,6.0194166,3.9891031,1272.06,-0.2,21.5,347.9,-1.0,94.65027391203233,12297600.67302619,12297600.67302619,12297600.67302619,12297600.67302619,26.589645901071755,7.947234482619397,24825.40667503193,93.30000000000001,36.143182489237844
1306893814.16,6.0193944,3.9894834,1280.74,-0.2,21.6,347.9,-1.0,93.13768608674597,11655072.365825415,11655072.365825415,11655072.365825415,11655072.365825415,28.58293645157142,7.975864565094282,24429.978558771574,92.3,36.30630912965779
1306893814.58,6.0193742,3.9898612,1289.38,-0.2,21.7,347.9,-1.0,92.42082922057341,11730199.107926115,11730199.107926115,11730199.107926115,11730199.107926115,27.16793946934556,7.911532714654216,24849.16444760137,90.70000000000002,36.46868555135508
1306893816.69,6.0193018,3.9917467,1332.22,-0.2,21.4,347.7,-1.0,91.73484151880544,11929437.481779894,11929437.481779894,11929437.481779894,11929437.481779894,25.765206112236065,7.710904085422248,24175.623167539063,91.60000000000002,36.6418329704277
1306893817.11,6.0192929,3.9921121,1340.38,-0.2,21.3,347.7,-1.0,89.01737145676563,12193965.906374566,12193965.906374566,12193965.906374566,12193965.906374566,25.452569178303257,7.839561236256568,24253.424700558582,88.70000000000002,36.792236513734785
1306893817.53,6.0192853,3.9924886,1348.71,-0.2,21.2,347.7,-1.0,91.92851593387293,13288296.402288493,13288296.402288493,13288296.402288493,13288296.402288493,26.58958110583866,7.7675082489441785,23793.26675853897,87.80000000000003,36.92030191181003
1306893818.38,6.0192748,3.993229,1364.78,-0.2,20.9,347.7,-1.0,88.99533026958322,12912909.849619055,12912909.849619055,12912909.849619055,12912909.849619055,24.579491525316477,7.816149733710819,23775.55496405528,89.50000000000003,37.05337387156506
1306893818.81,6.0192717,3.993601,1372.68,-0.2,20.7,347.7,-1.0,88.22859310915936,12540601.653855499,12540601.653855499,12540601.653855499,12540601.653855499,22.076307643986013,7.816574742764741,23378.382091752337,90.2,37.171992637969254
1306893819.23,6.0192699,3.9939685,1380.35,-0.2,20.5,347.6,-1.0,89.2949647229686,12052136.721172182,12052136.721172182,12052136.721172182,12052136.721172182,21.711936425215704,7.602932870603261,22974.742792673496,87.3,37.28931000454843
1306893819.66,6.0192693,3.9943455,1388.07,-0.2,20.3,347.6,-1.0,89.44802596801587,10698758.36289285,10698758.36289285,10698758.36289285,10698758.36289285,19.66268122932739,7.821913641745177,23045.316225344694,87.40000000000002,37.391768447243095
1306893820.08,6.0192699,3.9947035,1395.24,-0.2,20.1,347.6,-1.0,86.6186266917466,9725102.116650678,9725102.116650678,9725102.116650678,9725102.116650678,20.499926977315752,7.758683830330467,22773.43594392474,84.30000000000001,37.48606634750556
1306893820.5,6.0192715,3.9950667,1402.35,-0.2,19.9,347.6,-1.0,87.89518779050147,9905160.209426533,9905160.209426533,9905160.209426533,9905160.209426533,17.939210012766452,7.807430717175345,22252.144200337363,84.50000000000001,37.57916236675316
1306893820.92,6.0192742,3.9954327,1409.34,-0.2,19.6,347.6,-1.0,88.63617858189399,9570063.705956647,9570063.705956647,9570063.705956647,9570063.705956647,19.041198885474415,7.873595542405137,22087.451455785926,85.10000000000002,37.67099526264117
1306893821.34,6.0192776,3.9957877,1415.94,-0.2,19.4,347.6,-1.0,85.59725411835477,9205401.668479871,9205401.668479871,9205401.668479871,9205401.668479871,20.09437173901992,7.862347160609734,22293.207096512942,84.2,37.73508537637696
1306893821.76,6.0192819,3.9961466,1422.43,-0.2,19.1,347.5,-1.0,86.56746926843643,10213854.67118813,10213854.67118813,10213854.67118813,10213854.67118813,17.68073610873382,7.630295784551837,22518.895957371355,87.8,37.79789705616698
1306893822.19,6.0192872,3.9965204,1428.97,-0.2,18.8,347.5,-1.0,88.12754220539819,9795673.113214785,9795673.113214785,9795673.113214785,9795673.113214785,18.94445817181105,7.832390465929051,23183.209825674934,87.69999999999999,37.859338438494184
1306893822.61,6.019293,3.9968811,1435.07,-0.2,18.5,347.5,-1.0,86.90490107568019,9053776.095309392,9053776.095309392,9053776.095309392,9053776.095309392,19.51483641312147,7.641152823170721,23264.1621187032,87.1,37.9131474936123
1306893823.04,6.0192994,3.997244,1440.99,-0.2,18.2,347.5,-1.0,85.15134307715375,9174843.689088061,9174843.689088061,9174843.689088061,9174843.689088061,19.0799297002053,7.290675378986367,23832.002381154176,86.0,37.965440800698914
1306893823.47,6.0193065,3.9976127,1446.78,-0.2,17.9,347.5,-1.0,86.52465061932114,8927052.196367687,8927052.196367687,8927052.196367687,8927052.196367687,20.174442599368938,7.4947529288787775,24475.444444871744,87.1,38.01629491268492
1306893823.89,6.0193139,3.9979745,1452.23,-0.2,17.6,347.5,-1.0,86.93345774143476,8013279.268206135,8013279.268206135,8013279.268206135,8013279.268206135,21.851079902391888,7.314913711337083,24541.57151664317,88.19999999999999,38.06541127313986
1306893824.31,6.0193218,3.9983363,1457.45,-0.2,17.3,347.5,-1.0,86.91607938754969,8008376.710872478,8008376.710872478,8008376.710872478,8008376.710872478,22.081162638869756,7.482624837546886,25024.806888602427,89.60000000000001,38.11303485144257
1306893824.73,6.0193298,3.9986887,1462.3,-0.2,17.0,347.5,-1.0,84.28074058069284,7836274.157452185,7836274.157452185,7836274.157452185,7836274.157452185,22.10251098489584,7.513037158800126,25724.0059055624,88.20000000000002,38.15892833350731
1306893825.15,6.0193382,3.9990482,1467.03,-0.2,16.6,347.5,-1.0,86.08032581071215,7446272.623825072,7446272.623825072,7446272.623825072,7446272.623825072,22.707698920033852,7.190542181377325,25673.449738395888,89.20000000000002,38.20309171933408
1306893825.57,6.0193468,3.9994095,1471.54,-0.2,16.3,347.5,-1.0,86.46915745097675,7217838.208191557,7217838.208191557,7217838.208191557,7217838.208191557,23.5184313863585,7.130188309560077,26182.07802760771,87.30000000000001,38.245655148905385
1306893825.99,6.0193557,3.9997712,1475.82,-0.2,16.0,347.5,-1.0,86.61529349280578,7057255.71145158,7057255.71145158,7057255.71145158,7057255.71145158,26.25132145716727,7.327205248809255,26510.867943227713,84.0,38.28652675870416
1306893826.41,6.0193646,4.000135,1479.88,-0.2,15.7,347.3,-1.0,87.00415339027207,6642369.109680425,6642369.109680425,6642369.109680425,6642369.109680425,24.54641631345741,7.459235680762344,25945.37727652162,86.60000000000001,38.32549985581703
1306893826.83,6.0193735,4.0004923,1483.64,-0.2,15.3,347.3,-1.0,85.30485502833756,6001892.467215281,6001892.467215281,6001892.467215281,6001892.467215281,25.944059424869163,7.741934504558875,26030.631768513154,85.9,38.36268161434721
1306893827.25,6.0193824,4.000851,1487.18,-0.2,15.0,347.3,-1.0,85.59002687752375,5739251.951344263,5739251.951344263,5739251.951344263,5739251.951344263,26.138911087807564,7.993314444272501,25665.9437362027,85.5,38.398041413122364
1306893827.67,6.0193914,4.0012181,1490.57,-0.2,14.7,347.3,-1.0,87.74991031748586,5543613.99820811,5543613.99820811,5543613.99820811,5543613.99820811,25.446847477778878,7.864215137246768,25252.183245964858,85.49999999999999,38.431563941556306
1306893828.09,6.0194003,4.0015799,1493.69,-0.2,14.4,347.3,-1.0,86.25541291958386,5104540.373428791,5104540.373428791,5104540.373428791,5104540.373428791,26.015842559846696,8.015773420001466,24991.26514246797,85.99999999999999,38.463302786700666
1306893828.51,6.019409,4.0019441,1496.59,-0.2,14.1,347.3,-1.0,86.89061971073905,4888104.741453762,4888104.741453762,4888104.741453762,4888104.741453762,25.375142801940967,8.030243729115455,24721.760145652726,88.39999999999999,38.49326560384852
1306893828.93,6.0194173,4.002303,1499.25,-0.2,13.8,347.3,-1.0,85.43286200060095,4799047.562083975,4799047.562083975,4799047.562083975,4799047.562083975,27.49306872767321,7.8676002737793285,24968.808814271753,90.69999999999999,38.52155191181002
1306893829.35,6.0194257,4.0026714,1501.76,-0.2,13.5,347.3,-1.0,87.94574640572667,4443820.023868771,4443820.023868771,4443820.023868771,4443820.023868771,24.8890232161412,7.827120352171397,24969.64290019459,92.7,38.54813874470591
1306893829.98,6.0194376,4.0032189,1505.09,-0.2,13.1,347.3,-1.0,86.98349765114611,4040321.6774532287,4040321.6774532287,4040321.6774532287,4040321.6774532287,23.01142629896542,7.862724288006819,24395.952338813964,94.20000000000002,38.57382225301738
1306893830.61,6.0194489,4.0037729,1508.03,-0.2,12.7,347.3,-1.0,88.1035593174644,3799114.2189910063,3799114.2189910063,3799114.2189910063,3799114.2189910063,22.966958144199673,7.735966215766079,23754.479336455384,94.20000000000002,38.598479952054994
1306893831.03,6.019456,4.0041436,1509.75,-0.2,12.4,347.3,-1.0,88.4479277253749,3360250.6401888966,3360250.6401888966,3360250.6401888966,3360250.6401888966,24.704707329173317,7.456616715174457,24143.571861120214,94.60000000000001,38.62134631250994
1306893831.46,6.0194628,4.0045225,1511.33,-0.2,12.2,347.3,-1.0,88.25762552548078,3083907.619185651,3083907.619185651,3083907.619185651,3083907.619185651,22.90247935231044,7.440566945425523,24695.283308378344,94.6,38.64254381907162
1306893831.88,6.0194689,4.0048876,1512.69,-0.2,12.0,347.3,-1.0,86.84480342538187,2816052.4194433284,2816052.4194433284,2816052.4194433284,2816052.4194433284,23.49242816505092,7.453516677195159,25096.800721415435,95.4,38.66207247174003
1306893832.51,6.0194774,4.0054459,1514.47,-0.2,12.0,347.3,-1.0,88.7940980376546,2500581.1950656925,2500581.1950656925,2500581.1950656925,2500581.1950656925,24.315200609022142,7.327579694462938,24827.184483125442,95.30000000000001,38.68036862222122
1306893832.73,6.0194801,4.0056418,1515.02,-0.2,11.6,347.3,-1.0,89.27198972331702,2296042.0906031895,2296042.0906031895,2296042.0906031895,2296042.0906031895,24.21213463229746,7.20218741989607,24809.007815731748,94.00000000000001,38.696697362378714
1306893833.15,6.019485,4.0060249,1515.98,-0.2,11.4,347.3,-1.0,91.63691687793585,2165079.6589140478,2165079.6589140478,2165079.6589140478,2165079.6589140478,26.262996201270603,6.899455580789899,25194.909074866016,93.30000000000001,38.711540975677046
1306893833.59,6.0194894,4.0064138,1516.83,-0.2,11.2,347.3,-1.0,88.41021535805538,1915331.330300344,1915331.330300344,1915331.330300344,1915331.330300344,26.91699994653814,7.213264128861955,25033.035357739864,91.6,38.724998980926394
1306893833.8,6.0194913,4.0066016,1517.19,-0.2,11.1,347.3,-1.0,89.65447503356691,1555025.371924444,1555025.371924444,1555025.371924444,1555025.371924444,29.58875132593296,7.350455758953496,24871.58001430212,87.8,38.73681109816173
1306893834.45,6.0194964,4.0071915,1518.16,-0.2,10.9,347.3,-1.0,91.10831274730732,1874256.676178462,1874256.676178462,1874256.676178462,1874256.676178462,29.038949999758156,7.592632962004218,24902.53621352607,85.60000000000001,38.746816566228226
1306893835.3,6.0195009,4.0079586,1519.11,-0.2,10.7,347.3,-1.0,90.50902825145582,2820270.4966623327,2820270.4966623327,2820270.4966623327,2820270.4966623327,28.565025980895793,7.767609672260147,25598.047383085217,88.20000000000002,38.75529863097014
1306893835.73,6.0195022,4.0083502,1519.49,-0.2,10.6,347.3,-1.0,91.38921852604862,2475118.609171641,2475118.609171641,2475118.609171641,2475118.609171641,26.14218009615493,7.772133274966077,26044.27384944253,84.7,38.762754886438195
1306893836.61,6.0195022,4.0091582,1520.11,-0.2,10.5,347.3,-1.0,92.27933318483569,2724963.1356869848,2724963.1356869848,2724963.1356869848,2724963.1356869848,27.319246833838953,7.684920778409386,25535.26470437817,86.10000000000001,38.76947623376979
1306893837.24,6.019502,4.009746,1520.48,-0.2,10.5,346.8,-1.0,93.9098002635809,2818527.4545562114,2818527.4545562114,2818527.4545562114,2818527.4545562114,27.521009923188544,7.56162531069204,24635.061801731565,83.00000000000001,38.77543970708562
1306893839.35,6.0194883,4.0117217,1521.88,-0.2,10.7,346.7,-1.0,94.26329922619406,2443765.9663506285,2443765.9663506285,2443765.9663506285,2443765.9663506285,27.922382823613876,7.483805573598759,24621.68937318471,85.90000000000002,38.78111227926409
1306893841.03,6.019467,4.0133123,1523.95,-0.2,11.1,346.7,-1.0,95.44437435964102,2212325.478506273,2212325.478506273,2212325.478506273,2212325.478506273,25.94397015050333,7.459976278263834,24794.379377516285,85.70000000000002,38.787948455992
1306893841.45,6.0194603,4.0137148,1524.7,-0.2,11.2,346.6,-1.0,96.71029870671609,2994662.276729976,2994662.276729976,2994662.276729976,2994662.276729976,24.324029214186435,7.68787595366442,24939.105973444865,85.00000000000001,38.79462387156506
1306893841.66,6.0194568,4.013916,1525.12,-0.2,11.3,346.6,-1.0,96.60893341025255,2346616.5753261065,2346616.5753261065,2346616.5753261065,2346616.5753261065,22.600527224948443,7.4291670798698055,24953.19692628203,84.5,38.800970109535314
1306893841.87,6.0194532,4.0141155,1525.56,-0.2,11.4,346.6,-1.0,95.82681797662944,2044191.3564003513,2044191.3564003513,2044191.3564003513,2044191.3564003513,21.617743867738618,7.4323640642077455,25335.77969832214,84.89999999999999,38.80737758985027
1306893842.72,6.0194373,4.0149325,1527.71,-0.2,11.7,346.6,-1.0,97.05951165454043,892850.2669200831,892850.2669200831,892850.2669200831,892850.2669200831,24.289146251624715,7.340811821550977,25743.927053750045,85.0,38.814688394749666
1306893842.99,6.0194318,4.015198,1528.53,-0.2,11.8,346.6,-1.0,99.57017134572911,814501.7052897649,814501.7052897649,814501.7052897649,814501.7052897649,23.877730943497777,7.441764267062352,25546.67041338337,84.4,38.821899680838904
1306893843.43,6.0194227,4.0156196,1529.97,-0.2,12.0,346.5,-1.0,96.71122552819415,752032.6625739974,752032.6625739974,752032.6625739974,752032.6625739974,24.594149639016567,7.6648311675031655,25038.19508455278,86.19999999999999,38.8299224279955
1306893843.64,6.0194182,4.0158239,1530.73,-0.2,12.1,346.5,-1.0,98.49341577264047,1645249.2955217662,1645249.2955217662,1645249.2955217662,1645249.2955217662,25.747958890158632,7.76271985736376,25169.51721348119,84.5,38.83805234925534
1306893843.85,6.0194135,4.0160304,1531.53,-0.2,12.2,346.5,-1.0,99.49074549830415,1205548.322536764,1205548.322536764,1205548.322536764,1205548.322536764,26.33063111796432,7.686025931268848,25258.907820551976,86.6,38.84651144811799
1306893844.27,6.019404,4.0164391,1533.26,-0.2,12.4,346.5,-1.0,98.43741480701422,4464084.677319018,4464084.677319018,4464084.677319018,4464084.677319018,24.84132617107242,7.751399255323367,25598.43420125957,85.1,38.85522317165255
1306893844.91,6.0193892,4.0170568,1536.19,-0.2,12.7,346.5,-1.0,97.56579479444136,5347897.0242832275,5347897.0242832275,5347897.0242832275,5347897.0242832275,25.31475384272954,7.770675265988734,25963.922322561084,85.9,38.86459325039271
1306893845.12,6.0193842,4.0172574,1537.24,-0.2,12.9,346.5,-1.0,96.43911042319161,5942150.050416703,5942150.050416703,5942150.050416703,5942150.050416703,25.930981145934666,7.743764425197036,25438.806949557616,85.4,38.87419298792551
1306893845.75,6.0193687,4.0178757,1540.74,-0.2,13.2,346.5,-1.0,99.47585163773208,4900392.8250090545,4900392.8250090545,4900392.8250090545,4900392.8250090545,27.14124452094795,7.959394538719131,25209.295984983368,88.70000000000002,38.88615055572953
1306893846.4,6.0193524,4.0185067,1544.78,-0.2,13.6,346.5,-1.0,98.2274048482229,1846978.49475358,1846978.49475358,1846978.49475358,1846978.49475358,27.844749557698595,7.9972718779214675,25570.289831470564,89.90000000000002,38.90086402904537
1306893846.62,6.0193466,4.0187276,1546.3,-0.2,13.7,346.5,-1.0,102.17555114554521,3962820.579446756,3962820.579446756,3962820.579446756,3962820.579446756,26.347025937772028,7.742322157775907,25276.443100372326,89.9,38.91509521889664
1306893847.07,6.019335,4.0191676,1549.51,-0.2,14.0,346.5,-1.0,99.13978761412339,2148345.7867947677,2148345.7867947677,2148345.7867947677,2148345.7867947677,25.532111718122138,7.4310297417996996,24679.052673195296,89.2,38.93115602379602
1306893847.49,6.0193242,4.0195775,1552.72,-0.2,14.2,346.3,-1.0,98.93785114444603,2089519.558567903,2089519.558567903,2089519.558567903,2089519.558567903,25.736104451724223,7.4763235974853774,24236.188688372094,88.8,38.94857181557205
1306893847.93,6.0193127,4.020008,1556.32,-0.2,14.5,346.3,-1.0,99.27137538272528,3827010.8626656425,3827010.8626656425,3827010.8626656425,3827010.8626656425,24.810268518330016,7.452437725882994,23950.572789832546,89.00000000000001,38.96816171058518
1306893848.15,6.0193069,4.0202262,1558.24,-0.2,14.6,346.3,-1.0,100.89031556319223,7047316.413896123,7047316.413896123,7047316.413896123,7047316.413896123,23.332125118213646,7.693112411585392,24569.62603070561,87.7,38.9886089984242
1306893848.58,6.0192959,4.020643,1562.06,-0.2,14.9,346.3,-1.0,98.28085179869666,8017480.799390115,8017480.799390115,8017480.799390115,8017480.799390115,25.923781716005124,7.898185709399909,24478.11961519016,85.80000000000001,39.01065624251868
1306893849.22,6.0192793,4.0212698,1568.23,-0.2,15.3,346.3,-1.0,99.5182848222849,5202729.661140463,5202729.661140463,5202729.661140463,5202729.661140463,27.237608558884013,7.7782558637754855,23872.26351479313,85.7,39.0351838015738
1306893850.1,6.0192569,4.0221293,1577.51,-0.2,15.9,346.3,-1.0,99.3119611140719,3652811.2687473795,3652811.2687473795,3652811.2687473795,3652811.2687473795,27.22228558168032,7.553246604334813,24199.13164493209,85.20000000000002,39.066011666840645
1306893850.73,6.0192414,4.0227416,1584.69,-0.2,16.2,346.3,-1.0,98.8709838521331,3322630.8209501463,3322630.8209501463,3322630.8209501463,3322630.8209501463,25.71119254582331,7.4908848317983665,24513.23818681587,81.60000000000001,39.099656679964006
1306893851.36,6.0192261,4.0233557,1592.38,-0.2,16.6,346.3,-1.0,99.32817180064484,4680215.271512368,4680215.271512368,4680215.271512368,4680215.271512368,23.531902411556832,7.463308469504709,24481.125498241858,82.5,39.13609587506462
