timestamp,longitude,latitude,altitude,roll,pitch,yaw,u,v,heading,air_speed,engine_0,engine_1,temperature_in,humidity_in,pressure_in,heart_rate,oxygen_mask
1306893631.32,2.011986,6.5731802,-1.0,-1.0,1.6,-1.0,298433.75,-50345.76,-1.0,85.35873000765979,6535382.124524599,6535382.124524599,21.790881198563643,8.040770760144165,24204.88473380742,89.10000000000001,31.419450080708096
1306893632.16,2.0114221,6.572756,23.69,-1.0,4.0,-1.0,298391.88,-50395.63,-1.0,85.35873000765979,5913005.59798551,5913005.59798551,20.8027563794727,7.717256929166998,24397.965502343308,90.50000000000001,31.408043694006434
1306893632.58,2.0111373,6.5725418,23.73,-1.0,6.0,-1.0,298370.72,-50420.82,-1.0,80.94564893259495,5247405.787555491,5247405.787555491,19.13302006723136,7.6644504109506375,23989.425526301195,89.9,31.40565524256286
1306893633.01,2.0108356,6.5723149,23.75,-1.0,7.3,-1.0,298348.31,-50447.5,-1.0,83.64307780811362,4660946.491615031,4660946.491615031,18.212759779861482,7.476071427390078,24111.29263850727,91.19999999999999,31.404935645012554
1306893634.5,2.0097405,6.5714913,23.79,-1.0,9.2,-1.0,298267.0,-50544.34,-1.0,87.473474325875,4419951.259026266,4419951.259026266,18.6315972512274,7.532486979775734,23788.41975327069,91.5,31.404660054461374
1306893634.92,2.0094227,6.5712523,23.87,-1.0,9.6,-1.0,298243.41,-50572.45,-1.0,89.98005171215121,4419951.259026266,4419951.259026266,18.631597251227404,7.532486979775733,23788.419753270686,91.5,31.404660054461374
1306893635.36,2.0090796,6.5709942,24.15,-1.0,10.1,-1.0,298217.91,-50602.79,-1.0,92.67678691669505,4660946.491615031,4660946.491615031,18.212759779861486,7.476071427390078,24111.292638507268,91.2,31.404935645012557
1306893635.79,2.008738,6.5707374,24.69,-1.0,10.4,-1.0,298192.53,-50632.99,-1.0,94.34714108294148,5247405.787555491,5247405.787555491,19.133020067231357,7.664450410950639,23989.425526301195,89.9,31.40565524256286
1306893636.66,2.0080283,6.5702041,26.85,-1.0,10.7,-1.0,298139.84,-50695.69,-1.0,96.76473436643244,5913005.59798551,5913005.59798551,20.802756379472697,7.717256929167001,24397.965502343308,90.5,31.40804369400643
1306893638.8,2.0061722,6.5688156,38.59,-0.1,10.7,-1.0,298001.94,-50859.0,-1.0,102.60647870449135,6535382.124524599,6535382.124524599,21.790881198563635,8.040770760144165,24204.884733807423,89.1,31.41945008070809
1306893640.09,2.0049501,6.5679092,50.22,-0.2,10.7,-1.0,297911.06,-50965.65,-1.0,111.5361724677021,7099773.705342441,7099773.705342441,21.945647273417066,7.903641888325032,24754.775779170566,91.80000000000001,31.45866049190669
1306893641.37,2.0036221,6.5669334,66.24,-0.4,10.7,-1.0,297812.28,-51080.53,-1.0,121.53686940107076,7682659.328588276,7682659.328588276,21.71588519879645,8.15568714428505,24902.187716827724,90.39999999999999,31.491233763997684
1306893641.79,2.0031554,6.5665932,72.62,-0.5,10.7,-1.0,297777.53,-51120.59,-1.0,129.65892004549875,8498396.775188213,8498396.775188213,23.894288852425866,8.030864740661068,24655.791705059954,89.3,31.528660491906695
1306893642.22,2.002672,6.5662431,79.57,-0.6,10.7,-1.0,297741.53,-51161.84,-1.0,130.81383309582975,10186296.315805208,10186296.315805208,25.935721219309535,7.911014713975785,24328.374157255366,91.10000000000001,31.571392337925943
1306893642.64,2.0021831,6.5658932,86.89,-0.6,10.6,223.4,297705.09,-51203.1,-1.0,134.6561553332774,12132258.868852977,12132258.868852977,25.78415771286145,7.8307189066382,24624.047515987615,89.4,31.619697237313524
1306893643.06,2.0016784,6.5655363,94.69,-0.9,10.5,223.4,297667.44,-51245.2,-1.0,138.15642701472476,14436230.72019321,14436230.72019321,24.55792137062889,7.566259220234384,24476.55170366829,87.80000000000001,31.673912022965315
1306893643.48,2.0011641,6.5651754,102.84,-1.2,10.4,223.4,297629.06,-51287.8,-1.0,140.28031224249833,16782934.40252836,16782934.40252836,26.812107336032902,7.535190936218088,24207.186369039315,86.7,31.73415152427765
1306893643.9,2.0006333,6.5648046,111.33,-1.4,10.2,223.3,297589.44,-51331.58,-1.0,144.4052063702879,18414280.857907984,18414280.857907984,28.16347016889531,7.397772352161812,24134.668433428633,86.30000000000001,31.80047698359524
1306893644.33,2.0000829,6.5644219,120.05,-1.7,9.9,223.3,297548.34,-51376.78,-1.0,145.87741975020705,19610828.95636802,19610828.95636802,29.05442777826141,7.277308939783293,23916.874621485367,86.9,31.871824315178788
1306893644.75,1.999524,6.564035,128.71,-2.1,9.7,223.3,297506.59,-51422.48,-1.0,151.1656802785491,20478596.089954264,20478596.089954264,27.755741367912663,7.241879279479282,24250.98066519056,86.5,31.940813816491126
1306893645.18,1.9989348,6.5636287,137.54,-2.5,9.5,223.3,297462.59,-51470.48,-1.0,155.1592644137035,21381807.35992957,21381807.35992957,25.955059291744565,7.393880448905337,24105.154262172116,83.30000000000001,32.00765983573872
1306893645.62,1.9983266,6.5632109,146.28,-2.9,9.3,223.1,297417.13,-51519.87,-1.0,156.18264184120676,22494521.24920983,22494521.24920983,26.30356824603805,7.235623984513149,23976.04189525351,84.9,32.06893280161798
1306893646.04,1.9977294,6.5628014,154.48,-3.4,9.3,223.1,297372.5,-51568.26,-1.0,160.27612993243338,23878236.31632158,23878236.31632158,25.674624197184755,7.2280399385033345,24298.055419310374,87.2,32.131599030839325
1306893646.47,1.9971051,6.5623721,162.69,-3.8,9.3,223.1,297325.84,-51618.99,-1.0,163.7602035899858,25349314.53094964,25349314.53094964,23.78337288028171,7.317458034312478,24633.82397691621,83.80000000000001,32.19522982698981
1306893646.89,1.9964722,6.5619353,170.65,-4.2,9.3,222.9,297278.56,-51670.61,-1.0,170.08538869012062,26954400.750626262,26954400.750626262,25.196507112093396,7.1993625060738955,24248.94801456396,86.4,32.259350561897946
1306893647.31,1.9958419,6.5614982,178.28,-4.4,9.3,222.8,297231.47,-51722.23,-1.0,169.7054185917551,28770140.388284717,28770140.388284717,25.6841792132049,7.32698525680429,24217.367321274993,87.1,32.32334115682358
1306893647.73,1.9951918,6.5610453,185.98,-4.6,9.3,222.7,297182.94,-51775.71,-1.0,175.2844685575913,30311515.236567363,30311515.236567363,24.381163323925733,7.332732310626646,24649.820542575242,86.10000000000001,32.386987263560236
1306893648.15,1.9945347,6.5605851,193.79,-4.6,9.5,222.6,297133.88,-51830.03,-1.0,177.6384540807431,32457210.621215165,32457210.621215165,23.17392927034665,7.202441552132924,24587.867681191343,89.0,32.45011281036689
1306893648.58,1.9938421,6.5600974,202.22,-5.0,11.0,222.6,297082.19,-51887.57,-1.0,183.32865295153084,34313809.74106105,34313809.74106105,21.257200694499762,7.360742102599419,24979.41988739253,90.0,32.51301635367397
1306893649.0,1.9931736,6.5596235,211.31,-16.7,13.0,222.1,297032.34,-51943.47,-1.0,182.0369336873166,36354601.169819914,36354601.169819914,20.536781013545454,7.183464489527612,25236.660286875096,92.7,32.57624907458386
1306893649.44,1.9924673,6.5591096,222.65,-36.4,14.7,220.8,296979.72,-52004.0,-1.0,186.5425736119177,37957720.87559641,37957720.87559641,22.624805359389647,6.895809016912106,25366.79909754188,93.5,32.64140327405893
1306893649.86,1.9918126,6.5586073,234.76,-42.1,14.9,219.1,296931.16,-52062.98,-1.0,186.73075046338266,39569044.910997584,39569044.910997584,22.9694081322332,7.16440410661788,25097.134917355594,91.3,32.70913730730477
1306893650.29,1.9911527,6.5580702,248.26,-45.2,14.3,217.4,296882.41,-52125.86,-1.0,190.35735409690872,40754838.14824235,40754838.14824235,22.101443178997265,7.345002914675679,24732.47078570339,91.7,32.78092864588744
1306893650.71,1.9905382,6.5575442,261.38,-51.1,12.7,216.2,296837.16,-52187.28,-1.0,187.09030879256105,41944880.5590838,41944880.5590838,22.430695210740087,7.309605573981774,25152.572553940296,94.10000000000001,32.85647873337651
1306893651.15,1.9899048,6.5569804,274.67,-54.2,11.3,215.2,296790.72,-52252.99,-1.0,188.21967045391895,43160445.416405864,43160445.416405864,21.914236436532118,7.601113461582351,25869.074772721313,93.4,32.93610909208167
1306893651.58,1.9892935,6.556419,286.79,-55.3,10.1,214.4,296745.97,-52318.33,-1.0,189.25428807703128,44423603.784978464,44423603.784978464,22.95194241309015,7.717503021304051,26296.226227646206,94.10000000000001,33.01917667738351
1306893652.0,1.9886922,6.5558525,297.81,-56.9,9.2,213.8,296702.06,-52384.18,-1.0,193.25467184652408,46045418.72803066,46045418.72803066,22.92799088998962,7.853266780300634,25885.976959627984,95.00000000000001,33.10478581999069
1306893652.43,1.9880762,6.5552569,308.15,-58.1,8.6,213.1,296657.19,-52453.34,-1.0,196.27057676001218,47866021.66373441,47866021.66373441,23.0560251193355,7.824847758115195,26373.50338031173,92.7,33.192331751749215
1306893652.85,1.987468,6.5546516,317.45,-58.5,8.0,212.3,296613.0,-52523.54,-1.0,201.84430659161936,50509864.53482069,50509864.53482069,23.80825754255706,7.685298226421575,26417.091448872867,89.10000000000001,33.28054369400644
1306893653.28,1.9868561,6.5540228,325.96,-59.0,7.5,211.4,296568.69,-52596.37,-1.0,202.4118599619582,54099466.0114225,54099466.0114225,25.312240367178426,7.849412667647799,26113.32315088982,89.10000000000001,33.368311629264525
1306893653.72,1.9862256,6.5533507,333.93,-59.5,6.9,210.4,296523.16,-52674.09,-1.0,208.75259188073576,58247156.08700398,58247156.08700398,25.679005776491024,8.11421740315226,25623.732651622304,88.7,33.45349973075184
1306893654.14,1.9856355,6.5526954,340.74,-59.7,6.5,209.3,296480.75,-52749.76,-1.0,210.4847724722316,63329845.3853377,63329845.3853377,26.335024626905977,7.822871051741119,26108.751215794422,90.60000000000001,33.53463052690232
1306893654.56,1.985051,6.5520171,346.94,-59.8,6.2,208.2,296438.94,-52827.95,-1.0,215.01939225473723,68981760.08228497,68981760.08228497,27.846942855083956,7.858139400653702,26738.935086162062,89.10000000000001,33.61017295909829
1306893654.99,1.9844717,6.5513117,352.61,-60.0,5.9,207.0,296397.72,-52909.13,-1.0,215.6187567892926,74468932.17880775,74468932.17880775,29.6592234855856,7.860808510893246,26253.760651737022,89.50000000000001,33.68001219794344
1306893655.41,1.9839081,6.5505884,357.74,-60.0,5.6,205.7,296357.84,-52992.21,-1.0,223.31624725356338,79793407.33189516,79793407.33189516,29.842894127891558,7.835859050904421,25824.446222543444,89.19999999999999,33.74360471762848
1306893655.84,1.9833644,6.549851,362.37,-60.0,5.3,204.4,296319.69,-53076.76,-1.0,219.63140186704499,86145294.92801885,86145294.92801885,29.133503796821095,7.713255551945518,25512.808035245125,87.80000000000001,33.801463422790334
1306893656.26,1.9828442,6.5491031,366.54,-60.0,5.2,203.0,296283.44,-53162.38,-1.0,225.3264266525868,91393997.8282461,91393997.8282461,29.000416930455188,7.546381813441552,26187.809307327603,89.80000000000003,33.85407825218666
1306893656.68,1.9823491,6.5483451,370.3,-60.0,5.0,201.5,296249.25,-53248.98,-1.0,225.67286952118417,97182381.90468849,97182381.90468849,30.333786510304485,7.769355825288936,25434.209102959325,91.70000000000003,33.90165589873084
1306893656.89,1.9821108,6.5479613,372.04,-60.0,5.0,200.8,296232.94,-53292.77,-1.0,226.55240098768962,103096947.6633802,103096947.6633802,30.88350610029674,7.7988177011988284,24901.08660081842,93.30000000000001,33.94344614370022
1306893657.32,1.9816528,6.5471824,375.29,-60.0,5.0,199.3,296201.84,-53381.52,-1.0,222.77681303791226,107888791.11636804,107888791.11636804,29.484395537763124,7.548547666001513,24874.968295796116,92.7,33.98120970450512
1306893657.74,1.981226,6.5463976,378.21,-60.2,5.0,197.7,296173.28,-53470.77,-1.0,227.25639502663282,111434779.865507,111434779.865507,29.15799975914176,7.577936328284768,24733.1726370143,95.6,34.0151073423004
1306893658.18,1.9808179,6.5455795,380.94,-60.2,5.0,196.1,296146.41,-53563.63,-1.0,223.91176783761705,115224494.03441755,115224494.03441755,28.09630849086637,7.749707239273602,24122.079965121848,96.4,34.045881620515615
1306893658.61,1.980458,6.5447863,383.31,-60.2,5.0,194.4,296123.22,-53653.5,-1.0,220.1250714737725,117222537.94331545,117222537.94331545,28.42108186116841,7.484270374221068,24064.24368092372,96.10000000000001,34.073723921478
1306893659.05,1.9801168,6.543951,385.57,-60.2,5.0,192.7,296101.78,-53747.94,-1.0,224.45037487778342,116848133.32440546,116848133.32440546,27.063451839163417,7.427191277746466,24081.949630451974,96.4,34.098955767497245
1306893659.48,1.9798205,6.5431347,387.56,-60.2,4.4,191.0,296083.78,-53840.06,-1.0,222.70881521000973,118416435.4125284,118416435.4125284,26.70494881447024,7.431060246788683,24102.628406558837,94.50000000000001,34.12178385148675
1306893659.9,1.9795622,6.5423231,389.37,-60.2,4.4,189.3,296068.75,-53931.47,-1.0,225.06147521222616,118395473.44977075,118395473.44977075,27.555551861893818,7.4719715966411595,23615.41197407846,97.70000000000002,34.142453142825325
1306893660.33,1.9793358,6.5414958,391.05,-60.2,4.3,187.5,296056.41,-54024.47,-1.0,222.74113726910755,119295650.13149616,119295650.13149616,28.644388419533527,7.703839581232281,22878.53071325492,97.0,34.161216266184915
1306893660.75,1.9791515,6.5406922,392.56,-60.2,4.3,185.8,296047.22,-54114.63,-1.0,220.41149610743952,121185793.89906728,121185793.89906728,28.543383466879856,7.610535173202551,23737.00660265927,94.39999999999999,34.17825694859961
1306893661.17,1.9790007,6.5398803,393.97,-60.2,4.3,184.1,296040.75,-54205.56,-1.0,221.74323933487932,122948661.66729093,122948661.66729093,28.628399751551964,7.477905999499076,23841.98402760969,96.20000000000002,34.19504500634239
1306893661.6,1.9788828,6.5390452,395.31,-60.2,4.2,182.2,296037.03,-54298.9,-1.0,221.9988869431213,123288152.81060006,123288152.81060006,30.14832290953202,7.735184419410157,23907.53522257425,96.7,34.21037090310529
1306893662.03,1.9788063,6.5382076,396.76,-58.6,7.9,179.8,296036.66,-54392.31,-1.0,222.06305425401135,124098728.80266525,124098728.80266525,30.426212027207047,7.674798192258752,23948.209029858946,93.9,34.22457147178421
1306893662.5,1.9788104,6.5373012,400.63,-54.1,16.8,174.2,296043.13,-54492.97,-1.0,219.68297673810704,123832162.41528758,123832162.41528758,31.85693526405575,7.569739728714005,24635.67359409661,91.79999999999998,34.23964474387519
1306893662.94,1.9789428,6.536492,409.77,-51.2,23.3,167.2,296059.13,-54582.23,-1.0,212.17119558895413,122617332.23051462,122617332.23051462,29.508459427231237,7.707949715902323,24953.00262143902,92.60000000000001,34.259900649387006
1306893663.36,1.9791827,6.5357816,424.42,-49.0,28.2,160.7,296083.03,-54659.97,-1.0,201.81508511869845,119382869.35172549,119382869.35172549,29.714349498491327,7.747830750332519,25416.01907575936,89.4,34.2896414630353
1306893663.79,1.9795186,6.5351239,444.88,-46.9,32.4,154.5,296114.19,-54731.4,-1.0,192.35144783739014,110280704.73584715,110280704.73584715,30.53635408435865,7.560029312675964,25357.477852122905,90.10000000000001,34.3335216030178
1306893664.22,1.9799173,6.5345465,469.91,-45.2,36.7,148.5,296149.78,-54793.61,-1.0,181.3581189555238,95752016.07422058,95752016.07422058,29.67989509992467,7.430652658429489,25968.10111858618,88.90000000000002,34.39517733355149
1306893664.65,1.9803638,6.5340395,499.13,-45.4,40.6,142.9,296188.69,-54847.75,-1.0,178.92874961319163,74840678.05760191,74840678.05760191,29.109649750020328,7.305089007954941,25873.896446892126,88.80000000000003,34.47791574125053
1306893665.07,1.9808376,6.5336081,531.34,-48.8,44.1,137.2,296229.25,-54893.38,-1.0,173.39763142767578,50642865.190962136,50642865.190962136,28.010507797959086,7.357793380293166,25946.42609880567,92.10000000000002,34.58415589873084
1306893665.49,1.9813255,6.5332509,565.24,-52.0,47.1,131.3,296270.47,-54930.69,-1.0,163.4219191085911,28442878.81583197,28442878.81583197,27.401663002449833,7.255078251369798,25901.89683173591,89.6,34.71526810345525
1306893665.91,1.9818262,6.5329584,600.47,-55.0,49.7,125.2,296312.22,-54960.75,-1.0,156.1086452626097,11549197.750985272,11549197.750985272,27.02633240057453,7.264401457477695,25326.015959115553,85.79999999999998,34.872324096456126
1306893666.35,1.9823712,6.5327118,639.12,-59.1,51.9,118.6,296357.22,-54985.5,-1.0,152.915318097389,8385045.828994458,8385045.828994458,26.938419052653984,7.128088012174937,25872.430128206128,85.39999999999999,35.05785777974572
1306893666.77,1.9829012,6.5325349,676.81,-63.5,53.6,112.0,296400.53,-55002.57,-1.0,148.5708871120971,13232337.180783382,13232337.180783382,26.567139090462305,7.313228516529269,25943.883023879916,85.6,35.26928166426015
1306893667.21,1.9834587,6.5324097,716.3,-72.4,54.7,104.7,296445.69,-55013.77,-1.0,143.74322859031918,16513377.3764608,16513377.3764608,26.718687648513153,7.346514009930069,25419.18698296751,83.9,35.50393936329777
1306893667.65,1.9840303,6.5323422,755.89,-81.8,54.6,97.2,296491.56,-55018.49,-1.0,142.19481583861884,18348652.039544273,18348652.039544273,26.70734809529537,7.619798089769475,25439.51962482223,86.7,35.75768936329777
1306893705.11,2.0764818,6.5843154,1486.46,-17.8,1.8,37.9,303477.78,-48791.55,-1.0,246.98523675768732,18802906.874285027,18802906.874285027,25.698105118561053,7.66648547014065,25443.672894024236,89.0,36.55504938079558
1306893705.32,2.0771436,6.5848717,1487.98,-17.5,1.8,37.8,303526.47,-48726.48,-1.0,381.42266160599456,21163156.849518772,21163156.849518772,26.41503629229378,7.763248167502039,25755.263154488566,89.60000000000001,37.33441180424265
1306893705.54,2.0778147,6.5854378,1489.54,-17.2,1.8,37.6,303575.81,-48660.28,-1.0,369.70025336315143,48435531.14871822,48435531.14871822,27.895941833657787,7.759275143671725,26017.099857711575,89.10000000000001,38.09259968700731
1306893705.75,2.0784857,6.5860058,1491.13,-17.0,1.8,37.5,303625.16,-48593.85,-1.0,388.4642536428886,93212317.55559903,93212317.55559903,27.722527652505633,7.608531083232913,25848.81882809554,86.30000000000001,38.827347062335384
1306893705.97,2.0791566,6.5865759,1492.74,-16.8,1.8,37.4,303674.44,-48527.2,-1.0,371.1483524328032,132021364.70448524,132021364.70448524,27.452132140463124,7.637265512440413,26155.61244419552,88.10000000000001,39.53737549628114
1306893706.19,2.0798618,6.5871771,1494.45,-16.5,1.8,37.3,303726.25,-48456.92,-1.0,391.2392760201951,153571028.47529247,153571028.47529247,27.72131364243009,7.357569202501518,26695.035190803148,89.7,40.2217433877947
1306893706.4,2.0805013,6.5877244,1496.03,-16.3,1.8,37.2,303773.22,-48392.96,-1.0,372.22576064547707,112611526.54075977,112611526.54075977,27.76781198641544,7.232078879759594,26287.451294715174,92.7,40.8777331078297
1306893706.63,2.0812188,6.5883404,1497.83,-16.0,1.8,37.1,303825.91,-48320.98,-1.0,382.18006044623297,59086496.25673012,59086496.25673012,27.73432169985776,6.900165408031958,25494.724339978635,94.7,41.506247980970564
1306893706.84,2.0818987,6.5889262,1499.55,-15.8,1.9,37.0,303875.84,-48252.53,-1.0,397.77613117473214,127818644.87930241,127818644.87930241,28.84376895702907,6.9224993776994035,25231.880437788765,95.4,42.10584881211666
1306893707.05,2.082535,6.5894762,1501.19,-15.6,1.9,36.9,303922.53,-48188.28,-1.0,372.5139664688433,203576968.5575162,203576968.5575162,28.23795651468536,6.627972987802986,24632.779639346318,92.7,42.67639780599243
1306893707.26,2.0832117,6.590063,1502.96,-15.4,1.9,36.9,303972.16,-48119.74,-1.0,397.2556218510132,283769810.1616528,283769810.1616528,28.030977500311874,6.799996496886243,24554.23230713685,92.6,42.689029039588235
1306893707.48,2.0838821,6.5906462,1504.73,-15.2,1.9,36.8,304021.34,-48051.63,-1.0,376.14695449493485,280818723.7846444,280818723.7846444,26.286703105696414,6.719527421006602,24456.226538589886,89.6,42.70185165551125
1306893707.7,2.0845556,6.5912339,1506.53,-15.0,1.9,36.7,304070.72,-47983.01,-1.0,378.54596072980206,287029405.7330296,287029405.7330296,23.38742020390872,6.815341323117694,24602.32118317974,88.20000000000002,42.71485799846837
1306893707.91,2.0852291,6.5918234,1508.36,-14.8,1.9,36.6,304120.09,-47914.18,-1.0,397.6168392686503,293582708.6692803,293582708.6692803,22.804793132318604,7.035491440954805,24186.690780474,89.7,42.72804806845963
1306893708.12,2.0858744,6.59239,1510.14,-14.6,1.9,36.5,304167.38,-47848.04,-1.0,381.42523119241696,294083886.76607466,294083886.76607466,23.100979374031443,7.298049595950745,23918.427661778558,88.7,42.741368278433384
1306893708.34,2.0865541,6.5929885,1512.03,-14.4,1.9,36.4,304217.19,-47778.19,-1.0,384.1958672730847,293828893.30438375,293828893.30438375,23.69789546945916,7.547901921344881,23891.053152577486,90.50000000000001,42.754826283682725
1306893708.56,2.0872649,6.5936163,1514.04,-14.2,2.0,36.3,304269.25,-47704.92,-1.0,402.77842886203246,301845737.11354804,301845737.11354804,23.865278492501552,7.712267281453668,23657.437633234484,88.50000000000001,42.76861346653487
1306893708.77,2.087907,6.5941851,1515.87,-14.1,2.0,36.2,304316.25,-47638.54,-1.0,381.51850298104017,291883997.6630076,291883997.6630076,23.336931232486766,7.880455030568428,23675.328615116938,85.3,42.782423615266275
1306893708.99,2.0885866,6.5947888,1517.84,-13.9,2.0,36.2,304366.0,-47568.11,-1.0,386.15433796330404,295298334.58873326,295298334.58873326,21.687537289957383,7.955703333933602,24115.358041595093,84.39999999999999,42.79642514632489
1306893709.21,2.089263,6.5953915,1519.82,-13.7,2.0,36.1,304415.5,-47497.81,-1.0,385.0044945115996,307601899.96814036,307601899.96814036,23.18433842889448,8.053567242332562,24253.191914964733,87.19999999999999,42.810686957348516
1306893709.42,2.0899363,6.595993,1521.82,-13.6,2.0,36.0,304464.78,-47427.65,-1.0,402.45903812143956,303734833.78322035,303734833.78322035,25.352607057031772,7.761147535140138,24762.806693227827,84.00000000000001,42.825124840113176
1306893709.63,2.0906002,6.5965878,1523.82,-13.4,2.0,35.9,304513.34,-47358.28,-1.0,397.39867823532614,309764539.9594058,309764539.9594058,25.85652276749727,7.653365679689623,23927.072505969012,86.20000000000002,42.83973879461886
1306893709.84,2.0912329,6.5971561,1525.75,-13.2,2.0,35.8,304559.59,-47292.01,-1.0,378.98730917203915,314990713.8396674,314990713.8396674,28.28715340639661,7.729452199526324,24306.10769765432,87.50000000000001,42.8544522679347
1306893710.06,2.0919249,6.5977792,1527.88,-13.1,2.0,35.8,304610.19,-47219.35,-1.0,396.6223684052058,312606259.52871877,312606259.52871877,30.226834959599977,7.5991127569829064,24617.279428307087,86.69999999999999,42.86939540004318
1306893710.27,2.0925856,6.5983759,1529.94,-13.0,2.1,35.7,304658.5,-47149.79,-1.0,397.43323930771857,312028677.7422122,312028677.7422122,28.72058751947488,7.549124498387671,24518.99475470215,86.80000000000001,42.884552880358136
1306893710.48,2.0932433,6.5989713,1532.01,-12.8,2.1,35.6,304706.56,-47080.38,-1.0,396.1569190226296,317324942.3260707,317324942.3260707,27.171189010359676,7.526641362011937,24675.654809945867,87.2,42.89984815594869
1306893710.69,2.0939009,6.5995682,1534.11,-12.7,2.1,35.5,304754.59,-47010.81,-1.0,396.69324998444085,320463754.08092606,320463754.08092606,24.633320867029493,7.419555897505617,24847.70528434856,87.30000000000001,42.91521232917704
1306893710.9,2.0945523,6.6001608,1536.22,-12.5,2.1,35.5,304802.16,-46941.74,-1.0,393.48251053555356,322402752.8074809,322402752.8074809,24.396732997607803,7.472875553761552,25526.86142859804,88.9,42.93079085061185
1306893711.11,2.0952037,6.600755,1538.35,-12.8,2.1,35.4,304849.75,-46872.5,-1.0,394.19728473170665,323899295.3004619,323899295.3004619,25.391804040121453,7.251369057949269,25107.41710205436,91.9,42.94649185673609
1306893711.32,2.0958489,6.6013448,1540.48,-13.1,2.1,35.3,304896.84,-46803.77,-1.0,390.8358391901258,332493395.08126324,332493395.08126324,26.09048550749174,7.38222873969599,25067.435191585413,90.3,42.96230769225665
1306893711.54,2.096522,6.6019618,1542.72,-13.1,2.1,35.3,304945.97,-46731.88,-1.0,389.8838922512724,333667542.4981531,333667542.4981531,24.519558300020247,7.4352908488562015,24393.398895232494,93.0,42.97830725481133
1306893711.76,2.0972262,6.6026091,1545.1,-12.6,2.1,35.2,304997.34,-46656.48,-1.0,408.7941154225873,336728493.7816672,336728493.7816672,25.209793112733628,7.388969242657823,24529.64359382259,94.50000000000001,42.994597718503364
1306893711.97,2.0978898,6.6032206,1547.37,-12.1,2.2,35.1,305045.75,-46585.26,-1.0,404.14917330932263,337716348.9930768,337716348.9930768,23.468445533283735,7.286426832898915,23781.609573060665,95.10000000000001,43.01114846216041
1306893712.18,2.0985191,6.6038019,1549.54,-11.7,2.2,35.0,305091.66,-46517.55,-1.0,383.6232940735209,333179894.3070838,333179894.3070838,20.887854230773126,7.398139840256115,23959.647171577486,95.9,43.02772982698981
1306893712.39,2.0991889,6.6044219,1551.88,-11.6,2.2,35.0,305140.5,-46445.34,-1.0,409.185447785387,336438995.1813312,336438995.1813312,21.425155308668227,7.4379964862670835,23845.886545909394,95.5,43.04452554002568
1306893712.61,2.0998837,6.6050666,1554.33,-11.6,2.2,34.9,305191.16,-46370.28,-1.0,405.67535091242047,328209745.4020768,328209745.4020768,21.30996553228992,7.181400170305102,23718.486305204864,95.2,43.06161215419891
1306893712.82,2.1005379,6.6056751,1556.67,-11.6,2.2,34.8,305238.81,-46299.43,-1.0,400.62945956787615,330803108.4396822,330803108.4396822,22.748460464949382,7.295416364322183,23595.897722740483,97.3,43.078882495406255
1306893713.04,2.1011952,6.6062878,1559.04,-11.4,2.2,34.8,305286.72,-46228.09,-1.0,384.65004732149356,341967200.1840063,341967200.1840063,21.592962985583185,7.283426569655862,22991.031273752476,98.1,43.0963518742339
1306893713.26,2.1018961,6.6069427,1561.6,-11.2,2.2,34.7,305337.78,-46151.86,-1.0,411.0817366860037,346701062.51728016,346701062.51728016,23.358141922792242,7.452941765549347,23174.179537656935,98.60000000000001,43.114150430664345
1306893713.47,2.1025628,6.6075669,1564.06,-11.0,2.2,34.7,305386.34,-46079.2,-1.0,410.1854400456409,344338612.5277686,344338612.5277686,22.032466326219684,7.389846450044226,23413.152192535195,99.19999999999999,43.13220161176671
1306893713.68,2.1031951,6.6081603,1566.43,-10.8,2.3,34.6,305432.38,-46010.14,-1.0,389.25625243763295,352483445.08008593,352483445.08008593,21.147238658724905,7.629986917693541,24202.29152294691,97.3,43.15035231167922
1306893713.89,2.1038649,6.6087901,1568.95,-10.7,2.3,34.5,305481.16,-45936.84,-1.0,413.2908700331261,356306386.2183988,356306386.2183988,21.482127637294084,7.632703616135888,24180.639578400143,94.7,43.168610185694966
1306893714.11,2.1045565,6.6094418,1571.59,-10.6,2.3,34.5,305531.5,-45861.0,-1.0,407.76682782499967,344156401.5285397,344156401.5285397,21.57693200875258,7.405984964421577,24897.408275558675,94.5,43.18715130555499
1306893714.32,2.1052107,6.6100595,1574.11,-10.5,2.3,34.4,305579.09,-45789.13,-1.0,404.4688364129833,349837746.41677326,349837746.41677326,23.5614514252993,7.198251794672296,25042.711952998496,92.5,43.2059603606731
1306893714.53,2.1058587,6.6106727,1576.63,-10.4,2.3,34.4,305626.25,-45717.79,-1.0,401.2294985513756,355602138.55551744,355602138.55551744,23.39413743379869,6.937206729563419,25182.13838993352,94.5,43.2249072110668
1306893714.75,2.1065378,6.6113165,1579.31,-10.3,2.3,34.3,305675.63,-45642.88,-1.0,401.8143107876997,354876628.4336827,354876628.4336827,23.765049036873947,6.973145964213994,24755.911524453684,91.5,43.24403013320153
1306893714.97,2.1072075,6.6119529,1581.97,-10.2,2.4,34.2,305724.34,-45568.86,-1.0,396.754470775115,358539928.6246893,358539928.6246893,22.78366653858233,6.810531955845555,24826.42578995524,91.5,43.26339802471509
1306893715.18,2.1078742,6.6125875,1584.65,-10.0,2.4,34.2,305772.81,-45495.04,-1.0,414.5093022022657,376685161.5978841,376685161.5978841,24.560470010433093,6.941930791935961,25538.025964913802,92.2,43.28300323031439
1306893715.39,2.1085409,6.6132234,1587.36,-10.0,2.4,34.1,305821.28,-45421.09,-1.0,415.02378745064414,369685520.68794197,369685520.68794197,24.02186439996916,6.637991752984752,25711.272080306535,89.10000000000002,43.302723265310014
1306893715.61,2.1092107,6.6138634,1590.11,-9.9,2.4,34.1,305869.97,-45346.64,-1.0,398.3254855532125,362279081.89783996,362279081.89783996,24.779848439287484,6.781040930388606,25622.41487355401,90.0,43.32266530380521
1306893715.82,2.1098711,6.6144958,1592.85,-9.7,2.4,34.0,305917.97,-45273.11,-1.0,412.1149789476525,369918860.9514919,369918860.9514919,26.64222463252307,6.675528851135615,25060.50602383905,89.80000000000001,43.34289058814467
1306893716.03,2.1105316,6.6151293,1595.61,-9.6,2.4,34.0,305965.94,-45199.44,-1.0,412.58782346068557,359242283.06101173,359242283.06101173,24.427748521984483,6.818982162286005,25370.072280062595,92.2,43.36329959951825
1306893716.24,2.1111702,6.6157431,1598.32,-9.4,2.4,33.9,306012.34,-45128.07,-1.0,399.3262439375249,359213246.8781204,359213246.8781204,24.53301328582093,6.784831111290584,25203.610081678853,93.90000000000002,43.38376219794344
1306893716.46,2.111868,6.616415,1601.3,-9.3,2.5,33.9,306063.0,-45049.96,-1.0,417.1380795366712,373686117.7985268,373686117.7985268,25.307090253444905,7.079180691204292,24235.88173162311,95.90000000000002,43.4045769398507
1306893716.67,2.1125129,6.617037,1604.09,-9.2,2.5,33.8,306109.84,-44977.65,-1.0,404.2155485895138,373575319.0080802,373575319.0080802,27.249728319798013,7.188835881112038,24055.51107920624,94.00000000000001,43.425598374671345
1306893716.9,2.1132201,6.6177203,1607.18,-9.1,2.5,33.8,306161.19,-44898.21,-1.0,405.2152761650831,378389876.2744484,378389876.2744484,26.554048328403425,7.518277108630711,24334.12726545165,94.1,43.446933676508614
1306893717.11,2.1138744,6.6183537,1610.07,-9.0,2.5,33.7,306208.66,-44824.59,-1.0,411.07547031683833,389520633.5439031,389520633.5439031,28.84462824725403,7.8100962715665885,24746.08646934875,93.6,43.46844505008692
1306893717.33,2.114591,6.6190486,1613.26,-8.9,2.5,33.6,306260.66,-44743.82,-1.0,430.59062942853456,383519135.8305085,383519135.8305085,29.391593707978778,7.6742913256748295,24319.93771203839,91.0,43.490346843612734
1306893717.54,2.1152265,6.619666,1616.12,-8.8,2.6,33.6,306306.78,-44672.07,-1.0,400.0992055736464,373570830.49263006,373570830.49263006,28.64857074368689,7.895872297818992,23957.757350875956,91.3,43.512363466534865
1306893717.75,2.1158964,6.6203179,1619.17,-8.7,2.6,33.6,306355.38,-44596.32,-1.0,422.5131902374069,386552663.98882204,386552663.98882204,26.764266232794625,7.822874485839193,23828.066216607265,89.69999999999999,43.53460974824965
1306893717.96,2.1165382,6.6209435,1622.12,-8.6,2.6,33.5,306401.94,-44523.62,-1.0,405.0341154473391,377508934.79048723,377508934.79048723,25.43615593422632,7.711184173545419,24127.771952346677,92.39999999999999,43.557016791119295
1306893718.17,2.1171863,6.6215762,1625.13,-8.6,2.6,33.5,306448.94,-44450.1,-1.0,409.451473707338,381085488.69947344,381085488.69947344,26.504971844766903,7.795626227712694,23776.273075328216,89.9,43.57961521631614
1306893718.59,2.1185074,6.6228691,1631.34,-8.4,2.6,33.5,306544.69,-44299.88,-1.0,418.0725128956099,397651421.4525927,397651421.4525927,26.340821075082193,8.133571297817559,23278.55392750675,86.2,43.604892994093916
1306893719.02,2.1198442,6.6241815,1637.75,-8.2,2.6,33.5,306641.56,-44147.41,-1.0,414.0162115169522,397920761.1656358,397920761.1656358,25.647797656872946,7.8354158328970245,23653.29858538503,87.4,43.632796537401
1306893719.44,2.1211466,6.6254644,1644.12,-8.1,2.6,33.5,306735.94,-43998.4,-1.0,413.8834588146185,401779628.38530356,401779628.38530356,24.80446404838894,7.886659763183849,23528.375893835055,89.10000000000001,43.66344067563373
1306893719.65,2.1218104,6.6261196,1647.41,-8.0,2.6,33.5,306784.0,-43922.3,-1.0,422.51619605905165,407027860.4537866,407027860.4537866,25.959506161881997,7.835029926433079,23286.849034630875,89.70000000000002,43.69423791972822
1306893719.88,2.1225084,6.6268098,1650.91,-8.0,2.6,33.1,306834.56,-43842.14,-1.0,405.9693287083063,400487225.0075917,400487225.0075917,25.743172245404523,7.846512251967543,23382.817420645657,87.10000000000002,43.725502136701095
1306893720.09,2.1231753,6.6274702,1654.28,-7.9,2.8,33.1,306882.84,-43765.45,-1.0,425.4510667140274,397716145.56451386,397716145.56451386,25.166321983218268,7.64215669670044,23635.5060970161,86.90000000000002,43.75690414894956
1306893720.3,2.1238421,6.6281317,1657.68,-7.8,2.8,33.0,306931.09,-43688.64,-1.0,425.85465365666977,400293338.00584275,400293338.00584275,24.153255962985,7.406016205665285,23491.053907653764,89.7,43.788719547024805
1306893720.51,2.1244809,6.6287662,1660.97,-7.8,2.8,33.0,306977.34,-43614.96,-1.0,408.1613177251964,392466179.9771764,392466179.9771764,25.50697346679385,7.305643407505748,23944.978050846294,89.9,43.82071867213416
1306893720.74,2.1251915,6.629473,1664.66,-7.7,2.8,32.9,307028.75,-43532.89,-1.0,414.9625723353284,404359341.9415745,404359341.9415745,27.137948797780613,7.259266351267257,23391.79361582443,88.0,43.85328428893206
1306893720.95,2.1258708,6.6301499,1668.22,-7.6,2.8,32.9,307077.91,-43454.3,-1.0,435.34174995279267,406703171.2493734,406703171.2493734,25.874166790331703,7.419365743809994,23772.16047527088,87.5,43.88627094684982
1306893721.16,2.1265159,6.6307936,1671.64,-7.6,2.9,32.9,307124.56,-43379.58,-1.0,413.367396431699,401379302.08351016,401379302.08351016,25.22950862826212,7.254118990636367,24038.170436029442,88.8,43.91712177799593
1306893721.37,2.1271703,6.6314475,1675.13,-7.5,2.9,32.8,307171.91,-43303.66,-1.0,419.98289602862513,416143128.6216407,416143128.6216407,25.93278090282071,7.32551465360328,24411.949475854264,88.8,43.94573726356023
1306893721.58,2.1278341,6.6321117,1678.71,-7.4,2.9,32.8,307219.91,-43226.56,-1.0,426.3919245305843,418139787.83135,418139787.83135,24.888893943799406,7.472099537545227,24529.445047818634,86.8,43.97221692235289
1306893721.79,2.1284667,6.6327456,1682.15,-7.4,2.9,32.7,307265.66,-43152.98,-1.0,406.48827226266985,409715110.38541275,409715110.38541275,25.39100849729023,7.500779909537612,25023.135672692784,89.10000000000001,43.99881141054187
1306893722.01,2.129143,6.6334242,1685.86,-7.3,2.9,32.7,307314.53,-43074.21,-1.0,415.2588019144923,428770356.5671447,428770356.5671447,24.089394983155604,7.3880254231221985,24514.200595767164,90.10000000000001,44.0255666598857
1306893722.22,2.1298223,6.6341069,1689.62,-7.3,2.9,32.7,307363.63,-42994.97,-1.0,437.8168488154293,430979866.3054641,430979866.3054641,22.266189267895346,7.555184697083206,24110.385704313718,92.10000000000002,44.05262046565998
1306893722.44,2.1304986,6.6347874,1693.4,-7.2,3.0,32.6,307412.5,-42915.99,-1.0,416.0719923968881,416738302.4494001,416738302.4494001,22.052171991159636,7.761320404177943,24355.215823801394,89.4,44.07996517257161
1306893722.66,2.1311717,6.6354658,1697.19,-7.1,3.0,32.6,307461.13,-42837.27,-1.0,414.49033692855323,426858548.3534935,426858548.3534935,22.388870781187613,7.776894878274479,23466.045603431583,88.1,44.10769264413767
1306893722.87,2.1318417,6.6361419,1701.0,-7.1,3.0,32.5,307509.53,-42758.81,-1.0,432.90281907247874,426907031.3148092,426907031.3148092,22.647039998215774,7.858865351377453,24246.607512771676,90.0,44.13551197922078
1306893723.08,2.1325086,6.6368159,1704.82,-7.0,3.0,32.5,307557.72,-42680.61,-1.0,431.3233233962409,406389228.13270366,406389228.13270366,23.712529130749814,7.8422011922116575,24479.249307266917,92.2,44.163530351924194
1306893723.3,2.1331723,6.6374876,1708.66,-7.0,3.0,32.5,307605.66,-42602.67,-1.0,409.82428854689385,414498738.65230644,414498738.65230644,25.77024796159603,7.743186586700262,25080.747694745394,94.2,44.191870246937306
1306893723.51,2.1338298,6.6381538,1712.5,-7.0,3.0,32.4,307653.13,-42525.36,-1.0,425.91315952010314,427731849.897938,427731849.897938,24.756748598891875,8.0148621254135,24969.792606560855,92.8,44.22047807720853
1306893723.72,2.1344842,6.6388178,1716.35,-6.9,3.1,32.4,307700.38,-42448.33,-1.0,424.22881166156907,419821717.74427766,419821717.74427766,24.3511882864149,7.749144811680567,25668.572974225746,91.69999999999999,44.24929260039313
1306893724.14,2.1357961,6.6401515,1724.17,-6.8,3.1,32.3,307795.06,-42293.61,-1.0,425.7940845990374,430313741.52640754,430313741.52640754,24.068482918722164,7.532763447245325,25929.2799268054,91.5,44.28146014195043
1306893724.35,2.1364504,6.640818,1728.12,-6.8,3.1,32.3,307842.28,-42216.29,-1.0,425.3351160309291,441641741.2438805,441641741.2438805,23.14479483332301,7.547170538146021,25767.881706086206,90.6,44.31381141054186
1306893724.56,2.1371016,6.6414822,1732.09,-6.7,3.1,32.2,307889.28,-42139.24,-1.0,423.6930552245266,432017892.54659814,432017892.54659814,23.243658536524798,7.567969332920891,25656.28742053924,88.60000000000001,44.346323440288145
1306893724.77,2.1377528,6.6421472,1736.08,-6.7,3.2,32.2,307936.25,-42062.11,-1.0,423.9414945697893,433116331.1532773,433116331.1532773,23.705332222479385,7.673549489465351,25794.44015312785,90.60000000000002,44.37899623118929
1306893724.98,2.1383977,6.6428067,1740.07,-6.6,3.2,32.2,307982.78,-41985.61,-1.0,420.28929164033445,441043967.64185584,441043967.64185584,22.737552552482388,7.734278733776901,25811.66298991637,92.0,44.41182212795219
1306893725.19,2.1390769,6.6435021,1744.31,-6.6,3.2,32.1,308031.75,-41904.96,-1.0,443.23071789191346,440639888.3681942,440639888.3681942,22.231829093981638,7.596676863651975,25387.935989972462,90.9,44.444977202317894
1306893725.4,2.1397125,6.6441536,1748.31,-6.5,3.2,32.1,308077.59,-41829.4,-1.0,414.75693946827056,431891211.4176882,431891211.4176882,21.995634763060345,7.310769216683144,24930.066561939184,90.30000000000001,44.47827007195919
1306893725.62,2.1404103,6.6448699,1752.74,-6.5,3.2,32.1,308127.88,-41746.34,-1.0,435.28297893225,444585919.54306126,444585919.54306126,20.449388039411023,7.368392989275368,24859.99355787834,89.3,44.51201460389269
1306893725.83,2.1410676,6.6455454,1756.94,-6.4,3.3,32.0,308175.28,-41668.0,-1.0,429.9429132597402,438610641.344514,438610641.344514,20.56518325303625,7.118942329046867,24427.24695290394,90.0,44.54603472637738
1306893726.26,2.1423852,6.6469022,1765.48,-6.3,3.3,32.0,308270.22,-41510.68,-1.0,421.2400241957785,436317910.8716622,436317910.8716622,21.87229754916658,7.321484924860993,23868.928248774726,91.3,44.58364518132052
1306893726.47,2.1430518,6.6475898,1769.85,-6.3,3.3,31.9,308318.25,-41430.95,-1.0,437.1718119819059,444456927.4891154,444456927.4891154,22.29868010820461,7.54143483710426,23664.330138339796,90.1,44.61861456014817
1306893726.68,2.1437152,6.6482749,1774.24,-6.2,3.3,31.9,308366.06,-41351.51,-1.0,435.4516058577489,442156797.129031,442156797.129031,24.34795523121764,7.4497020072515765,24063.426572553828,90.1,44.653920771871704
1306893726.91,2.1444097,6.6489932,1778.87,-6.2,3.4,31.9,308416.09,-41268.24,-1.0,416.2864860634858,438910119.4935295,438910119.4935295,25.217067332702378,7.5772149088959235,24711.782404715526,91.79999999999998,44.689732232939065
1306893727.12,2.1450669,6.6496735,1783.29,-6.1,3.4,31.8,308463.41,-41189.36,-1.0,431.96392911330776,449170677.12182724,449170677.12182724,25.516102059643718,7.341259742176082,24686.75471409619,89.90000000000002,44.725872871609226
1306893727.54,2.1463748,6.6510301,1792.19,-6.1,3.4,31.8,308557.59,-41032.11,-1.0,430.3618512008429,447380977.6186586,447380977.6186586,25.401265157649494,7.490349962974881,25604.69534389188,89.90000000000002,44.76577225918579
1306893727.75,2.1470287,6.6517095,1796.69,-6.0,3.4,31.7,308604.66,-40953.35,-1.0,430.86755877164217,442052826.71151453,442052826.71151453,25.782450129813768,7.583194451912264,25671.58380741666,91.00000000000001,44.80587068438263
1306893727.97,2.1477136,6.6524221,1801.45,-6.0,3.5,31.7,308653.97,-40870.75,-1.0,431.21926065561735,455608986.4355121,455608986.4355121,26.8780376299428,7.633841461800516,26322.598630937857,90.60000000000001,44.8465509118542
1306893728.18,2.1483675,6.653103,1806.02,-5.9,3.5,31.7,308701.03,-40791.82,-1.0,431.54499459059565,449647071.47815984,449647071.47815984,26.653388341432663,7.7608467547580835,25590.960410527237,88.30000000000001,44.887338313429005
1306893728.62,2.1497341,6.6545289,1815.7,-5.8,3.5,31.6,308799.34,-40626.57,-1.0,430.9621637966657,447958402.72532195,447958402.72532195,26.741991662301825,7.747299138849797,26078.104751797822,86.3,44.93232081561623
1306893728.83,2.1504189,6.6552447,1820.61,-5.8,3.5,31.6,308848.63,-40543.62,-1.0,453.4630924883095,455550701.5080802,455550701.5080802,25.26640820208333,7.7591426784330295,26311.652435121814,86.7,44.974524446412374
1306893729.04,2.1510694,6.6559254,1825.31,-5.8,3.6,31.6,308895.41,-40464.73,-1.0,430.7121662875957,445499395.555171,445499395.555171,25.981154097647185,7.523913938187022,26433.233551619996,85.10000000000001,45.01698070188045
1306893729.25,2.151723,6.6566101,1830.07,-5.7,3.6,31.5,308942.41,-40385.39,-1.0,433.0971668333889,450451188.66502506,450451188.66502506,26.39121308641235,7.67906770598789,26533.326782308042,87.80000000000001,45.05972020319278
1306893729.46,2.1523609,6.6572791,1834.76,-5.7,3.6,31.5,308988.28,-40307.86,-1.0,422.932928742567,461816726.63507456,461816726.63507456,27.353874038394615,7.585257012205079,26186.605440407417,85.30000000000001,45.10250563626364
1306893729.67,2.15303,6.6579815,1839.7,-5.6,3.6,31.5,309036.38,-40226.47,-1.0,444.1847316435984,468757716.5767231,468757716.5767231,26.322935158816446,7.534283171050821,26179.293223621324,86.10000000000001,45.14568914457511
1306893729.88,2.1536834,6.6586683,1844.58,-5.6,3.6,31.4,309083.34,-40146.89,-1.0,433.9982777579561,475229208.43378425,475229208.43378425,28.07987444587263,7.464959415654357,25478.137452997482,84.3,45.18579522506504
1306893730.09,2.1543337,6.6593525,1849.46,-5.6,3.7,31.4,309130.09,-40067.62,-1.0,432.219966435348,484385673.6409558,484385673.6409558,27.7941682524897,7.438406240368884,25259.014702832537,84.19999999999999,45.22619220669234
1306893730.3,2.1549808,6.6600341,1854.36,-5.5,3.7,31.4,309176.59,-39988.65,-1.0,430.3865848765221,482833685.2923085,482833685.2923085,27.283884390414674,7.591850649529071,25199.65211821427,84.9,45.26669636242287
1306893730.72,2.156281,6.661406,1864.31,-5.5,3.7,31.3,309270.0,-39829.72,-1.0,432.92151179946467,478747075.5787273,478747075.5787273,28.26805529986614,7.599023384042961,25157.91788870701,85.10000000000002,45.31131906583495
1306893730.93,2.1569342,6.6620962,1869.37,-5.4,3.8,31.3,309316.94,-39749.77,-1.0,435.49359759277564,480238355.82326865,480238355.82326865,28.535205764395826,7.5032384862718455,25401.977384918573,86.10000000000001,45.352405023840205
1306893731.35,2.1582558,6.663495,1879.73,-5.9,3.8,31.2,309411.84,-39587.73,-1.0,441.1303574881212,475353375.5793275,475353375.5793275,28.749063921981524,7.325108347487522,24808.580890757963,84.80000000000001,45.39766311657861
1306893731.56,2.1588839,6.6641609,1884.7,-7.7,3.8,31.2,309456.94,-39510.6,-1.0,419.4668640859642,475763079.84754634,475763079.84754634,26.49728655718886,7.296233614346013,24477.932214274948,87.5,45.4431279022304
1306893731.77,2.1595428,6.6648604,1889.96,-9.9,3.8,31.2,309504.25,-39429.57,-1.0,440.8452164943859,483137063.08537745,483137063.08537745,26.299014434663857,7.157370148402025,24531.925870362138,86.70000000000002,45.488975452536614
1306893731.98,2.1602011,6.6655608,1895.26,-12.6,3.9,31.1,309551.5,-39348.46,-1.0,441.0324985739489,483537302.18320614,483537302.18320614,25.092219593297646,7.030006818736041,24153.87771158069,86.7,45.53528997572121
1306893732.19,2.1608619,6.6662654,1900.62,-15.3,3.9,31.0,309598.91,-39266.86,-1.0,443.43469257677367,476436405.83740574,476436405.83740574,25.440240645711505,7.147796778111029,24697.56873001955,85.60000000000001,45.58192602121553
1306893732.4,2.1615155,6.6669645,1905.96,-18.3,3.9,30.9,309645.81,-39185.91,-1.0,439.5299586560998,476977531.9800284,476977531.9800284,22.75256216605533,7.016350631458331,24469.70671748345,88.50000000000001,45.62891421019191
1306893732.61,2.16214,6.6676348,1911.1,-21.2,3.9,30.8,309690.59,-39108.31,-1.0,420.6325534281106,472267877.43002313,472267877.43002313,20.60803574791611,7.173233806791218,24872.80407434218,88.0,45.67610143678858
1306893732.82,2.1627878,6.6683329,1916.48,-24.3,4.0,30.7,309737.0,-39027.5,-1.0,437.7686457020495,477985012.10584086,477985012.10584086,19.38389620440644,7.02303100884644,24346.24818455454,88.39999999999999,45.7236561174535
1306893733.03,2.1634368,6.6690356,1921.91,-27.1,4.0,30.6,309783.5,-38946.16,-1.0,440.164066837696,483723270.544325,483723270.544325,18.325958668950143,6.995764246946942,24641.63875591379,91.0,45.76775060564247
1306893733.24,2.1640837,6.6697399,1927.37,-30.3,4.0,30.4,309829.81,-38864.67,-1.0,440.3230424611328,486717349.03295773,486717349.03295773,17.672368966035677,7.072429613825284,23889.647209075312,92.30000000000001,45.812151305554984
1306893733.45,2.1647311,6.6704492,1932.88,-33.1,4.0,30.3,309876.13,-38782.62,-1.0,442.6523460834133,486958321.5282614,486958321.5282614,18.708669932862623,7.2846097802851,24300.171207102972,95.5,45.85283918831964
1306893733.66,2.1653574,6.6711401,1938.25,-36.2,4.1,30.1,309920.88,-38702.72,-1.0,430.0203441631935,485516707.0861227,485516707.0861227,20.344401878801143,7.544326244989494,24147.40695381153,95.10000000000001,45.89383328280783
1306893733.87,2.1660169,6.6718731,1943.96,-39.1,4.1,29.8,309968.0,-38617.96,-1.0,455.7492580928739,480533697.6486194,480533697.6486194,19.830083369827427,7.770275275882209,24541.447012640616,96.60000000000001,45.935171865485
1306893734.08,2.1666395,6.6725713,1949.4,-42.2,4.1,29.6,310012.41,-38537.27,-1.0,432.4761441796733,474648488.0918422,474648488.0918422,21.938559544889358,8.034858657643772,24773.081569456575,96.5,45.976617622265394
1306893734.29,2.1672582,6.6732715,1954.86,-44.9,4.2,29.3,310056.5,-38456.36,-1.0,432.63335313295755,481756114.31390935,481756114.31390935,21.74102049818177,7.9527900379897165,24060.080336860396,97.2,46.018139931976684
1306893734.51,2.1679287,6.6740387,1960.83,-47.7,4.2,29.0,310104.22,-38367.77,-1.0,451.23396711629374,490890697.42946506,490890697.42946506,23.564586611468947,8.016980564305424,24065.563740165835,94.9,46.06014452515253
1306893734.72,2.1685348,6.6747404,1966.28,-49.9,4.2,28.7,310147.31,-38286.75,-1.0,430.7536916221656,494146537.30707264,494146537.30707264,23.324950994790278,7.9276407826832,24094.405424655986,93.89999999999999,46.102386432414136
1306893734.93,2.169159,6.6754721,1971.96,-51.4,4.3,28.4,310191.63,-38202.33,-1.0,447.7929525002972,504980928.85203296,504980928.85203296,23.2501436605619,7.904867476710992,23793.77261569889,92.8,46.144857998468375
1306893735.14,2.1697626,6.6761895,1977.53,-52.7,4.4,28.0,310234.41,-38119.6,-1.0,437.2057996438127,506390762.6236115,506390762.6236115,23.51755668213103,7.965630493278383,24132.069372634236,93.5,46.18743673862585
1306893735.35,2.1703514,6.676899,1983.02,-53.7,4.4,27.6,310276.06,-38037.81,-1.0,430.70608229645836,503027788.7774686,503027788.7774686,22.064139508750525,8.045002086391463,24200.927073086823,93.80000000000001,46.2300384446626
1306893735.56,2.1709419,6.6776212,1988.62,-54.7,4.4,27.2,310317.75,-37954.6,-1.0,436.7934926466987,511416902.07082856,511416902.07082856,22.991901582546273,7.741587053986068,24082.510237905397,90.10000000000002,46.272709048337134
1306893735.78,2.1715723,6.6784046,1994.69,-55.6,4.4,26.8,310362.19,-37864.4,-1.0,450.63921932176993,519843209.4007075,519843209.4007075,23.77558359767299,7.542443078986672,24584.50164633672,90.10000000000001,46.31591552252787
1306893735.99,2.1721307,6.6791102,2000.15,-56.4,4.5,26.4,310401.44,-37783.2,-1.0,422.9476570781744,508175716.2829036,508175716.2829036,23.476536089757165,7.436116253179166,24369.887626137275,88.4,46.35893061439138
1306893736.21,2.1727299,6.6798803,2006.12,-57.0,4.5,25.9,310443.5,-37694.63,-1.0,439.138299379433,525446579.2104289,525446579.2104289,21.093454145544747,7.185641203211521,24897.98892413252,89.4,46.40235143678858
1306893736.44,2.1733406,6.6806803,2012.32,-57.5,4.5,25.4,310486.25,-37602.68,-1.0,466.19789904835994,524033784.31691676,524033784.31691676,22.401104521413632,7.245887745363394,25405.102437519425,91.20000000000002,46.446338750874325
1306893736.66,2.17392,6.6814541,2018.32,-57.9,4.6,24.9,310526.69,-37513.8,-1.0,469.2457630208393,525942711.22229856,525942711.22229856,22.567895595703217,7.004624279771333,25714.119038454257,94.10000000000002,46.49034903083933
1306893736.87,2.1744738,6.6822083,2024.17,-58.3,4.6,24.5,310565.25,-37427.23,-1.0,476.7543863499099,554524402.6659607,554524402.6659607,24.7369140702582,7.12250111682178,26009.313109961757,93.20000000000003,46.534665522527874
1306893737.08,2.1749901,6.6829251,2029.74,-58.6,4.6,24.0,310601.09,-37345.0,-1.0,452.64156181046275,571574753.1946384,571574753.1946384,25.84362690872927,6.998632399148943,26533.066512570425,94.60000000000002,46.57889780599244
1306893737.3,2.175549,6.6837169,2035.91,-58.9,4.7,23.5,310639.78,-37254.21,-1.0,474.1908265176204,610942808.6346959,610942808.6346959,27.357837799640542,6.89814909267109,25813.616603504495,93.9,46.6235894070423
1306893737.51,2.1760484,6.6844393,2041.54,-59.1,4.7,23.0,310674.25,-37171.44,-1.0,452.5772807812733,647179846.1355128,647179846.1355128,27.82951857054543,6.880233344480328,26347.20875002195,90.8,46.66838818219541
1306893737.72,2.1765477,6.6851767,2047.29,-59.2,4.7,22.5,310708.59,-37087.0,-1.0,459.77003108683533,682298623.0348905,682298623.0348905,26.447671768606558,7.232196262897326,26001.46689438056,91.00000000000001,46.713301786744836
1306893737.93,2.1770556,6.6859432,2053.29,-59.4,4.8,22.0,310743.41,-36999.3,-1.0,475.1209614630031,702227059.9692969,702227059.9692969,25.917388884805035,7.241972602333879,25852.490735886437,88.5,46.758161804242654
1306893738.14,2.1775275,6.6866714,2058.99,-59.5,4.8,21.5,310775.66,-36916.02,-1.0,451.0693072834205,709708518.140937,709708518.140937,24.47164047034107,7.06496223333302,26050.9830986901,86.80000000000001,46.80320554877459
1306893738.35,2.1779917,6.6874037,2064.74,-59.6,4.8,21.0,310807.28,-36832.32,-1.0,451.9271073468286,713002215.8177565,713002215.8177565,24.313922637977864,6.9617456482333155,25753.041328479692,87.60000000000001,46.84808087685858
1306893738.57,2.1784827,6.6881967,2070.98,-59.7,4.9,20.5,310840.56,-36741.76,-1.0,464.5007739348163,716372274.0122942,716372274.0122942,24.730081632849448,7.141790119285175,25766.27773024587,86.4,46.89298682611492
1306893738.78,2.1789236,6.6889263,2076.74,-59.8,4.9,19.9,310870.34,-36658.48,-1.0,447.1365893690243,704712749.0817513,704712749.0817513,25.406219056212137,7.290999185290747,25651.989974670134,84.80000000000001,46.93770904833714
1306893739.0,2.1793875,6.6897129,2082.96,-59.9,4.9,19.4,310901.53,-36568.75,-1.0,457.85143969204194,712692318.3452386,712692318.3452386,23.713115920868887,7.407288228877409,24814.831919559834,86.50000000000001,46.98271451640363
1306893739.22,2.1798355,6.6904927,2089.14,-59.9,5.0,18.8,310931.5,-36479.87,-1.0,452.445868322813,720340341.5597311,720340341.5597311,25.10237320303608,7.494203941818577,25170.841730564574,83.7,47.02818695734852
1306893739.44,2.1802738,6.6912761,2095.38,-60.0,5.0,18.3,310960.69,-36390.63,-1.0,452.9408803832277,707110251.7046533,707110251.7046533,24.471189672165107,7.575802435603383,25175.40902204044,82.5,47.07371298534502
1306893739.65,2.1806736,6.6920099,2101.23,-60.0,5.0,17.8,310987.16,-36307.1,-1.0,443.4416408987614,714314223.3153331,714314223.3153331,24.850944356718905,7.415956392573172,24823.322317417962,85.0,47.11940742978946
1306893739.86,2.1810796,6.6927755,2107.36,-60.0,5.1,17.2,311013.91,-36219.99,-1.0,460.20228376124203,717722957.0215423,717722957.0215423,24.42676365154326,7.215133028423033,24846.73935391352,85.69999999999999,47.16539277537127
1306893740.08,2.1814761,6.6935446,2113.54,-60.1,5.1,16.6,311039.88,-36132.56,-1.0,440.85324401163314,700732015.9468632,700732015.9468632,23.443598755198966,7.295188538178418,24346.167132567727,89.0,47.21151591622866
1306893740.29,2.1818472,6.6942851,2119.51,-60.1,5.1,16.1,311064.03,-36048.42,-1.0,443.179367964274,711876573.4803351,711876573.4803351,24.421567141553236,7.3257089122044405,23921.24173060198,91.1,47.25784574999943
1306893740.5,2.1822143,6.6950395,2125.61,-60.1,5.2,15.5,311087.78,-35962.77,-1.0,449.6420195219342,715090147.8361341,715090147.8361341,26.09197775817951,7.356174595605701,23793.571642159597,92.9,47.304443519028304
1306893740.71,2.1825704,6.6957935,2131.73,-60.1,5.2,15.0,311110.66,-35877.2,-1.0,448.22711660960437,703137898.2766625,703137898.2766625,25.196754895858117,7.183028147929496,23652.86398292763,90.69999999999999,47.35094942454012
1306893740.92,2.1829089,6.696533,2137.75,-60.2,5.2,14.5,311132.25,-35793.35,-1.0,438.7649816419363,707315902.3195306,707315902.3195306,24.39498790234434,7.108743462952805,24134.279605220476,91.80000000000001,47.397654367672224
1306893741.13,2.1832323,6.6972614,2143.7,-60.2,5.3,13.9,311152.69,-35710.8,-1.0,431.4441457407153,708959774.2158493,708959774.2158493,26.041720733874733,6.874811833815027,24866.747319445825,89.5,47.44415261789095
1306893741.34,2.1835557,6.6980139,2149.87,-60.2,5.3,13.3,311173.0,-35625.57,-1.0,443.76650952612476,707925657.4391264,707925657.4391264,24.7567717872089,7.037410258512017,24910.109455269023,92.79999999999998,47.49064321281658
1306893741.56,2.1838709,6.6987729,2156.12,-60.2,5.3,12.8,311192.59,-35539.66,-1.0,427.0662613150064,704773228.4884785,704773228.4884785,23.47461890747966,7.053469562635104,25672.322733056288,91.9,47.5371414630353
1306893741.78,2.184186,6.6995594,2162.62,-60.2,5.4,12.2,311211.97,-35450.7,-1.0,440.45881562035,716182974.5510697,716182974.5510697,24.244036607656636,7.2160584276120705,25805.411661143284,91.10000000000002,47.584137307304765
1306893741.99,2.1844677,6.7002887,2168.67,-60.2,5.4,11.7,311229.13,-35368.26,-1.0,427.5961887333481,701994504.3690714,701994504.3690714,25.28810295640331,7.245439347730455,26204.76664172678,92.70000000000002,47.631071909229526
1306893742.2,2.1847479,6.7010418,2174.94,-59.9,5.4,11.1,311246.0,-35283.18,-1.0,439.7019866867407,697277533.9041518,697277533.9041518,24.67067603058749,7.273861810716916,25960.529043008195,91.4,47.67807540879208
1306893742.41,2.1850172,6.7017941,2181.23,-58.9,5.4,10.5,311261.97,-35198.26,-1.0,438.16752142103826,687563248.3826829,687563248.3826829,25.33137481139772,7.288785872666026,25985.960271491957,90.3,47.72532387773346
1306893742.62,2.1852638,6.7025102,2187.26,-57.4,5.4,10.0,311276.44,-35117.46,-1.0,417.55761803899,675900756.4730403,675900756.4730403,24.132109874849203,7.555856051488352,26072.18603553464,89.10000000000001,47.77251875962323
1306893742.83,2.1855079,6.7032463,2193.49,-55.4,5.4,9.5,311290.56,-35034.45,-1.0,427.68991744461727,677023592.8347979,677023592.8347979,24.579171669570478,7.58162303768126,26050.42918267438,89.50000000000001,47.81979784973697
1306893743.05,2.1857579,6.7040302,2200.19,-53.0,5.4,9.0,311304.81,-34946.1,-1.0,433.5568592632693,677238558.0330747,677238558.0330747,24.77776806478636,7.53036329647923,25640.65629441092,88.10000000000002,47.867597499780715
1306893743.26,2.1859769,6.7047429,2206.33,-50.5,5.4,8.5,311317.09,-34865.83,-1.0,413.4319011883077,677563929.989378,677563929.989378,23.596983041197472,7.709488616518583,24945.30454825397,90.30000000000001,47.91554260039314
1306893743.47,2.1861944,6.7054751,2212.7,-48.3,5.4,8.1,311329.16,-34783.39,-1.0,423.55985679094897,685644109.9383466,685644109.9383466,22.83805639671543,7.725966771642119,24781.240811694584,86.9,47.963640806867325
1306893743.69,2.1864174,6.7062511,2219.52,-45.8,5.4,7.8,311341.31,-34696.05,-1.0,427.6670411146377,680970648.5949671,680970648.5949671,22.73325723082447,7.5354561722025935,24543.911825322255,89.5,48.012175365047554
1306893743.91,2.1866307,6.7070185,2226.33,-43.3,5.4,7.4,311352.75,-34609.73,-1.0,422.6505458457283,662400206.1394155,662400206.1394155,22.692497972805388,7.709490265151945,24726.180350474446,90.3,48.06094723731352
1306893744.13,2.1868364,6.7077806,2233.16,-40.7,5.4,7.1,311363.66,-34524.03,-1.0,419.56145477404544,664475466.6188177,664475466.6188177,21.25702693990784,7.878266985797537,25218.716316173006,88.4,48.110316222440375
1306893744.35,2.1870331,6.7085306,2239.93,-38.2,5.5,6.8,311373.91,-34439.72,-1.0,412.9198684359776,652685458.4049072,652685458.4049072,23.17007650277054,7.8919742176918115,25689.454414850785,89.39999999999999,48.160067972221654
1306893744.57,2.1872252,6.7092823,2246.78,-35.7,5.5,6.5,311383.78,-34355.25,-1.0,413.4625413359506,642614509.2793473,642614509.2793473,21.444431162122527,7.95603483957154,25238.013463951153,90.19999999999999,48.21024841841588
1306893744.78,2.1874098,6.7100219,2253.57,-33.4,5.5,6.3,311393.16,-34272.16,-1.0,425.13222104948346,651401571.4826789,651401571.4826789,21.06738906338126,7.689705444741675,24715.810143636176,88.5,48.26101066688483
1306893745.0,2.1875906,6.7107631,2260.43,-31.3,5.5,6.0,311402.22,-34188.9,-1.0,407.60291306577346,644504940.3490105,644504940.3490105,22.44042079408759,7.540473199903904,24636.685623334684,91.69999999999999,48.312255198818335
1306893745.21,2.1877681,6.711506,2267.35,-29.4,5.5,5.8,311411.03,-34105.48,-1.0,426.44099928145584,639219059.6079873,639219059.6079873,21.61325774764397,7.7613102489924355,24819.949285195224,93.7,48.36366814719979
1306893745.42,2.1879298,6.7121959,2273.81,-27.4,5.5,5.6,311418.94,-34028.02,-1.0,397.68405042910587,629300617.3255776,629300617.3255776,20.955119126685652,7.708165088823279,25398.356490559527,94.1,48.41532606496007
1306893745.63,2.1880962,6.7129182,2280.62,-25.7,5.6,5.5,311427.0,-33946.94,-1.0,414.9829510208558,626282147.2282997,626282147.2282997,22.923909654424033,7.8248803987948605,25087.406154721557,97.4,48.46732081561624
1306893745.84,2.1882587,6.7136354,2287.42,-24.0,5.6,5.3,311434.78,-33866.45,-1.0,412.06084986175,617826882.6165286,617826882.6165286,25.565779724464942,7.777565991991218,24927.10867421772,96.2,48.519300255686225
1306893746.06,2.1884258,6.7143847,2294.56,-22.3,5.6,5.2,311442.69,-33782.36,-1.0,410.9107262968249,611867591.6815264,611867591.6815264,25.034510452895127,7.784794672199972,24990.199782648135,95.10000000000001,48.57153232042813
1306893746.28,2.1885892,6.7151288,2301.68,-20.8,5.6,5.0,311450.34,-33698.88,-1.0,408.0407120847635,609782525.0476993,609782525.0476993,25.4290478156876,7.6745930824315085,24642.310969703336,97.10000000000001,48.62398638866961
1306893746.5,2.18875,6.715871,2308.82,-19.4,5.6,4.9,311457.81,-33615.62,-1.0,406.9800786862535,607225453.183306,607225453.183306,23.436206869276827,7.457449455714643,24340.893836725838,94.30000000000001,48.676723702755346
1306893746.72,2.1889076,6.716608,2315.93,-18.0,5.6,4.8,311465.06,-33532.95,-1.0,404.21669572749687,599401700.6761718,599401700.6761718,24.479644162985075,7.471323129523069,24861.882508217517,94.9,48.729660054461384
1306893746.94,2.1890629,6.7173432,2323.06,-16.8,5.7,4.7,311472.16,-33450.49,-1.0,403.21589831194837,595625381.683593,595625381.683593,25.884863509720063,7.478032322358925,25083.21465398494,94.30000000000001,48.78285668613242
1306893747.16,2.1892169,6.7180799,2330.23,-15.6,5.7,4.6,311479.13,-33367.88,-1.0,403.85613476069227,598481898.34702,598481898.34702,25.78057806193962,7.790900235534545,24700.55865981303,94.5,48.836290631889206
1306893747.38,2.1893695,6.7188181,2337.44,-14.5,5.7,4.5,311485.97,-33285.1,-1.0,404.5877353293896,587411414.646093,587411414.646093,26.159760545200022,7.924634225830157,24997.71784520811,93.3,48.889946581145544
1306893747.6,2.189521,6.7195579,2344.69,-13.5,5.7,4.4,311492.72,-33202.15,-1.0,405.3359714069997,589725156.7516857,589725156.7516857,27.75740251238639,8.054905167621994,25103.54285007067,91.6,48.94420729855587
1306893748.04,2.1898175,6.7210253,2359.13,-11.7,5.7,4.2,311505.78,-33037.64,-1.0,402.1041487908195,578983460.3268529,578983460.3268529,26.56161538423273,7.916591082468544,24994.229122581008,89.39999999999999,49.00430900459261
1306893748.46,2.1900925,6.7224066,2372.8,-10.3,5.7,4.1,311517.75,-32882.81,-1.0,396.7778744727303,570246836.0920368,570246836.0920368,24.31689002510966,7.891389803635022,25419.084625044947,88.19999999999999,49.06966989698106
1306893748.89,2.1903698,6.7238178,2386.82,-9.0,5.7,4.1,311529.69,-32724.64,-1.0,395.92437756303883,563920910.3185217,563920910.3185217,23.172446497336818,7.724784417568426,25448.687174189545,89.5,49.140297631014306
1306893749.33,2.1906484,6.7252515,2401.13,-7.8,5.7,4.1,311541.59,-32563.97,-1.0,393.2010209662392,559669903.1434255,559669903.1434255,23.026339058260888,7.500200134725761,25586.997255834067,87.6,49.21642952077809
1306893749.76,2.1909208,6.7266642,2415.28,-6.8,5.7,4.1,311553.13,-32405.65,-1.0,396.22450164112473,555881009.5980204,555881009.5980204,23.51409551699488,7.4491260972357844,25805.372926564014,88.6,49.29792777099681
1306893750.2,2.1911876,6.7280544,2429.25,-6.0,5.9,3.7,311564.38,-32249.87,-1.0,381.9813944241908,550810917.346191,550810917.346191,23.23415854482022,7.242968114144218,25617.391551592653,88.5,49.38467755227415
