timestamp,longitude,latitude,altitude,roll,pitch,yaw,u,v,heading,air_speed,engine_0,temperature_in,humidity_in,pressure_in,heart_rate,oxygen_mask
1306893631.74,9.0233577,3.6329568,466.74,-1.0,1.3,-1.0,902763.25,-318673.19,-1.0,74.83708283736742,7830065.567222012,24.806269066807147,7.133929407635984,24313.11983394383,84.4,32.65420539188509
1306893632.16,9.0235654,3.632746,466.84,-1.0,4.0,-1.0,902783.88,-318694.19,-1.0,74.83708283736742,7021181.356035621,26.67058654414508,7.300698301994537,23979.92217272382,82.50000000000001,32.641918646478274
1306893632.58,9.0237708,3.6325375,466.9,-1.0,5.8,-1.0,902804.31,-318714.97,-1.0,74.12901876081644,6220400.186630446,25.36692203546616,7.139922066207245,24273.630852135306,82.4,32.640885181911344
1306893633.01,9.023989,3.6323161,466.95,-1.0,7.0,-1.0,902826.0,-318737.03,-1.0,76.69134272031464,5584972.070905885,25.858302569923357,7.02703525291966,24798.32456525093,83.80000000000001,32.640395243153684
1306893634.5,9.024785,3.6315082,467.03,-1.0,8.7,-1.0,902905.19,-318817.53,-1.0,80.52926948372041,5334767.885678555,24.25984481027638,6.8601747745444275,24862.007830308128,84.70000000000002,32.64024979258501
1306893634.92,9.025017,3.6312727,467.06,-1.0,9.0,-1.0,902928.31,-318841.0,-1.0,83.18128846266701,5334767.885678554,24.259844810276384,6.8601747745444275,24862.00783030813,84.70000000000002,32.64024979258501
1306893635.36,9.0252679,3.631018,467.22,-1.0,9.3,-1.0,902953.25,-318866.38,-1.0,85.61358120910553,5584972.070905883,25.85830256992336,7.02703525291966,24798.324565250932,83.80000000000001,32.64039524315369
1306893635.79,9.0255179,3.6307642,467.59,-1.0,9.7,-1.0,902978.13,-318891.66,-1.0,87.23211390883581,6220400.186630446,25.36692203546616,7.1399220662072445,24273.63085213531,82.4,32.640885181911344
1306893636.22,9.0257713,3.6305069,468.25,-1.0,9.9,-1.0,903003.31,-318917.31,-1.0,88.34609305431447,7021181.35603562,26.67058654414508,7.300698301994537,23979.922172723825,82.50000000000001,32.641918646478274
1306893639.24,9.027675,3.6285677,482.89,-1.0,10.1,-1.0,903192.81,-319110.63,-1.0,94.50535571099894,7830065.567222013,24.806269066807147,7.133929407635984,24313.11983394384,84.4,32.65420539188509
1306893640.95,9.0288588,3.6273524,499.08,-0.2,10.1,-1.0,903310.81,-319231.88,-1.0,109.36406038359853,8594926.268445069,26.391776346798853,7.079477990176631,23996.091149320324,87.80000000000001,32.67896260973287
1306893641.79,9.0294742,3.626717,509.18,-0.2,9.9,-1.0,903372.25,-319295.31,-1.0,115.77029804338785,9575914.077180738,24.33933459331842,6.994844250675705,24493.612114762665,88.80000000000003,32.711375120669004
1306893642.64,9.0301145,3.6260531,520.73,-0.4,9.9,143.5,903436.13,-319361.63,-1.0,119.13337636684591,10958007.81268201,25.4619220055923,7.205885259739755,24355.610128985576,92.0,32.75258356336366
1306893643.9,9.0311045,3.6250211,540.3,-0.6,9.7,143.5,903535.06,-319464.78,-1.0,124.43427406033392,12920126.102204109,27.18842319021531,7.356256662150098,24406.160288125422,90.4,32.80873513816681
1306893644.33,9.0314495,3.6246601,547.51,-0.7,9.7,143.5,903569.56,-319500.88,-1.0,127.27155743210041,15498831.946689984,28.38336566327071,7.2114887968057015,24038.233568043113,91.5,32.87034493694196
1306893644.75,9.0317965,3.6242964,554.83,-0.8,9.5,143.4,903604.31,-319537.25,-1.0,130.9664259363879,18491174.38814254,26.774781194037843,7.532314743499241,24495.295823680844,92.10000000000001,32.93753544437853
1306893645.18,9.032159,3.6239157,562.39,-0.9,9.2,143.4,903640.56,-319575.31,-1.0,133.43607867993475,21490935.71945984,26.65854043669018,7.202474283900756,24763.070036510246,92.90000000000002,33.01039086870049
1306893645.62,9.03253,3.6235255,569.92,-1.0,9.0,143.4,903677.69,-319614.38,-1.0,133.64076319498474,24289273.670463346,29.085242234391274,7.443667836922736,25238.519847096624,92.2,33.08872748287372
1306893646.04,9.0328917,3.6231447,576.93,-1.1,8.8,143.4,903713.88,-319652.47,-1.0,136.16646322590438,26604221.74173424,27.019601191153058,7.199852377902997,26052.693230590063,93.10000000000001,33.17192520815806
1306893646.47,9.0332681,3.6227478,583.83,-1.1,8.8,143.3,903751.56,-319692.19,-1.0,138.30132743467294,28456975.126458347,26.849087868043124,7.327338367375763,25842.752097937515,91.00000000000001,33.24919773659201
1306893646.89,9.0336485,3.6223465,590.36,-1.4,8.4,143.3,903789.63,-319732.34,-1.0,142.62951410776876,29974525.899245497,24.95059101722912,7.313885136922018,26275.35026103455,90.80000000000001,33.319075251902596
1306893647.31,9.0340264,3.6219477,596.39,-1.5,8.3,143.3,903827.5,-319772.25,-1.0,141.7651575858427,31508959.683108624,26.61201851080941,7.433597629992712,25713.44579526737,88.80000000000001,33.38583706292622
1306893648.15,9.0348089,3.6211221,607.49,-1.8,8.3,143.3,903905.88,-319854.91,-1.0,146.24970097388382,32747895.011912953,26.284551880150538,7.250091135800664,25953.109854138445,86.60000000000001,33.45225438576087
1306893648.58,9.0352237,3.6206848,612.75,-1.9,8.4,143.3,903947.38,-319898.66,-1.0,150.77261844037454,34159013.338413745,26.72976396640023,7.253079658899109,25535.55522368123,86.1,33.50771698418606
1306893649.0,9.0356265,3.6202607,617.67,-1.9,8.6,143.1,903987.69,-319941.09,-1.0,149.840366229154,35953880.586408764,24.904195503807806,7.443105985184991,25605.68902627703,83.7,33.561426520494024
1306893649.44,9.0360637,3.6198018,623.0,-1.9,8.9,143.1,904031.44,-319987.0,-1.0,154.63438802694301,37440862.226023436,25.013234155391018,7.241531251207599,25327.49613991419,84.30000000000001,33.613612653477404
1306893649.86,9.0364889,3.6193572,628.31,-1.9,9.1,143.1,904074.0,-320031.44,-1.0,157.03393023785554,39352547.13583582,23.906347088221104,7.269883989268701,25114.520027628358,84.7,33.664076345515895
1306893650.29,9.0369415,3.6188857,634.18,-1.9,9.3,142.9,904119.19,-320078.56,-1.0,162.41879371289775,41449936.16889154,22.404838965748244,7.055039887569672,25391.7678330708,85.9,33.71326925890172
1306893650.71,9.0373823,3.6184282,640.17,-1.9,9.5,142.9,904163.25,-320124.25,-1.0,161.75944517234893,43724629.553091384,21.88344444409994,7.356155043604704,24944.876377599077,87.3,33.76168133239253
1306893651.15,9.0378512,3.6179435,646.84,-1.9,9.6,142.9,904210.0,-320172.66,-1.0,163.6539268924854,45787813.64204387,24.760078617272846,7.539830040756638,24459.65525991342,89.10000000000001,33.80991733414231
1306893651.58,9.0383142,3.6174667,653.69,-1.9,9.6,142.7,904256.19,-320220.25,-1.0,164.99189039985023,48149856.22372473,26.0537030456921,7.517251387585887,24146.991302084818,88.5,33.858398305270924
1306893652.0,9.0387772,3.6169917,660.76,-1.9,9.6,142.7,904302.38,-320267.63,-1.0,168.36841267291837,49881919.48636253,24.68687597971605,7.631754154091808,23922.446572344983,90.6,33.907675426880715
1306893652.43,9.0392588,3.6164993,668.34,-3.8,11.0,142.7,904350.38,-320316.72,-1.0,170.55372715966675,51322552.26866075,24.700684466316275,7.692517670903122,23597.33682852325,92.8,33.95425788532342
1306893652.85,9.0397416,3.6160099,676.63,-21.8,11.5,142.2,904398.38,-320365.47,-1.0,173.97241839539976,52870746.75083262,23.603365121081936,7.870985019654495,23249.855556094426,95.5,34.003159897571884
1306893653.28,9.0402392,3.6155191,685.55,-38.4,10.4,141.3,904447.69,-320414.22,-1.0,172.41030497569497,54460108.424613886,24.953498864370026,7.891629800304049,23429.18637181624,96.7,34.0551240270557
1306893653.72,9.0407678,3.6150159,694.55,-41.7,9.1,140.4,904499.75,-320463.97,-1.0,174.68719968874,55599776.40521969,25.61007233718117,7.932187564910349,23679.97328865944,95.5,34.10989764910295
1306893654.14,9.0412772,3.6145454,702.36,-46.4,8.3,139.7,904549.69,-320510.31,-1.0,172.97562330474508,56151160.68717506,26.113740912252474,7.9052833263484645,23590.405846596,95.30000000000001,34.16658509442228
1306893654.56,9.0417976,3.6140785,709.38,-52.0,8.1,138.9,904600.56,-320556.09,-1.0,173.4458704487983,56033612.68793489,25.34822553418577,7.773787607081145,23219.552251109264,95.30000000000001,34.22415289844678
1306893654.99,9.0423332,3.6136152,715.64,-54.0,7.7,137.9,904652.56,-320601.31,-1.0,170.49826142067155,54770911.130202785,27.597388766911575,7.81927641791764,23028.58627212836,94.7,34.281927395384656
1306893655.41,9.0428772,3.6131633,721.08,-55.3,7.4,136.7,904705.13,-320645.19,-1.0,173.04065691701672,53061654.955508985,26.73000698191454,7.639902381075732,23686.30425997299,93.30000000000001,34.33876029127266
1306893655.84,9.043429,3.6127249,725.76,-57.1,7.4,135.4,904758.13,-320687.44,-1.0,167.38504320027113,51470660.670362666,25.376934831566555,7.501658117146517,24317.60364771351,92.10000000000001,34.39393198856051
1306893656.26,9.043994,3.6122987,729.81,-58.1,7.4,133.9,904812.06,-320728.19,-1.0,170.47718487589765,50199317.71778992,25.825838203811866,7.3466117558156485,25011.616733451483,92.00000000000001,34.44679178733566
1306893656.68,9.0445743,3.6118851,733.31,-58.5,7.4,132.3,904867.06,-320767.34,-1.0,170.05246160124778,49031175.294123024,25.699204371580414,7.525872003151096,25837.6741872569,90.5,34.496528226530764
1306893656.89,9.0448714,3.6116829,734.88,-58.8,7.4,131.5,904895.06,-320786.34,-1.0,170.27560852896076,48120582.25429735,24.607705765438737,7.509156624455799,25985.609590459688,88.7,34.54112030877048
1306893657.32,9.0454812,3.611288,737.7,-59.3,7.4,129.7,904952.19,-320823.06,-1.0,166.89916026772514,46969923.71334404,23.314344324974897,7.314902717195116,26706.93918905164,89.00000000000001,34.58104266222631
1306893657.74,9.0461051,3.6109114,740.12,-59.5,7.4,127.7,905010.25,-320857.59,-1.0,169.5513286847154,46401281.41424698,23.076851399695318,7.248003785819444,25798.98856155868,91.60000000000001,34.615927832829975
1306893658.18,9.0467658,3.6105421,742.26,-59.7,7.4,125.6,905071.25,-320890.88,-1.0,166.3861370910062,46001786.82809651,21.71395178815736,7.225629629256631,25904.846299239052,92.1,34.64647245225255
1306893658.61,9.047416,3.6102073,744.03,-59.9,7.4,123.6,905130.88,-320920.44,-1.0,162.94321358761758,47028099.30729991,23.10617697968585,7.343104087271981,25655.88992008798,90.10000000000001,34.672998042803734
1306893659.05,9.0481097,3.6098802,745.62,-59.9,7.5,121.3,905193.94,-320948.63,-1.0,164.85353973186096,49861370.692326345,23.669085893388285,7.236782228628976,26374.936097170917,91.30000000000001,34.69594861148265
1306893659.48,9.0487954,3.6095865,746.95,-59.9,7.6,118.9,905255.88,-320973.19,-1.0,162.4975063310973,52333086.336336724,22.576318894511413,7.060543200336627,25756.691897986504,90.9,34.71575285470224
1306893659.9,9.0494832,3.6093202,748.08,-59.9,7.7,116.6,905317.5,-320994.69,-1.0,162.59801405693594,56210540.15950665,23.456605197191926,7.085029704881773,24906.506605288167,92.9,34.73283946887547
1306893660.33,9.0501892,3.6090757,749.09,-60.1,7.8,114.2,905380.31,-321013.53,-1.0,159.35221245802947,59787928.7305261,22.718071760579736,7.134744764342278,24191.33035039064,94.10000000000002,34.74759887394983
1306893660.75,9.0508787,3.6088643,749.95,-60.1,8.0,111.8,905441.25,-321028.91,-1.0,156.13020347477718,63155495.70683216,22.74991291400966,7.119381961708283,23907.16576084546,95.30000000000001,34.76033728164887
1306893661.17,9.0515785,3.6086769,750.72,-60.1,8.1,109.3,905502.69,-321041.47,-1.0,155.40209666282163,66586348.62600379,23.42390491557141,7.164955091537485,24710.723842425166,97.10000000000001,34.772463265900846
1306893661.6,9.0523006,3.6085116,751.42,-60.1,8.3,106.7,905565.56,-321051.31,-1.0,153.6682466522854,70546518.91966484,24.64177434797831,7.209813361121571,23778.163812876574,98.30000000000001,34.782966328018084
1306893662.03,9.0530269,3.6083737,752.06,-60.1,8.5,104.1,905628.44,-321058.06,-1.0,152.3097167747527,73547324.19159411,24.12633969447961,7.152856336749856,23967.85573762527,98.50000000000001,34.79210674796559
1306893662.5,9.0538215,3.608255,752.7,-60.1,8.7,101.1,905696.69,-321061.84,-1.0,150.1886582221339,76340668.02611083,24.449546767992057,7.361815483121864,23906.272513385906,99.0,34.800098873949835
1306893662.94,9.0545627,3.6081747,753.24,-60.1,8.9,98.3,905759.88,-321062.03,-1.0,147.8648453747418,78363576.79849051,24.420302493521156,7.296251926656189,23951.105546610845,100.4,34.80714939888422
1306893663.36,9.0552657,3.6081255,753.73,-60.1,9.0,95.6,905819.38,-321059.16,-1.0,145.5793241891952,79317115.42312591,21.79024923421654,7.341424314965386,23220.53884081269,100.09999999999998,34.81335784157889
1306893663.79,9.0559825,3.6081028,754.2,-60.1,9.2,92.8,905879.56,-321053.19,-1.0,143.8793457141667,80324640.71881776,22.359089240927702,7.655080231786557,23191.83832974476,101.69999999999999,34.81890792906795
1306893664.22,9.0566877,3.608108,754.65,-60.1,9.5,89.9,905938.38,-321044.25,-1.0,141.07290261234454,80602659.0419168,22.054703759570003,7.680891000279027,23662.835588522266,98.8,34.82393745662701
1306893664.65,9.057391,3.608141,755.08,-60.1,9.7,87.1,905996.63,-321032.25,-1.0,140.47529013469165,80939193.0574701,23.09760672269718,7.418639711427482,24416.717318989216,96.60000000000002,34.828522977186935
1306893665.07,9.058079,3.608201,755.5,-59.9,9.7,84.2,906053.13,-321017.44,-1.0,140.67032176600767,80640996.95656097,22.512878385576325,7.410874583216724,24221.356769909926,95.80000000000003,34.83277166485097
1306893665.49,9.0587424,3.6082858,755.89,-59.5,9.7,81.4,906107.19,-321000.13,-1.0,136.19417929579305,79122455.7871277,21.48209426005083,7.336647253641142,23731.17397366639,96.00000000000001,34.836729451377664
1306893665.91,9.0593873,3.6083942,756.27,-59.0,9.7,78.6,906159.38,-320980.44,-1.0,133.3150030860471,77669320.06708081,22.38544061450478,7.282068036130249,24108.685376908375,93.80000000000001,34.840442268525514
1306893666.35,9.0600577,3.6085348,756.65,-58.4,9.7,75.6,906213.13,-320956.84,-1.0,133.3459677605348,75738769.85586546,21.641318147510386,7.295225021955683,23899.545041319103,92.90000000000003,34.84395604805307
1306893666.77,9.060684,3.6086926,757.0,-57.9,9.7,72.9,906262.94,-320931.84,-1.0,132.07169157459765,73240765.13200514,20.923685107881596,7.369583606491771,24052.484832033817,91.80000000000001,34.84724782408107
1306893667.21,9.0613209,3.6088802,757.35,-57.4,9.7,70.1,906313.19,-320903.44,-1.0,130.03253126699397,70982688.64251783,19.416730394935556,7.663662168808661,23943.007933681834,92.90000000000002,34.850394149540385
1306893667.65,9.061952,3.609094,757.69,-57.0,9.7,67.3,906362.56,-320872.16,-1.0,131.13309512503898,68208141.67180946,19.792723727224562,7.549258390540147,24271.555317231043,93.4,34.85342564560338
1306893705.11,9.0342818,3.6372321,792.35,56.6,9.7,310.9,903607.94,-318068.25,-1.0,95.12280610339727,64059180.27223281,18.433414190989744,7.4790414407772,24819.52284617756,91.89999999999999,34.88263058873549
1306893705.32,9.0340075,3.6374138,792.6,56.7,9.7,312.2,903582.13,-318051.28,-1.0,138.46355051587582,56983740.70559762,19.94694334713028,7.71313637936947,25149.325547188542,92.10000000000001,34.91168242600583
1306893705.54,9.0337345,3.6376026,792.86,56.8,9.7,313.6,903556.38,-318033.5,-1.0,133.46456112792166,26057004.790095553,19.535117907551772,8.028519368170109,24835.52104385605,92.0,34.94060412329367
1306893705.75,9.033467,3.6377959,793.1,56.9,9.7,314.8,903531.0,-318015.16,-1.0,140.19309448002508,9525006.64292095,19.880486459909577,7.8439404875679335,24721.576104966385,91.6,34.96938802530592
1306893705.97,9.0332052,3.6379936,793.35,56.9,9.7,316.1,903506.0,-317996.25,-1.0,133.4378604459371,45730745.25235304,21.256688534753977,7.913274659195957,24770.367923037986,88.8,34.99806475321493
1306893706.19,9.0329363,3.6382061,793.6,57.0,9.7,317.5,903480.25,-317975.78,-1.0,140.32789569747356,80179394.0981808,20.62502146010349,8.095008025123418,25092.0466910878,90.30000000000001,35.02664196231379
1306893706.4,9.0326981,3.6384028,793.82,57.0,9.7,318.9,903457.25,-317956.69,-1.0,133.02327298437294,92285521.11483055,22.88536690789578,8.228075064007077,25634.12867439707,88.9,35.05509668672324
1306893706.63,9.0324374,3.638628,794.07,57.1,9.7,320.2,903431.94,-317934.72,-1.0,136.2826196611946,78526885.37496832,25.034536141061107,8.026475604943926,25699.324166087856,89.2,35.083474858201804
1306893706.84,9.032197,3.6388457,794.3,57.1,9.7,321.6,903408.44,-317913.34,-1.0,141.7238624803677,60638652.14811044,25.46596784834419,7.762384986798159,25503.211563509758,88.2,35.11176116616331
1306893707.05,9.031978,3.639053,794.51,57.1,9.7,322.8,903386.88,-317892.84,-1.0,131.99823722926746,40433269.48047305,25.800964145042183,7.838213386210516,25149.534030102943,86.80000000000003,35.13994795531467
1306893707.26,9.0317515,3.6392772,794.73,57.2,9.7,324.2,903364.44,-317870.59,-1.0,140.70366210114736,16761347.526549576,26.16724873920084,7.920196476999638,25382.05757672738,85.80000000000001,35.1417699150697
1306893707.48,9.031534,3.639503,794.95,57.2,9.7,325.6,903342.69,-317848.03,-1.0,132.5642363868305,16417306.29821889,25.13960565604255,7.767408957805538,24808.338051559054,87.60000000000001,35.14356890894546
1306893707.7,9.0313223,3.6397333,795.17,57.2,9.7,326.9,903321.44,-317824.91,-1.0,132.75482360356807,13848979.46903423,25.46918569505671,7.712978668258545,24437.036437647075,88.70000000000002,35.14533728164888
1306893707.91,9.0311175,3.6399671,795.38,57.2,9.7,328.2,903300.63,-317801.28,-1.0,139.8645308089729,11512312.034232426,23.826276741877127,7.755187135584542,24867.940633065038,89.7,35.14708268847303
1306893708.12,9.0309281,3.6401944,795.58,57.2,9.7,329.6,903281.25,-317778.25,-1.0,133.17039945736929,9790168.400187567,24.570753214392383,7.483268311746144,24672.136865547498,91.30000000000001,35.14878981883173
1306893708.34,9.0307358,3.6404368,795.8,57.3,9.7,330.9,903261.38,-317753.53,-1.0,133.9207589162316,9348209.605828576,23.741999732186514,7.2998382812363305,23986.037197133144,89.9,35.150473983311166
1306893708.56,9.0305426,3.6406937,796.02,57.3,9.7,332.3,903241.19,-317727.25,-1.0,140.31797089033964,8539005.504216319,22.273882746257424,7.304001823989018,24412.72594306007,89.3,35.15215814779061
1306893708.77,9.0303752,3.6409286,796.21,57.3,9.7,333.6,903223.5,-317703.06,-1.0,132.31245466579426,7994125.498767435,21.54807486108721,7.385800187874189,23986.61272287509,88.8,35.15379638051152
1306893708.99,9.0302055,3.64118,796.42,57.3,9.6,335.0,903205.38,-317677.09,-1.0,133.48108658488064,9050409.229792433,23.89725698842642,7.605332038043862,24139.354087428095,89.0,35.15541930264625
1306893709.21,9.0300444,3.6414329,796.62,57.3,9.6,336.3,903187.94,-317650.84,-1.0,132.7323332042991,11545852.634441247,25.485212480952548,7.637038611279045,24733.396796880384,89.70000000000002,35.1570345694879
1306893709.42,9.0298917,3.6416873,796.83,57.3,9.6,337.7,903171.19,-317624.34,-1.0,138.71061460858587,12043654.523676349,24.9511571296152,7.535396043657533,24418.67020657168,91.30000000000003,35.158642181036456
1306893709.63,9.0297489,3.6419404,797.03,57.3,9.6,339.1,903155.25,-317597.88,-1.0,136.4763194280249,14169557.339143667,25.388179753192773,7.604222599416207,24650.34435545515,88.7,35.160234481998835
1306893709.84,9.0296198,3.6421836,797.21,57.3,9.6,340.4,903140.69,-317572.34,-1.0,129.32780273975882,16778544.993302282,25.863094665371055,7.476835294921775,24946.472340521672,86.7,35.161796161788864
1306893710.06,9.0294867,3.6424518,797.42,57.3,9.6,341.7,903125.31,-317544.06,-1.0,135.626523345995,17755863.092462126,27.140556918790644,7.386583137399155,24573.418280399615,85.9,35.163357841578886
1306893710.27,9.0293675,3.6427099,797.62,57.3,9.6,343.0,903111.31,-317516.75,-1.0,135.4066695827556,18693004.304351076,25.938596241126504,7.583426474141079,24624.002269978115,83.5,35.164919521368915
1306893710.48,9.0292566,3.6429685,797.81,57.3,9.6,344.4,903098.0,-317489.28,-1.0,134.5971763333564,21306074.248005632,25.300417497585368,7.772183202203747,24934.07980272824,85.5,35.16645823527968
1306893710.69,9.0291535,3.6432287,798.0,57.3,9.6,345.6,903085.25,-317461.53,-1.0,134.647077577801,23539241.883930657,25.8164674287699,7.792293727853902,24815.14704617045,87.2,35.16797398331117
1306893710.9,9.0290591,3.6434879,798.19,57.3,9.6,347.0,903073.31,-317433.81,-1.0,132.93366536139737,25085128.922963914,26.108809263669055,7.822227792501861,25369.333193455623,87.4,35.169489731342665
1306893711.11,9.0289723,3.6437485,798.38,57.3,9.6,348.3,903061.94,-317405.84,-1.0,132.9767780093474,26661106.503252044,25.50659079535217,7.705887382674625,25598.50967715964,85.7,35.17099016878798
1306893711.32,9.0288941,3.6440077,798.57,57.3,9.6,349.7,903051.31,-317377.91,-1.0,131.5068210065494,30406817.402449746,24.723968433970995,7.5256122580749505,24944.665287464042,83.8,35.172482950940214
1306893711.54,9.0288206,3.6442793,798.77,57.3,9.6,351.0,903040.94,-317348.56,-1.0,130.6954597571252,32177857.874358222,26.15320152151174,7.6713353634759445,24973.56033140269,82.7,35.17396807779936
1306893711.76,9.0287525,3.6445646,798.97,57.3,9.6,352.4,903030.75,-317317.63,-1.0,137.23747689925585,34590820.80819266,25.297236495242615,7.4559777630714015,24948.156915062125,85.39999999999999,35.175453204658496
1306893711.97,9.0286968,3.6448343,799.17,57.3,9.6,353.7,903021.81,-317288.25,-1.0,135.46788335044772,36181258.14612111,24.430171640599166,7.587160881308596,24466.25609603831,88.5,35.17695364210382
1306893712.18,9.0286516,3.6450906,799.35,57.3,9.6,355.1,903014.0,-317260.25,-1.0,127.67473427527915,35898364.21821362,25.00381967532504,7.540510105325693,24801.934997748533,89.00000000000001,35.17843111366987
1306893712.39,9.0286114,3.6453641,799.54,57.3,9.6,356.3,903006.38,-317230.31,-1.0,136.39624591799193,38041533.70802842,26.151954215227523,7.5463881782065885,24735.057401771875,91.5,35.17990092994284
1306893712.61,9.0285786,3.6456481,799.74,57.3,9.6,357.7,902999.13,-317199.09,-1.0,134.99655407199842,36193668.52099894,27.953570585785407,7.516225734679952,25210.45291334119,90.2,35.181378401508894
1306893712.82,9.028556,3.6459158,799.93,57.3,9.6,359.1,902993.06,-317169.56,-1.0,132.91503810198017,37293543.51948467,29.191843344257364,7.310924967407785,24916.35627568085,91.5,35.18285587307495
1306893713.04,9.0285414,3.6461849,800.12,57.3,9.6,0.5,902987.56,-317139.78,-1.0,127.04996766653592,41377470.090016626,28.856449945789056,7.1820706246280785,24959.530615056017,92.4,35.184333344641004
1306893713.26,9.0285346,3.6464718,800.33,57.3,9.6,1.9,902982.5,-317107.94,-1.0,135.99682245060333,43735505.42881547,29.378850667471077,7.017202673675066,25159.863191514163,95.30000000000001,35.18582612679323
1306893713.47,9.0285365,3.6467445,800.52,57.2,9.6,3.1,902978.38,-317077.56,-1.0,135.50207008308365,43615319.73889822,30.303895051344334,7.031096086318757,25289.258779592565,96.8,35.187318908945464
1306893713.68,9.0285462,3.6470028,800.7,57.0,9.5,4.5,902975.13,-317048.72,-1.0,127.77846790260834,46908496.30159611,29.185689312503186,6.6714803925535655,24718.56774016241,98.4,35.18879638051152
1306893713.89,9.0285643,3.647276,800.89,56.2,9.3,5.7,902972.31,-317018.09,-1.0,136.11029480921405,49171666.44371406,28.479621690223137,6.684146703770978,24281.942308617803,99.00000000000001,35.190266196784485
1306893714.11,9.0285914,3.6475576,801.09,54.8,8.9,7.0,902970.13,-316986.44,-1.0,133.9172567166138,45674389.8056162,28.33288942294797,6.683081853076743,24819.100123531054,97.00000000000001,35.19173601305745
1306893714.32,9.0286243,3.6478233,801.27,52.8,8.4,8.2,902968.69,-316956.47,-1.0,132.66485575751918,47622127.70736319,27.747477969481523,6.696335611514657,24789.774394205375,96.00000000000001,35.19320582933042
1306893714.53,9.0286634,3.6480858,801.43,50.8,8.0,9.2,902967.81,-316926.81,-1.0,131.15489818338807,49731157.56857047,28.097799334946128,6.704519514166155,25171.25846915884,96.10000000000001,35.194652679724115
1306893714.75,9.0287108,3.6483601,801.59,48.6,7.6,10.2,902967.44,-316895.72,-1.0,131.2526744946197,49639624.08011734,27.233416548580646,6.55998722822528,25265.067573297354,97.50000000000001,35.19606890894547
1306893714.97,9.0287634,3.6486299,801.74,46.4,7.3,11.2,902967.56,-316865.06,-1.0,129.35507976135227,50774909.34156341,24.53011025617975,6.822584869500951,25316.25539008891,97.70000000000002,35.19745451699446
1306893715.18,9.0288211,3.6488976,801.87,44.2,7.0,12.1,902968.19,-316834.59,-1.0,135.18561592954572,57075946.1208247,24.985218058643355,6.910540878987338,24918.906564569774,95.20000000000002,35.198794193284925
1306893715.39,9.0288837,3.6491646,801.99,42.1,6.7,12.8,902969.19,-316804.13,-1.0,135.23888778589705,55442106.69519736,23.949659740934457,6.949954652751189,24969.05871857493,95.10000000000001,35.20006497193759
1306893715.61,9.0289513,3.649432,802.09,39.8,6.5,13.6,902970.63,-316773.59,-1.0,129.15412869978024,53039850.10444769,22.93273366513369,7.1426603442213565,25391.931383851745,94.4,35.20126685295246
1306893715.82,9.0290221,3.6496949,802.18,37.5,6.3,14.3,902972.38,-316743.47,-1.0,133.90085503821845,55441059.490513206,22.58108764291214,7.355815500926438,26367.449063346445,93.10000000000001,35.20239983632954
1306893716.03,9.0290968,3.6499571,802.27,35.5,6.2,14.8,902974.5,-316713.41,-1.0,133.78877709441093,51529300.47803406,24.087916012923024,7.664257839258154,26723.41808688332,89.70000000000002,35.20345626677574
1306893716.24,9.0291724,3.65021,802.34,33.3,6.0,15.4,902976.81,-316684.38,-1.0,129.01273866466278,50587586.81619925,24.25132438441174,7.622242462958193,26453.29087579392,91.4,35.20441317841178
1306893716.46,9.0292584,3.6504856,802.42,31.2,5.9,16.0,902979.69,-316652.69,-1.0,135.02981174508122,54372110.61243185,24.869720192899766,7.899014607342732,26078.2625698771,92.80000000000001,35.205293537116944
1306893716.67,9.029341,3.6507396,802.49,29.4,5.8,16.5,902982.56,-316623.44,-1.0,130.38527525447046,53724465.502158746,22.922123642021123,7.706244178418459,26233.993313320967,90.30000000000001,35.206104998184315
1306893716.9,9.0294347,3.6510175,802.56,27.3,5.8,17.0,902986.0,-316591.41,-1.0,130.54038916925836,54524486.01692512,22.799767036380686,7.889244104138226,26275.924067995365,87.2,35.20684756161388
1306893717.11,9.029524,3.651274,802.63,25.6,5.7,17.4,902989.38,-316561.81,-1.0,132.38160920248077,57647857.674437,25.429469883717758,7.806766400350529,26526.314978379407,84.49999999999999,35.207528882698746
1306893717.33,9.0296246,3.6515542,802.71,23.6,5.6,17.9,902993.38,-316529.44,-1.0,138.81406394050785,55377414.021304645,24.79195309022609,7.668977586385055,26621.441544181445,84.89999999999999,35.20817192731817
1306893717.54,9.029716,3.6518023,802.79,22.0,5.6,18.2,902997.13,-316500.75,-1.0,128.3859274259597,51367980.43099407,24.49296048747927,7.876024880879775,26421.785424824124,85.39999999999999,35.208784350765235
1306893717.75,9.0298144,3.6520632,802.88,20.5,5.6,18.5,903001.19,-316470.56,-1.0,135.6759133095802,54482978.20840459,24.02507832880813,7.947769181276904,26608.824581205386,85.7,35.20938911891922
1306893717.96,9.0299105,3.6523128,802.97,19.0,5.5,18.9,903005.25,-316441.66,-1.0,129.62785957979355,50650790.36687587,25.08849870593914,7.840404258740985,26402.671318216115,85.1,35.2099938870732
1306893718.17,9.0300092,3.6525643,803.07,17.6,5.5,19.1,903009.56,-316412.5,-1.0,131.06266263985262,50407534.860022135,23.88823290081195,7.839676439500611,26768.587556839913,87.5,35.21060631052027
1306893718.59,9.030215,3.6530758,803.31,15.0,5.5,19.6,903018.69,-316353.13,-1.0,133.74741141473814,54612656.7986567,25.949886829381388,7.674730056518361,27363.904493971644,86.0,35.21134887394984
1306893719.02,9.0304289,3.6535919,803.58,12.5,5.5,20.1,903028.38,-316293.16,-1.0,132.0481164205321,54016387.89219637,23.960307563984987,7.489648896725523,27734.326455511546,83.10000000000001,35.21223688794809
1306893719.44,9.0306416,3.6540936,803.87,10.3,5.5,20.4,903038.25,-316234.81,-1.0,131.71993362801607,54536929.18421877,24.401332756694575,7.714558702106412,27569.28799056889,86.1,35.213293318394285
1306893719.65,9.0307515,3.6543489,804.03,9.4,5.5,20.6,903043.38,-316205.13,-1.0,134.26613494164116,55574334.67264795,24.97399693923058,7.766456235713431,27397.463212780345,86.10000000000001,35.21441864647827
1306893719.88,9.0308679,3.654617,804.21,8.3,5.5,20.7,903048.88,-316173.88,-1.0,128.81831398181603,52987739.004719615,23.73658695628886,7.814299333792244,26988.513561029395,88.6,35.21562818278623
1306893720.09,9.0309799,3.654873,804.39,7.5,5.5,20.8,903054.19,-316144.06,-1.0,135.1010131834904,51080564.52283392,23.51800740332747,7.915895737364126,27196.131701141767,91.70000000000002,35.21691427202508
1306893720.3,9.0310926,3.6551288,804.57,6.6,5.5,21.0,903059.56,-316114.28,-1.0,134.9769082428339,50985300.796760954,24.564265947241203,7.6488845717792024,26686.0487369128,88.40000000000002,35.21827691419481
1306893720.51,9.0312011,3.6553737,804.75,5.8,5.5,21.0,903064.75,-316085.75,-1.0,128.98185236427324,47619524.858540386,26.383192379509808,7.462592524344746,26488.57122083173,89.70000000000002,35.21970845400233
1306893720.74,9.0313224,3.6556459,804.95,5.0,5.5,21.1,903070.56,-316054.03,-1.0,131.10783585999297,50054469.88988154,27.48218164185733,7.632338143600788,25807.092441571716,89.7,35.22122420203383
1306893720.95,9.0314388,3.655906,805.15,4.2,5.5,21.2,903076.19,-316023.69,-1.0,137.85142360955695,50029285.39976547,28.82604094013123,7.630115040558831,25706.34261536643,90.8,35.2228165029962
1306893721.16,9.0315498,3.6561529,805.34,3.6,5.5,21.3,903081.56,-315994.91,-1.0,130.33423932371386,47520963.064636655,27.89708891144521,7.703895929208498,25283.706183276696,93.0,35.224370527493136
1306893721.37,9.0316626,3.6564033,805.53,3.0,5.5,21.3,903087.06,-315965.72,-1.0,132.37620735128684,50889899.848543845,28.765694774416055,7.7379046931736495,25230.74229593213,92.50000000000001,35.225863309645376
1306893721.58,9.0317774,3.6566571,805.73,2.4,5.5,21.4,903092.63,-315936.09,-1.0,134.49260400465008,50880951.063295126,27.99234506257354,7.670072045366375,25002.810001594065,90.00000000000001,35.227287194159814
1306893721.79,9.0318869,3.656899,805.92,1.9,5.5,21.4,903097.94,-315907.88,-1.0,127.62608332914277,47620967.42324889,28.380134498976155,7.630716734835009,24656.912602782857,91.8,35.22873404455352
1306893722.01,9.0320042,3.6571575,806.13,1.3,5.5,21.4,903103.63,-315877.72,-1.0,130.44307170446186,52500633.15653082,27.734552055781986,7.417989371793194,25089.859910671003,90.5,35.23020386082648
1306893722.22,9.0321222,3.6574172,806.33,0.8,5.5,21.4,903109.38,-315847.44,-1.0,137.7014625085077,53114782.04454176,28.94783645915044,7.297458195561059,24478.613995076044,87.8,35.23168898768562
1306893722.44,9.0322397,3.6576757,806.54,0.3,5.5,21.4,903115.13,-315817.28,-1.0,130.5055115556239,48790945.607832946,27.624696466993203,7.520109300424373,24466.98731304494,90.80000000000001,35.23319708042403
1306893722.66,9.0323567,3.6579329,806.75,-0.1,5.5,21.4,903120.88,-315787.28,-1.0,129.79785351525953,51353892.33649191,27.547540434400936,7.397266816331106,24722.09310027034,89.7,35.2347281390417
1306893722.87,9.0324732,3.6581889,806.95,-0.5,5.5,21.4,903126.5,-315757.41,-1.0,135.65983922554025,51387667.56193363,26.809307750973765,7.283468544112463,24687.26430561544,92.5,35.23625919765937
1306893723.08,9.0325891,3.6584438,807.16,-0.9,5.5,21.4,903132.19,-315727.66,-1.0,135.17939635551548,44921508.30711039,26.767205053434978,7.144079572547139,24768.578954824545,89.2,35.237797911570134
1306893723.3,9.0327044,3.6586974,807.37,-1.3,5.5,21.4,903137.81,-315698.06,-1.0,127.8924614215083,46173914.39377768,24.98577735367437,7.32853767432108,24414.639390728575,88.20000000000002,35.239351936067074
1306893723.51,9.0328185,3.6589487,807.57,-1.6,5.5,21.4,903143.38,-315668.75,-1.0,133.00870547949856,49315077.97299099,24.336764246833802,7.485756384204148,24116.94203608319,88.60000000000002,35.2409136158571
1306893723.72,9.032932,3.6591988,807.77,-1.9,5.5,21.4,903148.88,-315639.59,-1.0,132.23726409694746,46469425.75631681,26.1135795356841,7.251920010167506,24173.08443414964,90.20000000000002,35.242475295647125
1306893723.93,9.0330458,3.6594502,807.98,-2.2,5.5,21.3,903154.44,-315610.25,-1.0,133.13726926918739,48850672.428995445,25.51271778378895,7.191902696029756,24107.242981258532,88.10000000000001,35.24405228602333
1306893724.14,9.033159,3.6597004,808.18,-2.5,5.5,21.3,903159.94,-315581.09,-1.0,132.23726409694746,51686750.62098082,26.984768080427507,7.472529534755507,24132.021142629732,88.60000000000001,35.245621621106444
1306893724.35,9.0332719,3.6599507,808.38,-2.7,5.5,21.3,903165.44,-315551.91,-1.0,132.33016816298962,48894541.38410887,25.51683807360688,7.759200306108155,24995.86190626087,88.30000000000001,35.24719095618956
1306893724.56,9.0333841,3.6601998,808.58,-3.0,5.5,21.2,903170.81,-315522.84,-1.0,131.6801647982501,48439616.91482999,25.620708304163067,7.886110726775211,25883.89156063974,87.2,35.248752635979585
1306893724.77,9.0334961,3.660449,808.78,-3.2,5.5,21.2,903176.25,-315493.78,-1.0,131.70871168397497,50216398.182225525,24.394673781622757,7.96217630565649,25329.219871084206,86.5,35.25030666047652
1306893724.98,9.0336067,3.6606959,808.98,-3.4,5.5,21.1,903181.63,-315465.0,-1.0,130.34534414034943,49549511.42151241,24.075738721833694,7.949042536122001,26155.508143458897,86.10000000000001,35.25186068497346
1306893725.19,9.033723,3.6609559,809.19,-3.6,5.5,21.1,903187.19,-315434.69,-1.0,137.63861436313138,49733359.81581357,22.68506349300428,8.030106153183219,26390.884256459147,88.9,35.25341470947039
1306893725.4,9.0338315,3.6611994,809.38,-3.8,5.5,21.0,903192.44,-315406.31,-1.0,128.34973875290865,49215364.304508336,23.7482453328648,7.751321540529487,27282.015552962206,87.4,35.25495342338116
1306893725.62,9.0339503,3.6614668,809.59,-3.9,5.5,21.0,903198.13,-315375.16,-1.0,134.82853147850238,50064062.16108467,25.163787187397517,7.520959285438886,27733.916672920688,87.50000000000001,35.25649979258501
1306893725.83,9.0340619,3.6617188,809.79,-4.1,5.5,20.9,903203.44,-315345.78,-1.0,133.05644925315244,48424278.763714,23.97855617855742,7.765859582155102,27423.22011348223,86.10000000000001,35.258046161788855
1306893726.05,9.0341773,3.6619804,810.0,-4.2,5.5,20.8,903208.94,-315315.31,-1.0,131.623284403996,46796573.37337793,22.598028511651975,7.6895569869959814,27130.27347532133,89.50000000000001,35.259592530992705
1306893726.26,9.0342846,3.6622242,810.19,-4.3,5.5,20.8,903214.06,-315286.91,-1.0,128.3048025204386,48650501.02834316,22.629535820742085,7.378307635428764,27179.22240557531,87.2,35.26113124490347
1306893726.47,9.0343967,3.6624801,810.39,-4.5,5.5,20.7,903219.38,-315257.09,-1.0,135.11177240420452,50951402.451518044,24.194071952649157,7.41767325784701,27018.3414705307,87.70000000000002,35.26266995881423
1306893726.68,9.0345079,3.6627349,810.59,-4.6,5.5,20.6,903224.63,-315227.44,-1.0,134.2494402349425,49481394.5074857,24.01291613395637,7.336722995920436,26446.69470756609,88.9,35.26420867272499
1306893726.91,9.034624,3.6630018,810.8,-4.7,5.5,20.6,903230.13,-315196.34,-1.0,128.1824431465995,50299575.89318543,23.762334403360335,7.4600095166926685,26753.596678605387,90.4,35.26575504192884
1306893727.12,9.0347334,3.6632544,811.0,-4.7,5.5,20.5,903235.25,-315166.94,-1.0,132.95433733080495,52342511.38831992,24.16051577400713,7.528229758532875,26115.077943954624,91.2,35.26730141113269
1306893727.33,9.034842,3.663506,811.2,-4.8,5.5,20.4,903240.38,-315137.66,-1.0,132.40603882950165,47558026.23019993,26.07113073933038,7.546901144029192,25395.20755325114,88.3,35.26884012504345
1306893727.54,9.0349501,3.6637576,811.4,-4.9,5.5,20.4,903245.44,-315108.38,-1.0,132.3351935856643,48449327.94221501,27.6544283976529,7.638809252870349,24449.158000482574,87.89999999999999,35.2703864942473
1306893727.75,9.0350578,3.6640094,811.59,-4.9,5.5,20.3,903250.44,-315079.09,-1.0,132.3213370700071,49130897.79047486,28.844678300651942,7.668294353942198,24487.103477518554,87.69999999999999,35.27191755286498
1306893727.97,9.0351703,3.6642733,811.8,-5.0,5.5,20.2,903255.69,-315048.41,-1.0,132.31186118394479,48009458.92427811,28.359130470914437,7.711849006286391,24450.096095790883,90.19999999999999,35.27345626677573
1306893728.18,9.0352772,3.6645253,812.0,-5.0,5.5,20.1,903260.63,-315019.09,-1.0,132.40195475488625,47428854.39809646,28.737299542596602,7.629820103021387,24414.623877850372,90.50000000000001,35.27498732539341
1306893728.41,9.0353939,3.6648014,812.21,-5.1,5.5,20.0,903266.0,-314986.97,-1.0,132.39780832507645,49782560.945676014,27.663847528316357,7.943354233377538,23739.00785980243,92.20000000000002,35.276533694597255
1306893728.62,9.0354994,3.6650525,812.41,-5.1,5.5,20.0,903270.81,-314957.78,-1.0,131.6692582629585,48987956.68519754,27.618457641673334,7.775446130033036,23621.850438833328,90.8,35.278080063801106
1306893728.83,9.0356101,3.6653169,812.61,-5.1,5.5,19.9,903275.88,-314927.06,-1.0,139.05442481984684,48941141.13185478,27.053607060699594,7.863797733037956,24236.852928058885,88.0,35.27962643300495
1306893729.04,9.0357149,3.6655682,812.81,-5.1,5.5,19.8,903280.69,-314897.84,-1.0,131.80896979943236,48026987.50325637,27.652440726485896,7.899193232283675,23949.203575684736,84.90000000000002,35.28116514691571
1306893729.25,9.0358197,3.6658208,813.01,-5.1,5.5,19.7,903285.44,-314868.5,-1.0,132.3110187059202,48207937.1702593,26.288005996798212,8.008500628390141,23800.861274867413,84.50000000000003,35.28270386082648
1306893729.46,9.0359216,3.6660675,813.2,-5.1,5.5,19.7,903290.06,-314839.81,-1.0,129.1542531432186,48466703.59164969,26.061677936396,7.7851330360689115,24055.653869434365,86.10000000000001,35.28423491944415
1306893729.67,9.0360281,3.6663264,813.4,-5.1,5.5,19.6,903294.88,-314809.75,-1.0,135.73729480062016,49641215.561990894,24.536534176163666,7.743834091072573,24957.859753745655,88.20000000000002,35.285765978061825
1306893729.88,9.0361316,3.6665794,813.6,-5.1,5.5,19.5,903299.5,-314780.38,-1.0,132.32856109480656,50760743.82712816,23.035658460382084,7.670209830776134,24594.55943835318,88.70000000000002,35.28730469197258
1306893730.09,9.0362343,3.6668313,813.79,-5.1,5.5,19.4,903304.06,-314751.13,-1.0,131.71224731089893,53208456.38083589,23.779595728986656,7.388238077605515,24658.18837346322,88.00000000000001,35.28882809529717
1306893730.3,9.036336,3.667082,813.99,-5.1,5.5,19.4,903308.63,-314722.03,-1.0,131.02114465229994,52940824.659517154,24.3923981678862,7.332540880175957,25389.81590021676,84.60000000000001,35.29035149862175
1306893730.51,9.0364379,3.6673341,814.19,-5.1,5.5,19.3,903313.13,-314692.75,-1.0,131.79741348727313,51994792.23540217,25.351466691908776,7.282407957548861,25625.36981629274,84.60000000000001,35.291867246653254
1306893730.72,9.0365393,3.6675863,814.38,-5.1,5.5,19.2,903317.63,-314663.5,-1.0,131.6568839945163,52498441.48734452,23.064071793940162,7.2770712689242085,25163.820845611106,85.9,35.29337533939166
1306893730.93,9.0366408,3.6678399,814.58,-5.0,5.5,19.1,903322.13,-314634.09,-1.0,132.4049850464507,51348011.83784356,24.247917753256758,7.285183080694898,24860.87927663739,87.30000000000001,35.29488343213007
1306893731.14,9.0367438,3.6680983,814.78,-5.0,5.5,19.1,903326.63,-314604.09,-1.0,135.1637341054557,51302788.55013954,23.308611171170313,7.135782004504254,24953.8731470866,90.9,35.296391524868476
1306893731.35,9.036845,3.6683533,814.98,-5.0,5.5,19.0,903331.06,-314574.53,-1.0,133.0433661911383,49445316.9905965,25.384051294846948,6.90454834187682,25828.963382947084,89.10000000000001,35.29789961760689
1306893731.56,9.0369414,3.6685975,815.17,-4.9,5.5,18.9,903335.25,-314546.22,-1.0,126.9819205996474,49894934.056835614,23.314352088249823,7.082562254630362,25901.16321479566,89.5,35.299407710345285
1306893731.77,9.0370422,3.6688538,815.37,-4.9,5.5,18.8,903339.63,-314516.5,-1.0,133.74740374625762,50202120.79496727,24.78545449970207,7.036825554876889,25136.55436597389,87.3,35.3009158030837
1306893731.98,9.0371426,3.6691103,815.57,-4.9,5.5,18.8,903343.94,-314486.75,-1.0,133.82663196198396,49348008.75742258,23.860485290435783,7.189695073544061,25479.717084468262,87.1,35.3024238958221
1306893732.19,9.0372431,3.6693681,815.77,-4.8,5.5,18.7,903348.25,-314456.88,-1.0,134.38851164173096,50177726.234824955,23.253095732153277,7.33633598353514,25976.06409454269,87.1,35.3039396438536
1306893732.4,9.0373422,3.6696236,815.96,-4.8,5.5,18.6,903352.5,-314427.28,-1.0,133.07200293077452,51235064.75583803,23.18553506791575,7.57590702513488,25510.09626291464,88.4,35.30544773659201
1306893732.61,9.0374368,3.6698682,816.15,-4.7,5.5,18.6,903356.5,-314398.94,-1.0,126.95594406081612,49287878.036214754,21.07407597934603,7.438461729113169,25506.87216183712,87.4,35.30694817403733
1306893732.82,9.0375347,3.6701227,816.35,-4.7,5.5,18.5,903360.69,-314369.47,-1.0,132.41189157000318,50317772.88703914,22.194606895551836,7.465713437916568,26021.114852016457,87.9,35.308456266775735
1306893733.03,9.0376327,3.6703784,816.55,-4.6,5.5,18.4,903364.81,-314339.84,-1.0,133.10218028229855,51525904.53067892,22.165346197030768,7.2744943046584565,25963.741789319458,86.8,35.30996435951414
1306893733.24,9.0377303,3.6706343,816.75,-4.6,5.5,18.3,903368.94,-314310.22,-1.0,133.06372551041883,51444350.83040986,23.317943882217573,7.487889461359938,25704.2155357707,85.4,35.31147245225255
1306893733.45,9.037828,3.6708914,816.94,-4.5,5.5,18.3,903373.0,-314280.44,-1.0,133.75510042321605,51919201.897039786,22.488475845407528,7.605033439701023,25505.713822421014,84.30000000000001,35.312972889697875
1306893733.66,9.0379225,3.6711414,817.14,-4.5,5.5,18.2,903376.94,-314251.5,-1.0,129.71712427135122,51497081.23648327,22.683898713462728,7.509260267937407,25773.7378350413,83.50000000000001,35.31448098243628
1306893733.87,9.0380222,3.671406,817.34,-4.4,5.5,18.1,903381.13,-314220.88,-1.0,137.8022643787072,49870218.605349496,22.0623549352978,7.536971658331951,26213.912499093407,86.0,35.315989075174684
1306893734.08,9.0381165,3.6716574,817.54,-4.4,5.5,18.1,903385.0,-314191.78,-1.0,130.4099748598422,47577768.76905605,23.464687054372398,7.396830144658634,26039.309687199315,86.7,35.317497167913096
1306893734.29,9.0382105,3.6719088,817.73,-4.3,5.5,18.0,903388.88,-314162.69,-1.0,130.37087382721776,48448911.1863251,23.69457186691976,7.432922763492669,25901.633127002326,87.30000000000001,35.31899760535841
1306893734.51,9.0383127,3.6721835,817.94,-4.3,5.5,17.9,903393.06,-314130.91,-1.0,136.30474272920827,50037288.160924174,23.232568385975537,7.325469049933266,25961.451739856886,88.4,35.320513353389906
1306893734.72,9.0384055,3.6724339,818.13,-4.2,5.5,17.9,903396.88,-314101.97,-1.0,129.61829956220737,50187887.76632341,23.712780543152753,7.450077884224885,25446.90814036512,88.4,35.32202910142141
1306893734.93,9.0385015,3.6726941,818.34,-4.2,5.5,17.8,903400.75,-314071.88,-1.0,135.05744972864653,52469789.55907951,23.76551641237255,7.616736491639392,25381.589517556546,88.4,35.32355250474599
1306893735.14,9.038595,3.6729483,818.53,-4.1,5.5,17.8,903404.56,-314042.47,-1.0,131.8162713553331,52439704.78081735,23.01026005063278,7.554680573095654,25475.889665666007,89.80000000000001,35.325068252777484
1306893735.35,9.0386868,3.6731989,818.72,-4.0,5.5,17.7,903408.25,-314013.5,-1.0,129.65541128771247,50904063.29853837,21.86473937463025,7.4815689335438424,25633.272728571745,89.9,35.326576345515896
1306893735.56,9.0387797,3.6734533,818.92,-4.0,5.5,17.6,903412.0,-313984.09,-1.0,131.76919132248096,52323450.2365531,22.12787169786654,7.424102687153948,24988.001925796845,92.10000000000001,35.32809209354739
1306893735.78,9.0388797,3.6737284,819.13,-3.9,5.5,17.6,903416.0,-313952.28,-1.0,136.30440453671088,53988156.448907025,21.914090596137623,7.337175063341169,24824.931600448228,93.70000000000002,35.32961549687197
1306893735.99,9.0389692,3.6739756,819.32,-3.9,5.5,17.5,903419.56,-313923.72,-1.0,127.62775094027799,50108154.768857434,21.381115680488087,7.3134508593772365,25076.28938930126,91.40000000000002,35.331131244903474
1306893736.21,9.0390664,3.6742448,819.53,-3.8,5.5,17.5,903423.44,-313892.59,-1.0,133.16605272374994,53643854.92499857,20.60645859467198,7.435264882854699,25113.55421057142,92.30000000000003,35.33265464822805
1306893736.44,9.0391667,3.6745239,819.74,-3.7,5.5,17.4,903427.38,-313860.34,-1.0,131.81864032032755,52608630.78866802,22.243468473047717,7.2791411289960815,25001.86375708775,90.20000000000002,35.33419336213882
1306893736.66,9.0392632,3.6747933,819.95,-3.7,5.5,17.3,903431.19,-313829.25,-1.0,132.9355409210813,49910756.13504626,21.823936916613448,7.2284314468308635,24705.924560879932,90.2,35.335732076049574
1306893736.87,9.0393567,3.6750554,820.15,-3.6,5.5,17.3,903434.88,-313798.97,-1.0,135.81170549123667,52233706.03415243,24.062617065080147,7.363180753187283,25388.291058124996,92.6,35.337278445253425
1306893737.08,9.0394451,3.6753042,820.34,-3.6,5.5,17.2,903438.31,-313770.22,-1.0,128.42159973936967,49446995.96438972,24.254216370469535,7.010180736548665,24820.713556530416,93.30000000000001,35.3388095038711
1306893737.3,9.0395424,3.6755787,820.55,-3.5,5.5,17.2,903442.13,-313738.53,-1.0,135.63567898445646,49880756.648172334,25.166034446917536,7.034085032410848,24250.066863599124,94.3,35.34035587307495
1306893737.51,9.0396307,3.6758288,820.75,-3.4,5.5,17.1,903445.5,-313709.66,-1.0,128.94182465290694,49971429.5982597,24.863327327667093,7.077824026413307,24613.593305409977,95.20000000000002,35.34190989757188
1306893737.72,9.0397205,3.6760839,820.94,-3.4,5.5,17.1,903449.0,-313680.19,-1.0,131.85999785614584,51707328.68894672,25.281083666921976,6.937865120278878,25430.4332572019,96.4,35.34345626677573
1306893737.93,9.0398134,3.6763488,821.15,-3.3,5.5,17.0,903452.56,-313649.63,-1.0,137.03318017891178,51932227.52874044,26.587094430071527,7.054875305787494,25658.79765039437,94.9,35.34500263597958
1306893738.14,9.0399014,3.6766003,821.34,-3.3,5.5,17.0,903455.94,-313620.59,-1.0,129.74864719172743,51644368.40116182,27.816881608451183,7.114987150396364,24991.2445424182,96.90000000000003,35.346549005183434
1306893738.35,9.0399895,3.6768532,821.53,-3.2,5.5,16.9,903459.31,-313591.41,-1.0,130.4002727621797,52054275.78290576,29.613827971312855,7.061127625829799,25222.99382892546,96.20000000000002,35.348080063801106
1306893738.57,9.0400846,3.6771268,821.74,-3.2,5.5,16.9,903462.88,-313559.81,-1.0,135.05787972731508,52803271.33625774,28.446292711209807,7.365981529932536,25175.83022250029,96.80000000000001,35.34961112241878
1306893738.78,9.0401718,3.6773786,821.94,-3.1,5.5,16.8,903466.19,-313530.78,-1.0,129.65104139098537,49878084.77058696,28.139829632116086,7.651078865456973,25604.456511370816,97.4,35.35113452574336
1306893739.0,9.0402655,3.6776499,822.14,-3.0,5.5,16.8,903469.75,-313499.47,-1.0,133.74741432186812,51467472.168454416,26.197678003846264,7.337220444218211,25767.67901763424,97.0,35.352657929067945
1306893739.22,9.0403581,3.6779188,822.35,-3.0,5.5,16.7,903473.19,-313468.44,-1.0,132.40810007417005,53406714.636682525,24.669076436843085,7.540097258224709,26640.66224189005,97.9,35.35419664297871
1306893739.44,9.0404509,3.6781891,822.56,-2.9,5.5,16.7,903476.69,-313437.28,-1.0,133.03285199733696,50361678.96555196,24.14778025528984,7.7735155647981475,26924.802543723694,95.60000000000001,35.35573535688947
1306893739.86,9.0406277,3.6787065,822.95,-2.8,5.5,16.6,903483.25,-313377.59,-1.0,133.46740342499447,52049085.209955595,24.308868874731004,7.457601488032676,26378.047929778906,95.60000000000002,35.35741952136891
1306893740.08,9.0407181,3.678972,823.16,-2.8,5.5,16.6,903486.63,-313347.0,-1.0,130.38980043127725,52060861.40657034,25.20364942975809,7.537840457473889,25677.343877225823,95.10000000000002,35.35911899643452
1306893740.29,9.0408049,3.6792277,823.35,-2.7,5.5,16.5,903489.81,-313317.5,-1.0,131.77261570437068,50606598.83484056,24.22294323235327,7.747919457372459,25234.673777207558,95.70000000000002,35.36080316091397
1306893740.5,9.0408931,3.6794884,823.55,-2.7,5.5,16.5,903493.06,-313287.44,-1.0,134.45975048647725,52628745.74949288,22.419663897502563,7.93825385277567,26017.009971775125,95.10000000000001,35.3624949806865
1306893740.71,9.0409812,3.6797492,823.75,-2.6,5.5,16.4,903496.31,-313257.38,-1.0,134.45975048647725,52823351.297310434,20.706373725055098,7.953280267022602,25114.43804704004,95.69999999999999,35.36419445575211
1306893741.13,9.0411521,3.6802574,824.14,-2.5,5.5,16.4,903502.56,-313198.81,-1.0,130.72196805059878,51525868.31179577,19.966134154528643,7.843420202715205,25348.486699724515,93.69999999999999,35.36603172609332
1306893741.34,9.0412395,3.6805182,824.34,-2.5,5.5,16.3,903505.69,-313168.75,-1.0,134.37887919561797,52018172.231319435,20.809253126594516,7.537861831964779,24935.30792080777,90.89999999999999,35.36786899643453
1306893741.56,9.0413276,3.6807816,824.54,-2.4,5.5,16.3,903508.88,-313138.38,-1.0,129.27496835486707,48774076.65098371,22.930583179954954,7.755486833752412,25049.29392111437,89.8,35.36970626677574
1306893741.99,9.0415031,3.6813085,824.95,-2.3,5.5,16.2,903515.25,-313077.66,-1.0,132.45162524174438,49781606.88741034,24.826767774173145,7.612575779114849,24413.89179076598,89.10000000000001,35.37169664297871
1306893742.2,9.0415902,3.6815708,825.15,-2.3,5.5,16.2,903518.38,-313047.44,-1.0,135.13316900235932,50845639.05430122,25.449389376440013,7.516669037845448,24474.728674648468,90.5,35.3736793638886
1306893742.41,9.041677,3.6818331,825.35,-2.2,5.5,16.2,903521.44,-313017.22,-1.0,135.0872566589842,49959098.71480726,25.96862132244449,7.543462639281968,24562.638537538696,88.3,35.375516634229804
1306893742.62,9.0417597,3.6820832,825.54,-2.2,5.5,16.1,903524.38,-312988.41,-1.0,128.35829491387372,51251222.548113346,25.278667842710092,7.826974568835697,24450.899228382106,87.80000000000001,35.37733859398483
1306893742.83,9.0418446,3.6823407,825.74,-2.1,5.5,16.1,903527.44,-312958.75,-1.0,132.4461287100666,54162214.311676316,24.95143822840349,7.525816949674267,24973.306393398692,87.70000000000002,35.379168209032954
1306893743.26,9.0420172,3.6828656,826.14,-2.1,5.5,16.0,903533.56,-312898.31,-1.0,131.7256938179896,52916812.280373625,25.30314334989859,7.228815989012484,24462.089653655046,86.80000000000001,35.38115092994284
1306893743.47,9.0421016,3.6831232,826.34,-2.0,5.5,16.0,903536.5,-312868.63,-1.0,132.46213144695906,53658040.51525272,26.62325744590659,7.236358191108144,24416.56255641562,87.60000000000002,35.38313365085273
1306893743.91,9.0422796,3.6836679,826.75,-1.9,5.5,15.9,903542.75,-312805.91,-1.0,133.69060349705924,55672726.436257266,27.394526023843426,7.1419266522249,23781.37433562036,88.50000000000003,35.38513168234879
1306893744.35,9.0424542,3.6842042,827.16,-1.9,5.5,15.9,903548.88,-312744.16,-1.0,131.46956153850795,53099245.75899952,26.33359922277419,7.281982925360581,23852.92113360762,91.30000000000001,35.38729047499971
1306893744.57,9.0425411,3.6844717,827.37,-1.8,5.5,15.9,903551.88,-312713.38,-1.0,131.0020187896533,52014272.42925197,23.872301486861772,7.384793273645536,22975.717483762597,92.0,35.389456922943715
1306893744.78,9.0426266,3.6847356,827.57,-1.8,5.5,15.8,903554.88,-312682.97,-1.0,135.94512433500574,52045473.36168802,23.358174812069898,7.455023904447225,22833.942731173767,91.39999999999999,35.39146260973286
1306893745.0,9.0427124,3.6850008,827.77,-1.7,5.5,15.8,903557.81,-312652.47,-1.0,129.69797454037476,49206489.95215061,21.454984846279515,7.212301973955977,23256.096119659822,89.6,35.393468296522016
1306893745.42,9.0428785,3.6855152,828.16,-1.7,5.5,15.7,903563.56,-312593.25,-1.0,132.09018394988286,49490607.1459267,20.477976151872966,7.229082188045472,23084.764432297194,88.69999999999999,35.395619433879844
1306893745.63,9.0429623,3.6857756,828.36,-1.6,5.5,15.7,903566.44,-312563.28,-1.0,133.79269681998727,51679900.09153254,20.513129299981834,7.1154861546340085,23767.780301643103,86.1,35.39777822653077
1306893745.84,9.0430456,3.6860347,828.56,-1.6,5.5,15.7,903569.31,-312533.47,-1.0,133.03133532448513,50849601.54138627,20.526051993592453,7.20772905964517,23710.625201285817,85.60000000000001,35.39993701918168
1306893746.28,9.0432193,3.6865764,828.98,-1.5,5.5,15.6,903575.25,-312471.13,-1.0,132.74109288046236,52444771.984639354,21.875006630143442,7.235043619413954,23629.27090483467,86.40000000000002,35.40211112241878
1306893746.72,9.0433917,3.6871157,829.39,-1.5,5.5,15.6,903581.06,-312409.06,-1.0,132.0940933087331,53383289.87810489,21.207424991148173,7.177238934630778,23697.95576558173,83.70000000000002,35.40444598681073
1306893746.94,9.0434776,3.6873848,829.59,-1.4,5.5,15.6,903584.0,-312378.09,-1.0,131.82167837803968,52367849.74646597,21.079186366042375,7.085075690322356,24375.904696006273,86.6,35.406620090047824
1306893747.38,9.0436501,3.6879267,830.01,-1.4,5.5,15.5,903589.81,-312315.75,-1.0,132.70275055253688,53095290.481008954,21.275393864418266,7.015518006710784,24441.982327550846,85.6,35.40880184857801
1306893747.6,9.0437368,3.6881995,830.23,-1.3,5.5,15.5,903592.75,-312284.34,-1.0,133.80552187442342,54059001.94909544,21.203370149412184,6.863936775890271,24707.54663356007,84.00000000000001,35.41099126240128
1306893748.46,9.0440717,3.6892566,831.06,-1.2,5.5,15.4,903604.0,-312162.75,-1.0,132.39139210899376,52136976.5514258,21.33924542043439,6.892478922289166,25483.01296868022,83.2,35.41366295968912
1306893748.89,9.0442382,3.6897841,831.47,-1.2,5.5,15.4,903609.56,-312102.09,-1.0,132.0606361516065,52605121.84126415,21.29441243375332,7.087031719251668,25555.592603188372,83.3,35.41649541813182
1306893749.33,9.0444078,3.6903227,831.89,-1.1,5.5,15.4,903615.19,-312040.16,-1.0,131.72644880996432,52369681.91237033,22.62552708426754,7.39530022028349,25472.463645590255,83.3,35.419350842453774
1306893750.2,9.044743,3.6913901,832.72,-1.0,5.5,15.4,903626.31,-311917.38,-1.0,132.09803057034438,51556031.19531915,20.400933673283326,7.353934092395189,24980.411487677655,86.0,35.4226885502403
1306893751.06,9.0450767,3.6924566,833.53,-1.0,5.5,15.2,903637.31,-311794.75,-1.0,133.554090955736,51628287.21325639,22.59452669321248,7.235131069604512,24555.31973832986,86.50000000000001,35.426493230905216
1306893752.34,9.0455647,3.6940229,834.73,-0.8,5.5,15.2,903653.25,-311614.66,-1.0,131.62913092721007,51922966.83032472,21.595986532845682,7.273865887395132,24760.213747314767,85.80000000000001,35.430895024431024
1306893754.48,9.0463843,3.6966679,836.74,-0.8,5.5,15.0,903679.81,-311310.59,-1.0,133.0067874535902,52225019.36485667,21.737772941636223,7.274590895955287,25170.008379166604,88.10000000000002,35.43652166485097
1306893755.34,9.0467089,3.6977192,837.54,-0.6,5.5,15.0,903690.31,-311189.78,-1.0,131.38215463750072,52516251.0430516,20.82448390467435,7.3296460247614394,25132.193466110144,86.50000000000001,35.44260762285622
1306893756.61,9.0471889,3.6992778,838.73,-0.6,5.5,14.9,903705.69,-311010.63,-1.0,131.95199690735697,52776471.7169006,21.448697016397908,7.258099898286773,25083.171927502768,85.7,35.44928303842928
1306893759.55,9.0483014,3.7029015,841.49,-0.6,5.5,14.8,903741.25,-310594.19,-1.0,132.52917322923716,52730248.20967996,23.166285678298266,7.34368069269443,24983.853927651387,87.6,35.457902898446775
1306893759.98,9.0484643,3.7034334,841.9,-0.4,5.5,14.8,903746.38,-310533.06,-1.0,133.0223278139881,52822693.209680185,22.367368207101624,7.2855789768156525,24372.48840847363,87.60000000000001,35.46620123615456
1306893760.83,9.0487843,3.7044789,842.7,-0.4,5.5,14.8,903756.56,-310412.94,-1.0,132.1887137963078,52818776.153675966,22.98366889967549,7.2135215155179395,24107.04916536344,88.8,35.4747981302928
1306893762.95,9.0495817,3.7070887,844.69,-0.4,5.5,14.7,903781.81,-310113.06,-1.0,132.31497789698446,52832421.84270851,23.36248250081148,7.202622312653943,24787.67351180604,89.5,35.4845969054459
1306893764.21,9.0500544,3.7086383,845.87,-0.3,5.5,14.7,903796.75,-309935.03,-1.0,132.15058761566536,52729044.06430557,23.96908063232698,7.314498048051277,25120.188355619204,88.5,35.49466361585709
1306893767.18,9.0511707,3.7123032,848.66,-0.3,5.5,14.6,903831.88,-309513.94,-1.0,132.63121539844104,52609241.3559947,22.16285277158989,7.507870309326234,25394.406861730768,88.50000000000001,35.506246074299796
1306893768.86,9.0517992,3.7143694,850.24,-0.3,5.5,14.6,903851.63,-309276.56,-1.0,132.14256388534872,52665304.68758129,22.365902871119957,7.743458071154068,25056.35994240864,90.40000000000002,35.518119433879846
1306893774.35,9.0538557,3.7211364,855.39,-0.3,5.5,14.6,903916.06,-308499.13,-1.0,132.4487419149989,52700475.9797327,23.272341283527034,7.932520235573139,25120.36410795776,89.40000000000002,35.53239655548965
1306893780.53,9.0561682,3.7287505,861.19,-0.3,5.5,14.6,903988.44,-307624.41,-1.0,132.37847644512354,52775231.53604899,24.773887390340878,7.9449139076245485,25051.831675579037,89.3,35.55050132364363
1306893785.18,9.0579074,3.7344789,865.56,-0.3,5.5,14.3,904042.75,-306966.31,-1.0,132.361196373179,52789789.453833185,25.14192971779762,8.093147064384507,24941.01480188731,90.5,35.571040474999705
1306893791.96,9.0604449,3.7428341,871.93,-0.3,5.5,14.2,904122.0,-306006.44,-1.0,132.4088202695444,52790831.53634468,23.03245683785273,7.927358898640298,25196.192158554797,90.9,35.59434318716069
1306893800.47,9.0636348,3.7533277,879.93,-0.3,5.5,14.2,904221.69,-304800.88,-1.0,132.50139170476186,52700090.370017484,23.599606415928037,7.846049283569104,25734.07855117614,92.0,35.62345626677573
1306893805.59,9.0655534,3.7596344,884.73,-0.3,5.5,14.0,904281.63,-304076.28,-1.0,132.36099531107197,52678537.294895455,24.678560212217647,7.876268570683425,25983.062735290325,90.60000000000002,35.65563146362613
1306893806.87,9.0660329,3.7612094,885.94,-0.3,5.5,14.0,904296.63,-303895.31,-1.0,132.22278918851777,52642840.55936727,24.60645320869157,7.669363714005132,25760.581418768183,93.00000000000003,35.68720954761563
1306893816.26,9.0695601,3.7727799,894.76,-0.3,5.5,14.0,904407.13,-302565.91,-1.0,132.4205108773174,52602825.17754552,25.96390137294818,7.446039424335511,25645.318570362047,92.20000000000002,35.724636275524645
1306893817.53,9.07004,3.774351,896.19,-0.3,7.2,14.0,904422.19,-302385.34,-1.0,133.03335340864805,52559063.53841312,27.025983990020755,7.426411041000107,25310.18301308766,93.00000000000001,35.76102188357363
1306893818.38,9.0703583,3.7753915,898.64,-0.3,7.7,14.0,904432.19,-302265.81,-1.0,131.50247737569217,52515404.59788675,27.68486441396676,7.453778152508134,25147.883287251818,92.00000000000001,35.79807350212131
1306893818.81,9.070519,3.775916,900.5,-0.3,8.7,14.0,904437.25,-302205.53,-1.0,131.10829914857212,52583672.08647687,26.180004066206912,7.329644789394307,25467.52361404086,94.40000000000002,35.83260652924292
1306893819.23,9.0706783,3.776435,902.85,-0.3,8.4,14.0,904442.31,-302145.88,-1.0,133.01265633263515,52668707.74324284,26.762188176499457,7.234935536163002,25739.554015300637,92.60000000000001,35.86449848024905
1306893819.66,9.0708425,3.7769683,905.58,-0.3,8.8,14.0,904447.5,-302084.59,-1.0,133.55596525144293,52371397.31163998,26.99358305369954,7.098098779662823,26463.378613381992,90.80000000000001,35.89513496318868
1306893820.08,9.070999,3.7774755,908.51,-0.3,9.3,14.0,904452.5,-302026.28,-1.0,129.8980716818818,52033845.41353052,28.81704053314438,7.056407201564064,26298.619608045596,87.70000000000002,35.92313802530592
1306893820.5,9.0711585,3.7779908,911.84,-0.3,8.9,14.0,904457.63,-301967.06,-1.0,132.1368454176331,52250685.97718557,28.19656063738041,7.308856623864878,26219.476921770838,88.4,35.94756606555089
1306893820.92,9.07132,3.7785107,915.39,-0.3,9.4,14.0,904462.88,-301907.28,-1.0,133.52483748210298,51821573.82408834,26.550846606973845,7.448907662098559,25480.446188143982,88.9,35.97103719415981
1306893821.34,9.0714776,3.7790157,919.07,-0.3,9.6,14.0,904467.94,-301849.22,-1.0,129.4342458927882,51511179.8407092,25.227956530554117,7.4540949420523175,25232.6325799079,87.1,35.99639918016156
1306893821.76,9.0716376,3.7795266,923.01,-0.3,9.2,14.0,904473.19,-301790.47,-1.0,131.15949587032586,52342405.50971163,24.895452104280096,7.7171929527758465,25138.37187775751,87.69999999999999,36.018025383136184
1306893822.19,9.0718052,3.7800592,927.28,-0.3,10.5,14.0,904478.69,-301729.19,-1.0,133.83886837338162,52100640.58505186,26.033772484712543,7.758192378647664,25279.586306649988,88.8,36.04182568934791
1306893822.61,9.0719676,3.780573,931.78,-0.3,10.6,14.0,904484.06,-301670.09,-1.0,132.12147715658148,51311934.92741644,26.538640461119755,7.729190779618106,25960.274795914447,87.8,36.06719533064275
1306893823.04,9.072132,3.7810901,936.61,-0.3,10.8,13.7,904489.56,-301610.59,-1.0,129.85059384006365,51658696.62100668,26.157486424345635,7.928223371397114,25603.46305482228,84.10000000000001,36.09483859398483
1306893823.47,9.0722998,3.7816149,942.02,-0.3,14.2,13.7,904495.25,-301550.22,-1.0,132.02811591117904,51484972.981904715,26.483682924276373,8.094334587453748,24788.304198219907,85.9,36.12482437701196
