timestamp,longitude,latitude,altitude,roll,pitch,yaw,u,v,heading,air_speed,engine_0,engine_1,temperature_in,humidity_in,pressure_in,heart_rate,oxygen_mask
1306893678.0,2.0169883,6.5769419,-1.0,-1.0,-1.6,-1.0,298805.19,-49903.43,-1.0,44.77293848531802,155086928.48592553,155086928.48592553,30.364307685280078,7.782104535897324,26453.847471168683,87.2,26.924583296146764
1306893680.79,2.015972,6.5761777,-1.0,-1.0,-1.7,-1.0,298729.75,-49993.29,-1.0,44.77293848531802,116351680.37004057,116351680.37004057,30.30613731460298,7.894849826863017,26406.52218533178,85.10000000000001,26.90503167759908
1306893682.29,2.0153206,6.5756879,-1.0,-1.0,-1.8,-1.0,298681.38,-50050.89,-1.0,52.82824123713588,77602111.76537506,77602111.76537506,28.15347636937254,7.7789479579605345,26598.81798394867,87.0,26.885495369637578
1306893683.8,2.0145922,6.5751401,-1.0,-1.0,-1.9,-1.0,298627.28,-50115.3,-1.0,58.37142723971263,38881422.095592305,38881422.095592305,29.024443871374007,7.840286608730904,25852.597239045466,85.19999999999999,26.865982027555336
1306893685.94,2.0134344,6.5742694,-1.0,-1.0,-1.7,-1.0,298541.31,-50217.68,-1.0,65.11920283911851,1626948.714233633,1626948.714233633,31.212600202038324,7.748465266313448,25399.290613227502,86.0,26.846491651352363
1306893686.15,2.0133108,6.5741765,24.42,-1.0,0.4,-1.0,298532.13,-50228.61,-1.0,140.1343513545488,1626948.7142336327,1626948.7142336327,31.21260020203832,7.748465266313449,25399.290613227502,86.0,26.846491651352363
1306893686.36,2.0131893,6.5740851,24.46,-1.0,2.3,-1.0,298523.09,-50239.36,-1.0,69.52018664177447,38881422.09559228,38881422.09559228,29.024443871374,7.840286608730905,25852.597239045463,85.20000000000002,26.865982027555336
1306893686.57,2.0130615,6.573989,24.49,-1.0,3.6,-1.0,298513.63,-50250.65,-1.0,72.77652915536058,77602111.76537506,77602111.76537506,28.153476369372537,7.778947957960535,26598.817983948673,87.00000000000001,26.885495369637574
1306893686.78,2.0129365,6.573895,24.52,-1.0,4.8,-1.0,298504.34,-50261.71,-1.0,71.41459459756477,116351680.37004055,116351680.37004055,30.306137314602974,7.894849826863018,26406.52218533178,85.1,26.905031677599077
1306893686.99,2.0128107,6.5738004,24.54,-1.0,5.7,-1.0,298495.0,-50272.83,-1.0,71.785784112045,155086928.48592553,155086928.48592553,30.364307685280075,7.782104535897323,26453.84747116868,87.19999999999999,26.924583296146757
1306893687.2,2.0126773,6.5737001,24.55,-1.0,6.5,-1.0,298485.09,-50284.63,-1.0,76.00336563027315,155022928.00370246,155022928.00370246,27.84488135006758,7.972053255126852,26837.01981393363,86.19999999999999,26.944142569987527
1306893687.42,2.012543,6.5735991,24.57,-1.0,7.2,-1.0,298475.13,-50296.5,-1.0,73.0651378958788,116263468.80198212,116263468.80198212,28.089915730817257,8.036766145135532,26257.219388876027,88.3,26.963717154414475
1306893687.64,2.0124059,6.573496,24.58,-1.0,7.7,-1.0,298464.94,-50308.63,-1.0,74.63702158514431,77559648.98430923,77559648.98430923,30.506301061362223,8.0096374470153,26127.930621843054,89.2,26.98329939413451
1306893687.86,2.0122673,6.5733917,24.6,-1.0,8.1,-1.0,298454.63,-50320.89,-1.0,75.43675880832271,38923761.51029374,38923761.51029374,28.70140950880392,7.898941660167954,26113.794740637568,89.10000000000001,27.00289694444072
1306893688.08,2.0121271,6.5732863,24.61,-1.0,8.4,-1.0,298444.22,-50333.29,-1.0,76.21852490523544,4282346.371792939,4282346.371792939,27.348131599600244,7.83901365208565,26848.055000921446,87.2,27.022502150040022
1306893688.29,2.011986,6.5731802,24.61,-1.0,8.7,-1.0,298433.75,-50345.76,-1.0,80.15512541043802,4198197.345147272,4198197.345147272,26.933432682746304,7.644523035838559,26301.441875849378,87.4,27.0226476006087
1306893688.51,2.0118434,6.5730729,24.62,-1.0,8.9,-1.0,298423.16,-50358.37,-1.0,77.47276415508465,4363788.03656565,4363788.03656565,27.94579605944703,7.543391103409996,26646.205717579807,89.0,27.02277008529811
1306893688.73,2.0116987,6.5729641,24.64,-1.0,9.2,-1.0,298412.41,-50371.17,-1.0,78.5999034946375,4808014.970318282,4808014.970318282,29.560431414814055,7.569550111246197,26526.56259300263,86.39999999999999,27.022884914694437
1306893688.94,2.0115531,6.5728545,24.68,-1.0,9.4,-1.0,298401.59,-50384.05,-1.0,82.71721100127672,4890161.84563705,4890161.84563705,29.58486492928271,7.413165404452847,26441.420235243462,87.0,27.02300739938385
1306893689.16,2.0114059,6.5727439,24.78,-1.0,9.7,-1.0,298390.69,-50397.06,-1.0,79.77393457537424,5488549.423619219,5488549.423619219,27.938045817725815,7.421508213151931,26017.832819608826,87.2,27.023191126417974
1306893689.38,2.0112572,6.572632,24.93,-1.0,10.0,-1.0,298379.63,-50410.21,-1.0,80.72071787311465,5537968.91410211,5537968.91410211,28.33694638027567,7.387566839823778,25545.61287574751,87.0,27.023482027555332
1306893689.59,2.0111076,6.5725196,25.16,-1.0,10.3,-1.0,298368.53,-50423.44,-1.0,84.85756088748654,5071114.843717546,5071114.843717546,28.169923946935782,7.265940644629574,25742.364018298656,85.1,27.023933689847546
1306893689.81,2.010955,6.5724049,25.48,-1.0,10.4,-1.0,298357.19,-50436.92,-1.0,82.69434929623944,5771945.498788511,5771945.498788511,26.879255564023065,7.062266058088033,25404.794155452066,82.9,27.024622666225497
1306893690.03,2.0108016,6.5722895,25.9,-1.0,10.6,-1.0,298345.78,-50450.48,-1.0,83.18534195743528,5382819.328400225,5382819.328400225,27.993087979342114,7.004612776258044,26134.334603085612,85.30000000000001,27.02561785432698
1306893690.25,2.0106451,6.5721719,26.42,-1.0,10.7,-1.0,298334.16,-50464.31,-1.0,84.7509949411791,4936527.788232224,4936527.788232224,29.138680701370838,7.144099679661737,25637.18206010364,84.80000000000001,27.027003462375976
1306893690.47,2.0104862,6.5720526,27.05,-1.0,10.8,-1.0,298322.38,-50478.34,-1.0,85.92947524775536,5694350.596074042,5694350.596074042,27.199569176440026,7.358480332485676,25259.252219968497,86.00000000000001,27.02887135388954
1306893690.69,2.0103264,6.5719327,27.78,-1.0,10.9,-1.0,298310.5,-50492.45,-1.0,86.50952662630853,5399412.79070973,5399412.79070973,25.626954455593637,7.437657268802332,24905.055568021162,84.60000000000001,27.03129042650546
1306893690.91,2.010162,6.5718094,28.65,-1.0,11.0,-1.0,298298.28,-50506.95,-1.0,88.88019079901592,4992864.227336881,4992864.227336881,22.956132662219847,7.524224552784984,24615.9000928433,87.50000000000001,27.034360199033898
1306893691.33,2.0098478,6.5715738,30.6,-1.0,11.1,-1.0,298274.94,-50534.65,-1.0,88.96363536535753,5953964.558437425,5953964.558437425,21.342154116910905,7.381435930543176,25174.584669836324,88.60000000000001,27.03889213254221
1306893692.39,2.0090288,6.5709622,37.36,-1.0,11.0,-1.0,298214.09,-50606.6,-1.0,91.70717980136723,6157246.770358374,6157246.770358374,22.266196559136958,7.443523534446664,25542.58155296283,88.1,27.04852249124737
1306893692.83,2.0086788,6.5707019,40.87,-0.1,11.0,-1.0,298188.09,-50637.22,-1.0,94.20887980238818,6161431.644843609,6161431.644843609,24.030674432254248,7.505913835149103,25716.02867104461,90.3,27.060725028430227
1306893693.26,2.008318,6.5704345,44.84,-0.1,10.9,-1.0,298161.25,-50668.69,-1.0,99.18073785051908,6833560.334035544,6833560.334035544,21.934028688131047,7.665751179981312,25645.386873384687,92.69999999999999,27.07579064522812
1306893693.91,2.0077611,6.5700234,51.63,-0.2,10.9,-1.0,298119.84,-50717.07,-1.0,101.0654920870778,7184130.139634131,7184130.139634131,21.183741766377917,7.695384444058234,25989.50400845902,91.4,27.095809236654194
1306893694.13,2.0075723,6.5698845,54.11,-0.2,10.9,223.5,298105.81,-50733.42,-1.0,101.10592682154493,7368979.044076496,7368979.044076496,21.583732270761352,7.871880030403869,25543.77871081979,89.7,27.11740481845647
1306893694.56,2.0071895,6.569604,59.39,-0.3,10.9,223.5,298077.31,-50766.45,-1.0,104.70911161227471,7728781.811283254,7728781.811283254,19.829278110996547,7.854772816444994,25676.257541971405,91.8,27.142644319768806
1306893694.77,2.0069967,6.5694631,62.17,-0.3,10.8,223.5,298062.97,-50783.05,-1.0,107.79925711026797,8361077.997627979,8361077.997627979,19.538672388117103,7.834266875437697,26084.731459939,93.5,27.16952970909514
1306893695.19,2.0066064,6.5691788,68.03,-0.4,10.8,223.5,298033.94,-50816.53,-1.0,108.92097009597397,9058449.426615542,9058449.426615542,19.655017311860625,7.907357896091866,26044.401519229916,94.9,27.200342263775802
1306893695.62,2.0061918,6.5688784,74.57,-0.5,10.7,223.5,298003.06,-50851.92,-1.0,112.75848125057229,9677289.095294356,9677289.095294356,22.264310324200753,7.826850935903043,25759.87050083256,93.19999999999999,27.23549536963757
1306893695.83,2.0059883,6.5687316,77.88,-0.6,10.7,223.5,297987.91,-50869.22,-1.0,113.09913502057385,10606392.443946863,10606392.443946863,22.220958341393175,7.932470951043548,24848.1424271676,90.5,27.271689595359355
1306893696.26,2.005564,6.5684267,84.98,-0.7,10.6,223.5,297956.28,-50905.16,-1.0,115.01025977024885,11353956.18480213,11353956.18480213,23.386400053471277,8.0362542280953,24651.437958241266,89.7,27.308144101046143
1306893696.48,2.005345,6.56827,88.74,-0.8,10.6,223.4,297939.97,-50923.64,-1.0,115.77679176003754,11516568.552926766,11516568.552926766,21.927522395851298,8.092962619870503,24143.556489658713,88.9,27.34478998906014
1306893696.91,2.0049003,6.567953,96.54,-0.9,10.3,223.4,297906.81,-50961.03,-1.0,120.05923291930826,11540560.810386049,11540560.810386049,23.348256867822414,7.813895854591144,24622.061276985332,87.50000000000001,27.38436785432698
1306893697.13,2.0046715,6.5677906,100.34,-1.0,9.5,223.4,297889.75,-50980.18,-1.0,120.27137831359786,11653090.51206645,11653090.51206645,24.024263858353653,7.868392435377012,24650.891618573845,89.30000000000001,27.421656786960405
1306893697.34,2.0044378,6.5676253,103.85,-1.1,8.8,223.4,297872.31,-50999.69,-1.0,128.14150783979048,11360273.521570373,11360273.521570373,24.091511958858938,7.7871655055601625,25118.81351954628,88.00000000000001,27.45973421478193
1306893697.55,2.00422,6.5674715,106.81,-1.2,8.4,223.4,297856.09,-51017.84,-1.0,119.18956403517551,13217071.95434229,13217071.95434229,23.36485100520512,7.870865295873104,25477.240598852277,88.70000000000002,27.496035614606953
1306893697.76,2.0039869,6.5673072,109.67,-1.4,8.0,223.4,297838.69,-51037.23,-1.0,127.21667695325469,13351452.317930095,13351452.317930095,23.3315837454177,7.688708462162368,25047.458281387902,87.10000000000002,27.53239825677668
1306893697.97,2.0037481,6.5671391,112.33,-1.5,7.9,223.4,297820.88,-51057.06,-1.0,129.96397739081814,15002871.685100129,15002871.685100129,23.195964822837585,7.751705112209099,24827.865616278737,86.60000000000002,27.56631120515813
1306893698.18,2.0035149,6.5669753,114.69,-1.6,7.8,223.4,297803.47,-51076.4,-1.0,126.83224554711714,17266715.212779664,17266715.212779664,20.94541918641695,7.709734622761761,25548.69996129415,87.00000000000003,27.59702424102865
1306893698.39,2.0032729,6.5668053,116.94,-1.8,7.8,223.3,297785.41,-51096.46,-1.0,131.38685346164874,16713155.723263659,16713155.723263659,20.084974252817297,7.759046062219934,26185.24924952897,87.5,27.626925815831797
1306893698.61,2.0030183,6.5666266,119.15,-1.9,7.9,223.3,297766.41,-51117.55,-1.0,131.8267759133684,17534656.959672164,17534656.959672164,19.49474007504102,7.660585719479204,26228.933459438027,89.2,27.653083952314738
1306893698.83,2.0027591,6.5664448,121.27,-2.1,8.1,223.3,297747.06,-51139.01,-1.0,134.10108889290066,18634431.85958213,18634431.85958213,19.954940189297822,7.4029495241176155,26637.73026806975,87.9,27.677986620731186
1306893699.05,2.0024936,6.5662593,123.38,-2.2,8.4,223.3,297727.25,-51160.91,-1.0,136.96748827782264,18030111.45478558,18030111.45478558,18.2516806779767,7.581950657745606,25876.359821448088,89.9,27.698533427380355
1306893699.26,2.0022449,6.5660863,125.32,-2.4,8.6,223.2,297708.69,-51181.34,-1.0,134.1495475189523,18255594.603736736,18255594.603736736,18.456874637961324,7.876073421014435,25499.158024374556,88.4,27.717656349515085
1306893699.47,2.0019793,6.5659023,127.4,-2.5,8.9,223.2,297688.84,-51203.08,-1.0,142.90681849758755,19337611.62496126,19337611.62496126,19.16116213736255,7.789644893612315,25093.3531013461,88.30000000000001,27.735684564738186
1306893699.69,2.00171,6.5657164,129.55,-2.7,9.2,223.1,297668.72,-51225.04,-1.0,138.0983684416116,19532424.071750343,19532424.071750343,20.552082082966297,7.585628597208738,24497.115689184826,85.7,27.75309270122112
1306893699.91,2.0014248,6.5655198,131.91,-2.9,9.4,223.1,297647.44,-51248.27,-1.0,145.961423675196,19789754.026545312,19789754.026545312,21.762941732731058,7.9187709596644105,24561.84076946107,84.20000000000002,27.77011807304964
1306893700.12,2.0011595,6.5653369,134.2,-3.0,9.7,223.0,297627.59,-51269.88,-1.0,142.51132688364865,21661362.02009803,21661362.02009803,22.016233759378732,7.661702158634375,24669.666202412984,82.2,27.786860199033896
1306893700.33,2.0008902,6.5651512,136.64,-3.2,9.9,223.0,297607.5,-51291.83,-1.0,144.53392767096756,21817078.74451607,21817078.74451607,21.670653386779108,7.716574952607175,24103.1352711882,83.1,27.803663567362854
1306893700.54,2.000617,6.5649625,139.23,-3.3,10.1,222.9,297587.09,-51314.12,-1.0,146.80618138139425,22032318.21907376,22032318.21907376,21.63468004877617,7.695898366733536,24301.520211092113,85.8,27.820727215656817
1306893700.75,2.0003412,6.5647719,141.97,-3.5,10.2,222.8,297566.47,-51336.63,-1.0,148.30857248474567,21803528.41177402,21803528.41177402,19.523460085414523,7.502970648702648,23854.204970623672,86.80000000000001,27.838196594484465
1306893700.96,2.0000602,6.5645776,144.89,-3.6,10.4,222.8,297545.47,-51359.6,-1.0,151.21483997082714,21678130.752392445,21678130.752392445,20.355830647706963,7.556949682491267,24130.63810389252,88.60000000000001,27.85627839675918
1306893701.18,1.9997737,6.5643794,148.0,-3.8,10.4,222.7,297524.09,-51383.01,-1.0,147.16411783605264,21982321.08021341,21982321.08021341,20.959889285887375,7.4628832451564655,24236.2028355575,85.80000000000001,27.87512572834273
1306893701.39,1.9994833,6.5641783,151.28,-3.9,10.5,222.6,297502.41,-51406.77,-1.0,156.32003250015595,20769093.59381817,20769093.59381817,21.411431484786917,7.342219497451017,24442.692484172272,87.30000000000001,27.89499886920012
1306893701.61,1.9991861,6.5639722,154.76,-4.0,10.5,222.6,297480.19,-51431.11,-1.0,152.99815766265039,23644713.019448645,23644713.019448645,19.791639612015054,7.506883547141679,24597.798719500268,89.90000000000002,27.915943751089888
1306893701.82,1.9989003,6.5637734,158.22,-4.1,10.5,222.5,297458.84,-51454.58,-1.0,154.3483608753501,23226633.45067361,23226633.45067361,19.332929720799022,7.795831601906843,24673.683552008202,90.10000000000001,27.93789147637423
1306893702.03,1.9986082,6.5635696,161.84,-4.2,10.5,222.4,297437.03,-51478.64,-1.0,157.96865878616364,24085740.963850196,24085740.963850196,18.869559604797516,7.434593086342024,24827.769885572292,90.3,27.960803768587702
1306893702.25,1.9982969,6.5633518,165.8,-4.3,10.5,222.4,297413.81,-51504.35,-1.0,160.8750267880801,25391087.70017842,25391087.70017842,19.981139310993814,7.524693520116927,24642.630688628382,92.80000000000001,27.984994494746935
1306893702.47,1.9979959,6.5631405,169.7,-4.4,10.4,222.3,297391.34,-51529.29,-1.0,156.00057707165925,26530764.31710333,26530764.31710333,21.983134315758686,7.312129349843265,24975.617656601782,92.3,28.010302893697066
1306893702.68,1.9976867,6.562923,173.78,-4.5,10.4,222.2,297368.28,-51554.97,-1.0,167.88559879809645,25021323.03174007,25021323.03174007,22.706461454740896,7.419163643857974,24307.919637203246,90.3,28.03675193131736
1306893702.89,1.9973867,6.5627112,177.78,-4.5,10.3,222.2,297345.88,-51579.96,-1.0,163.33338631753887,28487412.685885575,28487412.685885575,25.42999143734286,7.485481879467006,24398.858329405877,90.3,28.064165535866795
1306893703.1,1.9970929,6.5625033,181.75,-4.6,10.3,222.1,297323.97,-51604.48,-1.0,160.12353231408,29908926.94111134,29908926.94111134,23.44230387155879,7.675426114779757,24460.022782199158,89.6,28.092382946190497
1306893703.31,1.9967796,6.5622809,186.01,-4.7,10.2,222.0,297300.59,-51630.71,-1.0,170.94892970307637,27104117.055665795,27104117.055665795,22.98917748591994,7.511886772110781,24954.125374347055,90.0,28.121480715219377
1306893703.52,1.9964785,6.5620666,190.13,-4.7,10.1,222.0,297278.16,-51655.98,-1.0,164.50464576796162,31320352.65336033,31320352.65336033,23.15890443812005,7.350001081600039,25236.19847778235,90.7,28.15122152886767
1306893703.74,1.9961544,6.5618355,194.59,-4.7,10.1,221.9,297254.0,-51683.24,-1.0,169.22240089385866,30017735.601861518,30017735.601861518,24.339397419926755,7.170055827634064,25091.09502361373,91.4,28.181712561238623
1306893703.95,1.9958413,6.5616115,198.92,-4.7,10.0,221.9,297230.66,-51709.64,-1.0,171.4822302733592,28054157.330641445,28054157.330641445,24.615502673645018,7.0389980482279295,24960.684382840285,94.20000000000002,28.21286960410826
1306893704.16,1.995529,6.5613877,203.26,-4.7,11.6,221.8,297207.38,-51736.03,-1.0,171.26972385335927,30460804.576854713,30460804.576854713,25.324075758811798,7.341522950108604,25325.215734380952,94.89999999999999,28.244577828080264
1306893704.37,1.9952198,6.5611657,207.76,-3.3,12.7,221.7,297184.34,-51762.19,-1.0,169.8028188934702,31106772.026347622,31106772.026347622,24.456581021967228,7.507057975753147,25398.2774691381,93.3,28.27669943787904
1306893704.58,1.9948943,6.5609313,212.84,0.8,12.0,221.7,297160.06,-51789.81,-1.0,179.20643760648096,28144655.77962615,28144655.77962615,23.641827064103698,7.642249684820677,25069.377126877436,93.1,28.30972437226224
1306893704.79,1.9945833,6.5607075,217.88,5.1,11.7,221.7,297136.91,-51816.2,-1.0,171.31147446253652,32963810.15364455,32963810.15364455,24.787603858341686,7.478755450816463,25777.66230717113,93.2,28.343484214781927
1306893705.0,1.9942561,6.5604724,223.27,9.8,11.5,221.8,297112.53,-51843.9,-1.0,180.0031752682621,31407226.811624262,31407226.811624262,23.616824992250727,7.453724821527698,25825.874356265787,89.8,28.378308143040897
1306893718.42,1.9621198,6.5542836,648.5,81.4,16.6,308.8,294602.13,-52687.38,-1.0,199.70852648192138,31073165.86072397,31073165.86072397,24.576966506066512,7.2253110039998605,25401.817504851337,91.3,28.73561894794028
1306893718.84,1.9611669,6.5548838,663.02,81.8,17.0,315.5,294522.38,-52625.32,-1.0,233.9859564726572,35420401.84557742,35420401.84557742,25.00623377850206,7.462098107212844,25194.948128479657,91.8,29.100784083548337
1306893719.28,1.9602658,6.5556036,678.46,82.0,17.4,322.8,294445.94,-52549.72,-1.0,237.14907095819632,69416320.66563174,69416320.66563174,24.182429559101138,7.567352064326766,24921.274658554747,92.69999999999999,29.47461501093241
1306893747.6,1.9854642,6.6236065,1868.7,11.9,17.4,31.5,295984.75,-44873.41,-1.0,270.66601591950797,107192469.20486805,107192469.20486805,22.423988796399563,7.817712002208223,24510.43829387083,92.6,30.75619528214851
1306893748.04,1.9865255,6.6246822,1877.72,11.0,17.4,31.6,296061.63,-44748.75,-1.0,327.0683800859541,139259956.16991165,139259956.16991165,23.53991273562695,7.5647720748905325,24535.057175310634,91.6,32.041365885823055
1306893748.46,1.9875331,6.6256982,1886.2,10.4,17.4,31.8,296134.63,-44630.99,-1.0,324.0951700333379,172066505.49778825,172066505.49778825,24.206028177759134,7.5969928756791525,23985.358166475326,93.79999999999998,33.32970578083617
1306893748.89,1.9885707,6.6267396,1894.85,9.9,17.4,31.9,296209.84,-44510.26,-1.0,325.0153437103597,160592933.37065628,160592933.37065628,26.196709397281825,7.407161601633774,24575.211302309934,92.80000000000001,34.62122262248097
1306893749.33,1.9896337,6.6278016,1903.64,9.5,17.4,31.9,296286.94,-44387.12,-1.0,324.43131567176835,117285930.1298553,117285930.1298553,25.15905664000426,7.2457621438745905,25067.268432139943,90.99999999999999,35.91557957786154
1306893749.76,1.9906928,6.6288549,1912.33,9.2,17.4,31.9,296363.78,-44264.95,-1.0,329.8979185399561,99519152.4829752,99519152.4829752,24.7478698448053,7.117694476704711,24557.442351531507,92.4,37.21273071521937
1306893750.2,1.9917503,6.6299022,1920.93,8.9,17.4,32.3,296440.53,-44143.46,-1.0,320.8503195540177,102379036.3628022,102379036.3628022,25.94787163415372,7.237360137677946,24230.573090273923,92.19999999999999,38.51233920165857
1306893750.63,1.9928135,6.6309508,1929.51,8.8,17.4,32.4,296517.72,-44021.82,-1.0,329.31175657048516,127241473.01357588,127241473.01357588,24.991438126719725,7.437096357458509,24218.68208573773,89.39999999999999,39.49298990157108
1306893751.06,1.9938774,6.6319957,1938.04,8.8,17.4,32.5,296595.0,-43900.56,-1.0,328.690072412183,131929854.80320352,131929854.80320352,26.978808224244663,7.40741767812118,23784.314452483697,89.1,40.46905508092365
1306893751.49,1.9949246,6.6330201,1946.38,8.6,17.4,32.5,296671.06,-43781.66,-1.0,322.5389369297724,134102517.24478428,134102517.24478428,26.661272050535686,7.437861536762408,23887.36352454114,85.60000000000001,41.439685002183495
1306893751.91,1.9959575,6.6340266,1954.54,8.6,4.2,32.5,296746.13,-43664.82,-1.0,324.9674751745962,143902614.03026095,143902614.03026095,28.910257316112947,7.252291614319539,24460.080980835806,83.30000000000001,41.50539803805402
1306893752.34,1.997023,6.6350608,1962.91,8.6,4.2,32.5,296823.59,-43544.75,-1.0,326.6176115432589,142915799.61009002,142915799.61009002,26.759079095324953,7.494923129614536,24760.335354643827,81.9,41.5706134798738
1306893752.77,1.998094,6.6360962,1971.27,8.7,4.2,33.0,296901.47,-43424.51,-1.0,327.49263552183464,142393287.8508101,142393287.8508101,25.096954221035446,7.269036690319225,25087.31581757696,79.2,41.6357370581765
1306893753.2,1.999163,6.6371256,1979.56,8.7,4.2,33.1,296979.22,-43304.95,-1.0,326.0112834610026,143536136.6365377,143536136.6365377,22.647925870331882,7.217196625983304,24235.36968022373,78.7,41.70058504592803
1306893753.63,2.0002401,6.6381585,1987.86,8.8,4.2,33.2,297057.59,-43184.95,-1.0,327.6710945429207,143114064.78444433,143114064.78444433,22.70900655543495,7.407344658022195,23665.775722641592,80.5,41.76505792431824
1306893754.06,2.0013177,6.6391879,1996.12,8.8,4.2,33.3,297136.03,-43065.35,-1.0,326.9953222089808,139813632.03351986,139813632.03351986,21.701136658385966,7.414220079509481,23891.8369708344,78.0,41.82920162510564
1306893754.48,2.0023933,6.6402112,2004.31,8.8,4.2,33.3,297214.38,-42946.43,-1.0,333.46642389781374,140723974.52018276,140723974.52018276,20.513162839032766,7.4360950811382125,24676.566203842856,79.80000000000001,41.89303145887642
1306893754.91,2.0034695,6.6412308,2012.45,9.0,4.2,33.3,297292.75,-42827.91,-1.0,354.1530116106263,138032666.29750022,138032666.29750022,20.52367804797909,7.484810624731389,25018.996959250966,83.10000000000001,41.95652445975131
1306893755.34,2.0045487,6.6422492,2020.56,9.0,4.2,33.7,297371.38,-42709.52,-1.0,354.2095474038136,141302246.01841268,141302246.01841268,19.52718935509889,7.478167043943514,25374.094838686447,85.20000000000002,42.01969593831649
1306893755.76,2.0056284,6.6432639,2028.64,9.0,4.2,33.8,297450.06,-42591.53,-1.0,361.3382126990418,149013113.9840713,149013113.9840713,20.629986505946565,7.356181287858303,25541.477221762405,86.80000000000001,42.082668379261364
1306893756.19,2.0066985,6.6442655,2036.59,9.0,4.2,33.9,297528.09,-42475.05,-1.0,349.6859684751603,156640197.8370878,156640197.8370878,18.186452296493407,7.450537170809838,25177.308731564783,86.60000000000002,42.145480059051394
1306893756.61,2.0077665,6.645261,2044.47,9.3,4.2,33.9,297605.97,-42359.25,-1.0,355.8885197299815,171731563.33759043,171731563.33759043,18.71684101372815,7.345151109159946,24683.824744473677,85.4,42.20791662948009
1306893757.03,2.0088632,6.6462789,2052.52,9.4,4.2,33.9,297685.97,-42240.82,-1.0,363.885789393726,183057982.13056296,183057982.13056296,20.466507071404408,7.258751319196083,24456.6336939705,86.80000000000001,42.27011588582305
1306893757.45,2.0099219,6.6472575,2060.25,9.4,4.2,34.3,297763.25,-42126.94,-1.0,351.2451848814632,186787612.77885884,186787612.77885884,21.379664035545996,7.431561877072885,25154.23645321401,89.4,42.33188644575306
1306893757.87,2.0110145,6.6482632,2068.18,9.4,4.2,34.4,297843.0,-42009.88,-1.0,360.7998422075359,193741649.9332783,193741649.9332783,22.202338618754432,7.553285707804768,25783.44464203947,90.50000000000001,42.393373759838795
1306893758.29,2.012087,6.6492462,2075.91,9.6,4.2,34.5,297921.31,-41895.43,-1.0,353.70064016796766,193484419.3258518,193484419.3258518,23.11293441761264,7.86917577395217,25362.532573600347,92.3,42.45445534339085
1306893758.71,2.0131756,6.6502397,2083.71,9.7,4.2,34.5,298000.84,-41779.75,-1.0,357.73500913053994,189667997.06762704,189667997.06762704,22.669747644621005,7.684227614248685,25027.14112591296,92.10000000000001,42.51523837051246
1306893759.13,2.0142672,6.6512318,2091.49,9.7,4.2,34.8,298080.59,-41664.21,-1.0,357.73450292458864,192110541.50200483,192110541.50200483,23.70506654087504,7.617843268515784,25062.294052351244,89.4,42.575745807082896
1306893759.55,2.0153542,6.6522155,2099.19,9.7,4.0,34.9,298160.06,-41549.63,-1.0,355.444952803296,192673141.44609407,192673141.44609407,23.41093895932484,7.593174901311619,24760.76040063771,88.0,42.6359393766367
1306893759.98,2.0164809,6.6532305,2107.11,9.9,4.0,34.9,298242.44,-41431.36,-1.0,358.6085826407648,190760970.73200113,190760970.73200113,22.217592830163344,7.71036025719775,24647.799755041804,89.20000000000002,42.6960104615011
1306893760.4,2.017569,6.6542065,2114.72,10.0,4.0,34.9,298322.03,-41317.61,-1.0,353.9320793535728,192310497.9559968,192310497.9559968,23.652273192135002,7.463211512921868,24909.45378608643,89.80000000000001,42.755821266400474
1306893760.83,2.018705,6.6552209,2122.62,10.0,4.0,35.3,298405.16,-41199.37,-1.0,359.49810384016945,192025484.5857384,192025484.5857384,22.690387723940507,7.529113231558851,25630.357331613133,92.20000000000002,42.81564738188604
1306893761.25,2.0198232,6.656215,2130.34,10.0,4.0,35.4,298487.0,-41083.46,-1.0,361.17153776878564,188878988.82206693,188878988.82206693,22.038953262362647,7.833179984540352,26187.3146946435,93.40000000000002,42.8752208726997
1306893761.68,2.0209501,6.6572122,2138.08,10.2,4.0,35.4,298569.5,-40967.17,-1.0,354.8897381915616,188797156.8782049,188797156.8782049,22.33767318713131,7.553527276550011,25830.91106995033,93.80000000000001,42.93480201880643
1306893762.1,2.0220485,6.6581799,2145.57,10.3,4.0,35.7,298649.97,-40854.3,-1.0,353.31555736945916,187800975.1616851,187800975.1616851,22.73372028626014,7.4240101223415715,25501.023087567944,91.7,42.99404633201728
1306893762.52,2.0231687,6.6591624,2153.16,10.3,4.0,35.8,298732.03,-40739.68,-1.0,358.8852365344022,188978349.77653116,188978349.77653116,22.04830962740067,7.4533972426315716,25424.232979299464,89.69999999999999,43.05318347112489
1306893762.95,2.0243135,6.6601618,2160.87,10.3,4.0,35.8,298815.94,-40623.04,-1.0,357.374110676254,187193030.07059735,187193030.07059735,23.43776366802154,7.7910796529515665,25860.45220829035,88.59999999999998,43.112251712594706
1306893763.37,2.0254538,6.6611527,2168.5,10.5,3.9,36.1,298899.53,-40507.38,-1.0,362.96817893864784,188106492.68859977,188106492.68859977,24.918036404517352,7.644673219124828,25146.338998516025,91.39999999999999,43.17120512466819
1306893764.21,2.0276827,6.6630763,2183.27,10.5,3.9,36.4,299063.03,-40282.78,-1.0,353.8675212497434,186397781.51143727,186397781.51143727,24.475727972328283,7.6630240229482105,25412.92362989645,91.3,43.23557082895516
1306893764.64,2.028852,6.6640783,2190.94,10.7,3.9,36.5,299148.84,-40165.73,-1.0,360.62656041641753,182664593.29126832,182664593.29126832,25.769855959363106,7.562636545252125,25413.045221362892,89.0,43.299745150914916
1306893765.07,2.0300032,6.6650602,2198.44,10.8,3.9,36.5,299233.38,-40051.0,-1.0,354.4931746764556,179887181.87740228,179887181.87740228,25.300460100746896,7.647462354833705,25217.084933357746,87.8,43.3638352646507
1306893765.49,2.0311551,6.6660381,2205.9,10.8,3.9,36.8,299317.97,-39936.73,-1.0,361.55048200171615,178546722.31379652,178546722.31379652,26.242514167887194,7.5048482671854755,24846.26901441996,88.0,43.42758854549059
1306893766.33,2.0334313,6.6679566,2220.48,10.8,3.9,37.1,299485.22,-39712.44,-1.0,356.0675877560983,175686782.85245222,175686782.85245222,24.992322380040545,7.51208156576552,24146.98584454923,87.00000000000003,43.4965933573891
1306893766.76,2.0346019,6.6689361,2227.91,10.8,3.9,37.2,299571.28,-39597.88,-1.0,356.1646171798093,175950125.73835707,175950125.73835707,24.112879490525906,7.871092844968619,24641.59035967066,84.90000000000002,43.56536085520188
1306893767.18,2.0357705,6.6699093,2235.27,10.8,3.8,37.4,299657.22,-39484.04,-1.0,362.5289652240343,177161441.50373197,177161441.50373197,24.39490835366193,7.791465409073446,24407.536923045423,86.4,43.6340288342045
1306893767.6,2.0369289,6.6708692,2242.52,11.3,3.8,37.5,299742.44,-39371.72,-1.0,358.5740576232878,174714456.97453687,174714456.97453687,23.788267930242146,7.479708997349414,24980.848279620353,88.70000000000002,43.70243653324212
1306893768.02,2.0380716,6.6718114,2249.62,11.4,3.8,37.5,299826.53,-39261.44,-1.0,353.04287382861065,174625233.86749732,174625233.86749732,23.80097539732032,7.472025587934191,24859.972238897317,89.00000000000001,43.77037725940135
1306893768.44,2.039237,6.6727677,2256.81,11.5,3.8,37.8,299912.31,-39149.48,-1.0,358.63636465059056,175962380.88900205,175962380.88900205,22.372083185415544,7.687459964677029,24742.632148263347,85.60000000000001,43.837981152664696
1306893768.86,2.040406,6.6737222,2263.97,11.6,3.8,37.8,299998.41,-39037.7,-1.0,358.72569776768864,175995465.99027961,175995465.99027961,23.09666550474351,7.568290497908452,24805.331533366127,84.1,43.89975936788779
1306893769.28,2.0415897,6.6746838,2271.17,11.7,3.8,38.1,300085.59,-38925.06,-1.0,361.8880058546528,176022065.54501882,176022065.54501882,21.103640932810645,7.622639618238982,24556.60958969721,83.89999999999998,43.96117778433573
1306893769.7,2.0427435,6.6756165,2278.13,11.8,3.8,38.1,300170.63,-38815.79,-1.0,352.3823072297127,177632746.97397184,177632746.97397184,21.71501398658483,7.824294055353489,24955.29168844137,84.29999999999998,44.022182814956906
1306893770.12,2.0439261,6.6765675,2285.22,11.9,3.8,38.4,300257.81,-38704.32,-1.0,359.6185072988155,176852664.16019127,176852664.16019127,22.956225287700306,7.763589138861236,24913.67007607199,81.8,44.0829045997338
1306893770.54,2.0451095,6.6775144,2292.26,12.0,3.7,38.6,300345.09,-38593.32,-1.0,358.8479241263769,174805112.12833938,174805112.12833938,22.671410816425322,7.598073176216873,25315.64128445582,80.6,44.13785429352208
1306893770.97,2.0463192,6.6784772,2299.4,12.1,3.7,38.7,300434.31,-38480.41,-1.0,357.2761277538163,174909805.36600444,174909805.36600444,23.24821209445123,7.3118922113020215,24980.331546009365,80.2,44.1925819838108
1306893771.39,2.0475185,6.6794268,2306.42,12.1,3.7,38.9,300522.81,-38369.02,-1.0,361.30769932808295,174353749.39358878,174353749.39358878,23.479241090293804,7.225934341794775,25229.245597532812,79.6,44.24704939413451
1306893772.24,2.0499369,6.6813265,2320.38,12.1,3.7,39.2,300701.38,-38146.08,-1.0,358.5631338588323,171993520.97449163,171993520.97449163,24.204706214782547,7.2638727805683,25533.171289505077,79.10000000000002,44.30665350612051
1306893772.66,2.0511418,6.6822655,2327.23,12.4,3.7,39.4,300790.41,-38035.84,-1.0,359.8423503974059,171221616.19551885,171221616.19551885,24.38323274500218,7.09790354165759,24715.06932631727,79.4,44.3660662357793
1306893773.08,2.0523361,6.6831914,2333.96,12.5,3.7,39.5,300878.66,-37927.11,-1.0,355.8425225779486,170327267.1284056,170327267.1284056,24.031636605770828,6.826860688729665,25091.24085664298,82.80000000000001,44.425126821956034
1306893773.5,2.0535284,6.6841108,2340.61,12.6,3.7,39.7,300966.78,-37819.1,-1.0,354.27897743329146,169840671.46616498,169840671.46616498,23.19246328328447,7.046857360742398,25351.36952523098,84.7,44.48379698818525
1306893774.35,2.0559904,6.6859941,2354.1,12.6,3.7,40.0,301148.91,-37597.74,-1.0,359.56457139097586,169458429.8949001,169458429.8949001,23.784465184170266,6.8808563916971215,25511.064158261717,86.30000000000001,44.54728233376705
1306893774.79,2.0572636,6.6869601,2360.96,12.6,3.7,40.2,301243.13,-37484.16,-1.0,357.654388747439,171870637.98330146,171870637.98330146,23.340849843915894,6.908407595777824,25691.60672362255,88.9,44.610691126417976
1306893775.21,2.0584855,6.687882,2367.45,12.6,3.7,40.3,301333.56,-37375.72,-1.0,358.40509978306966,172240064.2178282,172240064.2178282,21.895289941488073,7.155326782299364,25671.625619893348,91.50000000000001,44.67364060148359
1306893775.64,2.0597317,6.6888171,2373.99,12.6,3.7,40.5,301425.84,-37265.7,-1.0,356.12160595322035,171738854.92096415,171738854.92096415,24.57233122625385,7.225575299818272,25413.21918233871,90.4,44.73620731189479
1306893776.07,2.0609995,6.6897631,2380.54,12.6,3.4,40.7,301519.78,-37154.35,-1.0,360.9290220025596,170849823.36370936,170849823.36370936,25.638083058102907,7.500825255415036,25057.990068214254,92.9,44.79832236001378
1306893776.5,2.0622537,6.6906938,2386.92,13.3,3.4,40.7,301612.72,-37044.78,-1.0,356.222291005159,167885836.5425549,167885836.5425549,25.874358531677814,7.523918659892482,24904.63468519839,92.3,44.8599474693751
1306893776.92,2.0635119,6.6916221,2393.23,13.5,3.4,41.0,301706.0,-36935.44,-1.0,364.2421423206328,167096065.35915118,167096065.35915118,26.355295439800837,7.563193864494169,23943.86554856502,93.10000000000001,44.915716279523835
1306893777.34,2.0647386,6.6925222,2399.27,13.6,3.4,41.2,301796.97,-36829.4,-1.0,354.64895416673517,163244899.23417637,163244899.23417637,24.968087023960006,7.737957181031846,24522.05789887163,93.10000000000002,44.97086501093241
1306893777.77,2.0660285,6.6934633,2405.52,13.8,3.4,41.4,301892.66,-36718.48,-1.0,362.63090005749615,163343147.5722065,163343147.5722065,24.3904819827774,7.734679949503641,24461.507008467695,89.70000000000002,45.02564628827274
1306893778.2,2.06729,6.6943782,2411.53,14.0,3.4,41.5,301986.28,-36610.62,-1.0,354.0503428510798,162142414.91953382,162142414.91953382,24.33206775406614,7.803131489465,23851.577975843804,89.0,45.07993762685542
1306893778.63,2.0685825,6.6953101,2417.57,14.3,3.4,41.7,302082.25,-36500.71,-1.0,361.18600822609477,162720949.5072321,162720949.5072321,26.100132962842338,8.133832774165176,23510.660868301882,88.7,45.128525772087265
1306893779.05,2.0698434,6.6962137,2423.36,14.5,3.4,41.9,302175.88,-36394.09,-1.0,359.65568254146797,162696222.9839305,162696222.9839305,25.90067950692816,8.139524068776915,23137.656164290478,85.50000000000001,45.17629480095865
1306893779.47,2.0710875,6.6971,2428.96,14.7,3.1,42.1,302268.31,-36289.5,-1.0,354.08867841202533,162409141.97773018,162409141.97773018,27.272910539979517,7.914050571374561,22838.905345634827,83.10000000000001,45.223382508745175
1306893779.9,2.0724081,6.6980349,2434.8,15.0,3.1,42.3,302366.47,-36179.1,-1.0,365.26122088515075,163796362.6618273,163796362.6618273,24.551198572502216,7.84116613786358,23471.713187488866,85.2,45.26993434601552
1306893780.32,2.0736597,6.6989154,2440.23,15.3,3.1,42.5,302459.53,-36075.11,-1.0,353.9177366592904,160177379.06408578,160177379.06408578,22.890886197323344,7.529718499315208,23412.01948695075,82.90000000000002,45.31562879045997
1306893780.53,2.0743009,6.6993642,2442.98,15.5,3.1,42.6,302507.22,-36022.08,-1.0,361.23604059172357,161258245.29367352,161258245.29367352,21.54051075916287,7.513708530314713,23914.989650581567,81.80000000000001,45.35854436351333
1306893780.96,2.0755908,6.7002621,2448.43,15.8,3.1,42.8,302603.16,-35915.95,-1.0,354.29031011762504,156704486.32688236,156704486.32688236,21.945090228836158,7.652811519435731,24799.059515650923,80.80000000000001,45.40080158136111
1306893781.38,2.0768609,6.7011396,2453.71,16.1,3.1,43.0,302697.72,-35812.18,-1.0,355.78148488362456,155017042.07540053,155017042.07540053,21.074799897365907,7.5484790703206475,24330.580135949607,80.30000000000001,45.44247699693416
1306893781.8,2.0781265,6.7020069,2458.89,16.4,3.1,43.2,302791.97,-35709.57,-1.0,353.1855879118834,151975201.16347462,151975201.16347462,21.48245336820331,7.462883808268751,24679.875703109745,80.9,45.48333329614677
1306893782.22,2.0793795,6.7028582,2463.95,16.7,3.1,43.4,302885.31,-35608.79,-1.0,348.4525410047184,151933867.9259571,151933867.9259571,21.64007506185748,7.439891827275254,25183.548543003482,79.80000000000001,45.52346234251596
1306893782.65,2.0806403,6.7037071,2469.01,16.9,3.2,43.7,302979.31,-35508.25,-1.0,341.41812587991706,151862592.4571702,151862592.4571702,20.437646536188712,7.326929623088761,25502.199296990573,80.5,45.56284117016251
1306893783.07,2.0818535,6.7045163,2473.86,17.1,3.2,43.9,303069.78,-35412.34,-1.0,335.1893086870001,156475454.32478538,156475454.32478538,19.781861263876046,7.296559160401256,25855.20920838657,83.50000000000001,45.60150040025875
1306893783.5,2.0831009,6.7053404,2478.87,17.1,3.2,44.2,303162.91,-35314.62,-1.0,335.12954577598765,161994959.69613403,161994959.69613403,18.428728549803314,7.278327734284635,26781.078309050474,86.80000000000001,45.639707968062766
1306893783.92,2.0843247,6.7061407,2483.84,17.0,3.2,44.4,303254.28,-35219.64,-1.0,334.93307802821084,162842301.47405344,162842301.47405344,19.815677850436096,7.10949597034573,26313.728440975377,86.8,45.67724952536811
1306893784.34,2.0855196,6.7069142,2488.8,16.7,3.6,44.7,303343.56,-35127.8,-1.0,326.03825534168095,164441763.74837148,164441763.74837148,22.092487594031496,7.0964179498069795,27031.055636211026,88.4,45.71443128389829
1306893784.76,2.0867285,6.7076887,2493.95,16.4,3.7,45.0,303433.94,-35035.77,-1.0,328.1304829558733,159822870.41536212,159822870.41536212,22.018311393526044,7.23864175081226,26528.892592678956,88.6,45.75345031276968
1306893785.18,2.0878895,6.7084246,2499.08,15.8,3.9,45.3,303520.78,-34948.25,-1.0,314.51600826085945,152974137.67474192,152974137.67474192,22.81712968841434,7.239064860444613,25879.559907453506,90.80000000000001,45.79222437226225
1306893785.61,2.0891037,6.7091864,2504.67,15.1,4.1,45.5,303611.66,-34857.61,-1.0,319.40567395795995,147833122.83957753,147833122.83957753,22.21315808885021,7.224633222608446,25847.30992394109,90.60000000000001,45.83123574584055
1306893786.03,2.0902785,6.7099156,2510.34,14.2,4.3,45.8,303699.66,-34770.77,-1.0,315.2231454834151,142304586.59288573,142304586.59288573,22.202952745186554,7.5476034764265085,25924.970638142346,91.30000000000001,45.870622228780185
1306893786.45,2.0914309,6.7106239,2516.2,13.2,4.5,46.1,303786.0,-34686.36,-1.0,308.3150622818904,137037415.50352928,137037415.50352928,21.56380819697099,7.208901099474355,26252.411467092366,92.00000000000001,45.91062113516689
1306893786.87,2.0925831,6.7113252,2522.39,12.2,4.8,46.3,303872.41,-34602.73,-1.0,307.1034925803134,133823191.57164784,133823191.57164784,22.579000896802615,7.052503190206912,26003.30419770034,91.00000000000001,45.95148508967256
1306893787.3,2.0937292,6.7120165,2528.9,11.0,5.1,46.5,303958.38,-34520.26,-1.0,297.8138031713133,129594090.45980616,129594090.45980616,22.684754506063324,6.925442196790492,25411.053834508402,89.4,45.99361982283091
1306893787.72,2.0948689,6.712698,2535.75,9.7,5.4,46.8,304043.91,-34438.89,-1.0,301.83050978537125,125396417.51193696,125396417.51193696,24.099888586362315,7.132267106651476,25066.840422435842,88.8,46.03716312991753
1306893788.15,2.096018,6.7133796,2543.08,8.5,5.7,46.9,304130.16,-34357.46,-1.0,296.6040152728618,120523842.36698209,120523842.36698209,23.319305402021417,7.398891280870597,25687.713433251873,89.19999999999999,46.082513086173
1306893788.57,2.0971412,6.714041,2550.66,7.2,6.0,47.1,304214.53,-34278.41,-1.0,296.03211162192747,116646046.05578426,116646046.05578426,22.96036721209593,7.360233293383053,25120.293476420014,89.4,46.12986872921763
1306893788.99,2.0982336,6.7146801,2558.46,5.9,6.3,47.1,304296.59,-34201.98,-1.0,287.77138898137594,110377725.08171333,110377725.08171333,24.388545159389984,7.386022636352483,24862.865633754278,90.80000000000001,46.17925302493066
1306893789.41,2.0993186,6.7153115,2566.64,4.7,6.6,47.4,304378.13,-34126.45,-1.0,285.4330823798303,107529485.82663503,107529485.82663503,23.38292679080607,7.131787255183769,24693.52730348199,87.30000000000001,46.23097218503564
1306893789.83,2.1004165,6.7159472,2575.36,3.5,6.9,47.4,304460.66,-34050.36,-1.0,288.11258201372345,102758875.551222,102758875.551222,24.476567916453586,6.9657214308949875,25273.189224822818,88.20000000000002,46.28508745187729
1306893790.26,2.101506,6.7165756,2584.48,2.2,7.2,47.4,304542.56,-33975.14,-1.0,279.49099696696,98535200.09781575,98535200.09781575,24.52368690119168,6.939650628270184,25166.37870259373,90.30000000000001,46.341843794834425
1306893790.69,2.1025968,6.7172026,2594.06,1.1,7.5,47.6,304624.59,-33900.06,-1.0,279.55046955762464,96891005.14714006,96891005.14714006,26.371780637913425,7.263982997224289,25011.407894048563,90.7,46.40144790682042
1306893791.12,2.1036684,6.7178172,2603.94,0.0,7.8,47.6,304705.19,-33826.45,-1.0,274.85418443568534,93340910.96015222,93340910.96015222,24.423028963671214,7.243369643550387,25385.56675718654,92.8,46.463876821956035
1306893791.54,2.1047069,6.7184119,2613.94,-1.0,8.1,47.6,304783.28,-33755.23,-1.0,272.7206675419212,90717677.26230264,90717677.26230264,25.418552056756653,7.135625235143323,25896.286406508098,93.2,46.52897743437948
1306893791.96,2.1057295,6.7189972,2624.21,-1.9,8.5,47.6,304860.19,-33685.11,-1.0,268.9572891529381,87699935.15180561,87699935.15180561,23.591243367635023,7.275473156043493,26130.991488247495,92.4,46.59669615703915
1306893792.38,2.1067662,6.719591,2635.06,-2.7,8.7,47.6,304938.16,-33613.99,-1.0,272.5366520212304,85582651.76502258,85582651.76502258,24.882269844843513,7.050936177857662,25559.683006776788,92.0,46.667109542865916
1306893792.8,2.107788,6.7201771,2646.17,-3.5,8.9,47.6,305015.0,-33543.79,-1.0,269.1676339314419,80853479.39820775,80853479.39820775,23.269542955461088,7.407988315905486,26179.888976763832,90.80000000000001,46.74022524715288
1306893793.22,2.1088095,6.7207647,2657.69,-4.2,9.1,47.3,305091.78,-33473.43,-1.0,269.4392950184958,78214082.39413577,78214082.39413577,23.33960025785815,7.532746575348539,26873.118644475275,92.0,46.816188720468716
1306893793.65,2.1098526,6.7213668,2669.88,-4.8,9.3,47.2,305170.19,-33401.35,-1.0,269.29158776849374,74659927.70129682,74659927.70129682,24.520861740205312,7.824168853587075,27474.65411433208,94.8,46.89522196631298
1306893794.07,2.1108875,6.7219666,2682.36,-5.4,9.4,47.1,305247.97,-33329.56,-1.0,273.7618342951237,69451425.40209426,69451425.40209426,23.965978712963604,7.9459920868969425,27206.336516002317,96.80000000000003,46.97713360235848
1306893794.49,2.1119168,6.7225658,2695.15,-5.9,9.6,47.0,305325.28,-33257.86,-1.0,272.920288314932,65716769.24360167,65716769.24360167,25.726330407308538,7.6397150529647,26527.418123701907,96.70000000000002,47.0618547309674
1306893794.91,2.1129502,6.7231702,2708.35,-6.3,9.6,47.0,305402.91,-33185.57,-1.0,274.5634094870764,62631029.37027527,62631029.37027527,25.2597394153731,7.689088694939441,26236.941535261445,96.30000000000001,47.149347075674314
1306893795.33,2.1139797,6.7237749,2721.83,-6.7,9.9,46.7,305480.22,-33113.26,-1.0,274.1541045694242,59898877.455156945,59898877.455156945,27.555605398618496,7.79846146934853,26008.484173022538,95.9,47.23959532589305
1306893795.77,2.1150467,6.7244042,2736.12,-8.3,9.9,46.6,305560.31,-33038.03,-1.0,271.9436407386643,58143405.03865229,58143405.03865229,27.55355112505603,7.755554855566777,25526.6418204697,96.9,47.33312769684668
1306893796.19,2.1160721,6.7250123,2750.15,-17.8,10.2,46.3,305637.25,-32965.36,-1.0,274.32963503579776,58970447.889083244,58970447.889083244,28.43814435987508,7.684406495163072,25463.572916498477,96.9,47.42953845800153
1306893796.63,2.1171333,6.7256487,2764.95,-25.3,10.5,45.9,305716.84,-32889.38,-1.0,272.5495782519954,59193765.35663794,59193765.35663794,26.521714883290574,7.821500993630692,25883.59873410468,96.9,47.52897305992629
1306893797.07,2.1181722,6.726282,2779.75,-24.1,10.7,45.3,305794.69,-32813.84,-1.0,269.161883869205,60737557.490236335,60737557.490236335,27.423928675190623,7.723815481406236,25130.435012057602,98.00000000000001,47.63123246500065
1306893797.5,2.1191745,6.7269029,2794.35,-22.7,10.9,44.8,305869.72,-32739.87,-1.0,267.82507563947837,63015913.14848581,63015913.14848581,25.632084247307475,7.40035474098774,25182.57326882886,97.60000000000002,47.735849700346236
1306893797.92,2.120121,6.7274979,2808.44,-22.6,10.9,44.3,305940.5,-32669.04,-1.0,261.3338213765892,64710927.364819445,64710927.364819445,24.85266850333635,7.452042912854175,25459.19821236301,95.30000000000003,47.84192144137861
1306893798.34,2.1210761,6.7281068,2822.93,-20.5,10.9,43.8,306011.88,-32596.63,-1.0,265.1939201440097,66581471.673828475,66581471.673828475,25.14279625015971,7.604017001016359,25312.145047105445,95.80000000000003,47.949531896321744
1306893798.77,2.1220109,6.7287104,2837.37,-17.6,10.9,43.4,306081.66,-32524.91,-1.0,255.8844643827055,67611014.06524046,67611014.06524046,23.143987599866247,7.640865574608589,25754.10551051279,93.50000000000001,48.05840547462445
1306893799.2,2.1229459,6.7293206,2852.03,-15.6,10.9,43.0,306151.44,-32452.45,-1.0,257.24771590685947,68840425.34855549,68840425.34855549,21.521735092652442,7.554496321393475,25741.101881127404,94.80000000000001,48.16839672571806
1306893799.63,2.1238729,6.7299311,2866.74,-13.9,10.9,42.7,306220.56,-32380.0,-1.0,256.26134883921316,68553042.92958793,68553042.92958793,19.592038110931128,7.548070718027266,25790.033373868104,92.00000000000001,48.279329577861546
1306893800.05,2.1247484,6.7305122,2880.77,-12.2,11.5,42.4,306285.81,-32311.08,-1.0,249.3862780983867,67112852.3386033,67112852.3386033,19.882766749587944,7.8041413499045085,25473.621177223853,89.70000000000002,48.39006339238474
1306893800.47,2.1256243,6.7310972,2894.92,-11.4,11.5,42.2,306351.06,-32241.71,-1.0,250.24010448421467,66045862.367516585,66045862.367516585,19.137760491409896,7.808001759297081,25352.854849491927,88.0,48.50088907042498
1306893800.9,2.1265003,6.7316857,2909.15,-10.8,11.5,42.0,306416.31,-32171.96,-1.0,245.61930396109366,64099377.412998535,64099377.412998535,21.55306661174334,7.853024550151795,25145.298254532252,87.89999999999999,48.61127839675919
1306893801.32,2.1273482,6.7322585,2923.0,-10.3,11.7,41.7,306479.44,-32104.09,-1.0,244.23073389219948,62262048.11528023,62262048.11528023,21.969312098263384,7.873571955218354,25745.791144561357,86.3,48.72094047025
1306893801.74,2.1281969,6.7328347,2936.92,-8.8,11.7,41.5,306542.59,-32035.84,-1.0,244.97684056512773,61180128.16530165,61180128.16530165,23.847781690939897,8.129510916492487,25729.923733137344,83.69999999999999,48.8300819838108
1306893802.17,2.1290424,6.733411,2950.82,-5.2,11.8,41.4,306605.5,-31967.59,-1.0,239.426292419424,59692020.46908164,59692020.46908164,24.13254177252938,7.897695508111436,25542.35282167302,83.2,48.939078046802926
1306893802.59,2.1298451,6.7339591,2964.02,-1.4,11.9,41.4,306665.22,-31902.69,-1.0,233.5096627482966,57214001.94539853,57214001.94539853,25.278153749799124,7.767241252273929,26220.13216906986,82.60000000000001,49.04708657698666
1306893803.01,2.1306647,6.7345183,2977.46,1.7,11.9,41.4,306726.19,-31836.47,-1.0,237.86232741002786,57261230.58902565,57261230.58902565,26.149311032357534,7.961605343167661,26511.428129088523,81.69999999999999,49.15432957786155
1306893803.44,2.1314731,6.7350681,2990.64,4.9,11.8,41.4,306786.31,-31771.34,-1.0,229.56753392137654,54771923.50630911,54771923.50630911,26.2479574880445,8.018986284526102,26181.997201437054,83.29999999999998,49.260439595359365
1306893803.87,2.1322884,6.73562,3003.81,7.7,11.8,41.5,306847.0,-31705.96,-1.0,230.83926269414548,54115315.6194451,54115315.6194451,26.462916047682864,7.871633791430898,26099.803422054018,84.89999999999998,49.365370697721566
1306893804.3,2.1331019,6.7361667,3016.77,10.2,11.8,41.7,306907.59,-31641.15,-1.0,229.6104441612483,53674484.60920569,53674484.60920569,25.414244183020415,7.712815783950226,26884.272667480996,85.0,49.469482683723314
1306893804.73,2.1339013,6.7366994,3029.31,12.3,11.8,41.9,306967.13,-31577.97,-1.0,225.04149461275037,50943610.28896489,50943610.28896489,25.496627335702502,7.804720189563481,27163.367696768506,86.0,49.57236216753784
1306893805.17,2.1347226,6.7372412,3041.94,14.3,11.6,42.2,307028.34,-31513.68,-1.0,224.76709224585818,49897709.58474918,49897709.58474918,25.70954201661774,7.646996095656808,26827.34702964164,83.90000000000002,49.674016804458226
1306893805.59,2.1354922,6.7377432,3053.51,16.0,11.5,42.5,307085.75,-31454.06,-1.0,219.91022750738645,48479749.67784975,48479749.67784975,25.99140389697874,7.509221413111125,26578.571755897807,85.4,49.773926034554464
1306893806.02,2.1362848,6.7382539,3065.14,17.6,11.4,42.9,307144.94,-31393.36,-1.0,219.86091167625852,46506785.343029894,46506785.343029894,25.446967811175575,7.287168186262134,25892.019455132966,86.80000000000001,49.87208220253346
1306893806.45,2.1370786,6.7387585,3076.46,19.1,11.4,43.3,307204.22,-31333.33,-1.0,218.72879442646092,45731437.24916713,45731437.24916713,23.286511639611177,7.334473272040354,25831.979619443424,87.7,49.968263304895665
1306893806.87,2.1378409,6.7392362,3087.0,20.5,11.1,43.7,307261.22,-31276.44,-1.0,214.06620350279525,45191449.57657758,45191449.57657758,23.736921447881027,7.463315849769694,25397.11347682294,85.6,50.06240809929637
1306893807.3,2.1386456,6.7397328,3097.74,21.8,11.1,44.2,307321.44,-31217.25,-1.0,218.5244766849192,43646598.380873114,43646598.380873114,23.030153484726835,7.349728502571539,25062.53036540577,87.8,50.1544859645632
1306893807.73,2.1394287,6.7402082,3107.8,23.0,10.8,44.6,307380.13,-31160.51,-1.0,211.76200461392972,41974286.85899662,41974286.85899662,23.703779010921863,6.994043032468452,25506.80705825694,87.9,50.24417537838647
1306893808.18,2.1402419,6.7406933,3117.79,24.3,10.5,45.2,307441.09,-31102.54,-1.0,208.6335095352341,40372554.57315603,40372554.57315603,23.605164042917238,7.33322472503488,25789.734648396137,86.10000000000001,50.331430409007645
1306893808.62,2.1410434,6.7411627,3127.18,25.5,10.3,45.7,307501.25,-31046.38,-1.0,208.5112326904237,39351857.85599553,39351857.85599553,24.54791782272646,7.433762532231649,24963.031669641598,86.0,50.41595249999627
1306893809.04,2.1418038,6.7415998,3135.63,26.6,10.0,46.2,307558.34,-30994.01,-1.0,205.69323124764466,38167232.30387467,38167232.30387467,26.041381673708777,7.174921003470407,24814.886102725402,88.20000000000002,50.49734357611176
1306893809.46,2.1425786,6.7420373,3143.79,27.5,9.7,46.8,307616.63,-30941.53,-1.0,207.75939180695846,37481927.56584451,37481927.56584451,25.148662893028664,7.307374177709146,25377.924591138206,90.80000000000001,50.57531273621675
1306893809.9,2.1433966,6.7424906,3151.91,28.2,9.4,47.4,307678.19,-30887.07,-1.0,207.58985572337954,36951174.61858185,36951174.61858185,25.244801692381973,7.164146357920007,25606.737126762055,91.4,50.650640820206256
1306893810.32,2.1441787,6.7429161,3159.2,28.0,8.9,48.0,307737.13,-30835.88,-1.0,206.43284924137637,34743735.85888047,34743735.85888047,25.070236275856136,7.262563249204328,26212.553048077054,91.7,50.72264650699541
1306893810.74,2.1449651,6.7433366,3166.05,29.4,8.5,48.6,307796.41,-30785.22,-1.0,206.0138316006408,32552801.896760482,32552801.896760482,27.540329976524127,7.4831682690187975,25559.19671422031,93.00000000000003,50.79123027777406
1306893811.16,2.1457666,6.7437579,3172.54,30.5,8.1,49.1,307856.91,-30734.39,-1.0,208.27762985779785,30918852.77902217,30918852.77902217,25.88205608255151,7.314713030628164,25685.845276671727,93.9,50.856713654851916
1306893811.6,2.1466279,6.7442025,3178.95,30.8,7.6,49.8,307921.97,-30680.68,-1.0,211.6557171702309,28090856.0976609,28090856.0976609,25.62828692644491,7.42943173148216,26162.582825479203,91.69999999999999,50.91888229002252
1306893812.04,2.1474945,6.7446418,3184.84,31.2,7.1,50.4,307987.47,-30627.53,-1.0,211.40948971798187,26458929.379938953,26458929.379938953,26.024448890092355,7.530345993693412,26228.824673839288,88.49999999999999,50.977858667975276
1306893812.46,2.1483485,6.745067,3190.08,31.5,6.6,51.0,308052.09,-30576.01,-1.0,216.25098394667376,25290023.511889767,25290023.511889767,27.177196840392934,7.2081139660258025,25876.023463549773,90.3,51.033198781711064
1306893812.89,2.1492303,6.7454984,3194.93,31.4,6.1,51.5,308118.84,-30523.66,-1.0,216.55769465467762,23164631.296937715,23164631.296937715,28.089992892342917,7.096970285329547,26349.6960138756,91.1,51.085063392384725
1306893813.32,2.1501387,6.7459351,3199.35,30.9,5.6,52.1,308187.69,-30470.58,-1.0,221.24500202088393,22012481.070278816,22012481.070278816,27.334536471923062,7.1316349107859915,25982.965619186172,87.80000000000001,51.13384291994379
1306893813.74,2.1510358,6.7463593,3203.14,30.1,5.1,52.6,308255.72,-30418.96,-1.0,222.2072358998824,20801312.46015819,20801312.46015819,27.192987316473232,6.980548516241386,26086.06184977689,87.90000000000002,51.179277084423234
1306893814.16,2.1519442,6.7467822,3206.42,28.9,4.6,53.1,308324.66,-30367.41,-1.0,223.6656868028046,20133766.498116273,20133766.498116273,27.293982053795645,7.276766489908618,26053.279089304193,86.00000000000001,51.221006087047904
1306893814.58,2.1528657,6.7472051,3209.18,27.2,4.1,53.6,308394.63,-30315.81,-1.0,225.54461678285887,20349056.095394984,20349056.095394984,25.674505347181345,7.353934712791862,25192.32912277428,84.2,51.25926724190354
1306893815.0,2.153816,6.7476353,3211.46,25.1,3.6,54.0,308466.81,-30263.24,-1.0,231.0005263079745,21281901.25464365,21281901.25464365,23.919071871564107,7.280729776700173,25922.805622640455,84.89999999999999,51.2940299278178
1306893815.42,2.154761,6.748058,3213.16,22.9,3.1,54.4,308538.63,-30211.53,-1.0,228.98899080393463,21703775.264653064,21703775.264653064,25.40242195719099,7.103266308902895,25823.747279562587,83.5,51.32512572834273
1306893815.84,2.1557297,6.7484869,3214.33,20.4,2.6,54.7,308612.31,-30159.02,-1.0,233.57921919762575,23044463.64595205,23044463.64595205,26.811187871309816,7.121030379449732,25528.260499115757,83.7,51.35221015528937
1306893816.26,2.1567144,6.7489189,3214.97,17.4,2.1,55.0,308687.19,-30106.07,-1.0,236.42932484778143,23998974.49346826,23998974.49346826,26.27487111430612,7.201348338023979,25619.802742971555,86.8,51.3752755533646
1306893816.69,2.1577425,6.7493663,3215.05,13.9,1.7,55.2,308765.44,-30051.2,-1.0,240.242898951638,24166503.371352524,24166503.371352524,26.224857629359878,7.495243280020687,26089.248713165016,85.5,51.394390820206254
1306893817.11,2.1587304,6.7497934,3214.61,9.8,1.3,55.4,308840.63,-29998.79,-1.0,236.1733155534308,25113632.661704563,25113632.661704563,24.289012792045675,7.743182586924031,26188.49241137706,87.9,51.40945643700416
1306893817.53,2.1597571,6.7502351,3213.63,5.7,1.0,55.4,308918.78,-29944.55,-1.0,244.39362160183856,26804313.295586847,26804313.295586847,24.78530893169596,7.68163172966956,26608.025905315786,90.1,51.42038819553434
1306893817.96,2.1607828,6.7506753,3212.16,1.4,0.7,55.4,308996.84,-29890.5,-1.0,238.71425919351125,27079546.12858413,27079546.12858413,24.289888734547954,7.7512484182233585,25818.809505037305,88.80000000000001,51.427293269900034
1306893818.38,2.1617963,6.7511099,3210.27,-3.0,0.5,55.4,309074.03,-29837.11,-1.0,241.37391610752258,29949384.277880203,29949384.277880203,23.987034966917047,7.655228858055267,25429.98247918459,90.7,51.43024055773906
1306893818.81,2.1628278,6.7515531,3207.96,-7.2,0.3,55.5,309152.53,-29782.69,-1.0,240.0868549971521,33133586.992230494,33133586.992230494,25.617433029759184,7.45461622848238,26344.90523376213,93.80000000000001,51.429306611982284
1306893819.23,2.1638493,6.7519938,3205.32,-11.2,0.3,55.3,309230.28,-29728.59,-1.0,243.51553969297666,35201603.78076495,35201603.78076495,25.74044694240954,7.427885992460398,25927.292480982756,91.7,51.42460626202603
1306893819.66,2.1648982,6.7524496,3202.32,-15.0,0.3,55.1,309310.09,-29672.67,-1.0,244.6945409147655,37760308.89085564,37760308.89085564,23.982634407036464,7.726351919300744,26207.644422301102,92.20000000000002,51.41630792431823
1306893820.08,2.1658938,6.7528864,3199.25,-18.0,0.2,54.8,309385.81,-29619.13,-1.0,238.97191566966387,39538541.26166698,39538541.26166698,23.55055380278657,7.6174534822253,26361.013747886806,93.2,51.40476374234098
1306893820.5,2.1669026,6.7533344,3195.98,-20.1,0.2,54.4,309462.5,-29564.29,-1.0,242.74272540749323,41207513.17473638,41207513.17473638,23.532405744256128,7.6319414740099285,25871.261822129218,91.60000000000001,51.39022634076618
1306893820.92,2.1679161,6.7537908,3192.83,-20.9,4.8,54.0,309539.47,-29508.48,-1.0,244.732759527224,41431938.18732825,41431938.18732825,23.74773343649526,7.452501536523755,25357.01814805623,91.3,51.37321627952383
1306893821.34,2.1688919,6.7542387,3192.14,-25.1,8.5,53.2,309613.56,-29453.8,-1.0,237.66823641166536,42580235.286370605,42580235.286370605,25.925436404854793,7.197477441774635,25126.832767972017,88.7,51.356014835954284
1306893821.76,2.1698638,6.7546976,3194.91,-25.0,10.2,52.3,309687.25,-29397.93,-1.0,238.90647389064065,44273403.779943995,44273403.779943995,25.65153271643549,7.260459622080099,24866.420246112415,88.10000000000001,51.34168412729287
1306893822.19,2.1708609,6.7551802,3201.02,-25.0,10.5,51.8,309762.75,-29339.28,-1.0,241.58087973136503,45790438.16920819,45790438.16920819,24.49861394637635,7.127556243285795,25358.98599516053,86.9,51.33315613079243
1306893822.61,2.1718113,6.7556475,3209.17,-25.2,11.7,51.3,309834.66,-29282.58,-1.0,237.7902550567245,45661631.51844882,45661631.51844882,23.931511362067646,7.009770605572736,25299.061657937622,84.70000000000002,51.3323140485527
1306893823.04,2.1727575,6.756118,3219.21,-25.5,12.4,51.0,309906.22,-29225.54,-1.0,233.05562492104622,47770179.26436471,47770179.26436471,24.402404936132378,7.216766309109311,25188.568144340177,84.30000000000001,51.34092625327712
1306893823.47,2.1737091,6.7565951,3230.93,-25.8,12.5,50.8,309978.16,-29167.74,-1.0,235.31971748349733,48640574.10601495,48640574.10601495,24.791183647405262,7.153495864185494,25374.85746605,86.00000000000001,51.360531458876416
1306893823.89,2.1746357,6.7570613,3243.39,-26.0,11.9,50.8,310048.22,-29111.28,-1.0,235.26165522497433,47267928.83491129,47267928.83491129,26.79736295172157,7.177508516873747,25030.035942239483,87.60000000000001,51.391971747590325
1306893824.31,2.1755589,6.7575255,3256.18,-26.0,11.3,50.8,310118.0,-29055.05,-1.0,234.50863283412394,47694786.93396878,47694786.93396878,26.728561136633772,7.393398977743917,24836.972081202868,89.70000000000002,51.43555333114238
1306893824.73,2.1764592,6.7579767,3268.58,-25.6,10.7,50.9,310186.06,-29000.39,-1.0,228.8908916825493,46846184.505085215,46846184.505085215,28.93502586758407,7.424018471582347,25469.632574279687,88.00000000000001,51.491130758963905
1306893825.15,2.1773866,6.7584396,3281.03,-25.0,10.3,51.1,310256.19,-28944.28,-1.0,234.8135562985326,44809965.22521789,44809965.22521789,28.66376405350395,7.640171922644944,25574.939540463598,88.40000000000002,51.558650444003284
1306893825.57,2.1783294,6.758908,3293.31,-24.1,10.3,51.3,310327.47,-28887.49,-1.0,237.84569470448898,42616694.82725735,42616694.82725735,26.727627177264942,7.547789695944762,25436.972126839835,90.80000000000001,51.636099044178245
1306893825.99,2.1792834,6.7593794,3305.41,-22.9,10.3,51.5,310399.66,-28830.3,-1.0,240.01339973123663,40148907.173629984,40148907.173629984,28.139635647353373,7.389349431526115,25601.8317926461,92.0,51.72069003280467
1306893826.41,2.1802533,6.7598559,3317.5,-21.5,10.2,51.7,310473.03,-28772.47,-1.0,243.08740909385804,36818744.632559925,36818744.632559925,29.54237252819289,7.712995278443652,25251.395354365915,93.70000000000002,51.80985888669794
1306893826.83,2.1812159,6.7603256,3329.48,-19.7,10.5,52.0,310545.88,-28715.43,-1.0,240.88847997908317,32839619.58810376,32839619.58810376,29.90716372701506,7.725780549990532,25706.731102350142,96.00000000000001,51.90195971784404
1306893827.25,2.1821918,6.7607981,3341.82,-17.4,11.1,52.3,310619.75,-28658.01,-1.0,243.378728409673,30929707.932920847,30929707.932920847,28.03538386382167,7.567488579350747,25093.4258558766,95.50000000000001,51.995821266400476
1306893827.67,2.1831993,6.7612821,3355.06,-14.9,12.0,52.5,310696.06,-28599.15,-1.0,250.20341236035918,30260519.07911803,30260519.07911803,29.360357812520157,7.543302989892525,25353.97661298421,95.70000000000002,52.09084641950634
1306893828.09,2.1841999,6.7617589,3369.03,-13.5,12.8,52.8,310771.88,-28541.12,-1.0,248.2611923384696,29481101.06620737,29481101.06620737,29.105567150861035,7.402906069172714,25157.457984993343,94.5,52.18702752186854
