timestamp,longitude,latitude,altitude,roll,pitch,yaw,u,v,heading,air_speed,engine_0,engine_1,engine_2,engine_3,temperature_in,humidity_in,pressure_in,heart_rate,oxygen_mask
1306893651.15,5.8544104,3.9282649,-1.0,-1.0,1.1,-1.0,634916.31,-318222.81,-1.0,50.03768929419622,21371702.26022393,21371702.26022393,21371702.26022393,21371702.26022393,26.510487889335664,7.1674071275436315,25073.651280451966,93.30000000000001,27.306252564392498
1306893663.79,5.86171,3.9296268,-1.0,-1.0,1.0,-1.0,635506.5,-318008.31,-1.0,50.03768929419622,25612757.17339503,25612757.17339503,25612757.17339503,25612757.17339503,24.821043420200056,7.181258822587437,24545.350010924638,93.30000000000001,27.23334355301892
1306893705.11,5.9020464,3.9372573,99.6,1.1,6.6,-1.0,638766.06,-316810.41,-1.0,84.31027827999617,24926402.751267295,24926402.751267295,24926402.751267295,24926402.751267295,24.52557613340472,7.3195483530627925,24472.651130326103,93.4,27.23684967725339
1306893705.97,5.9030301,3.9374466,99.04,1.1,6.5,77.0,638845.56,-316780.81,-1.0,98.82950318745638,14651657.609383143,14651657.609383143,14651657.609383143,14651657.609383143,25.821884076940933,7.278106651212581,25061.94567694365,95.30000000000001,27.238832398163275
1306893706.19,5.9032916,3.9374964,98.64,1.1,6.4,77.0,638866.69,-316773.0,-1.0,102.60552679231037,12913524.271423776,12913524.271423776,12913524.271423776,12913524.271423776,27.781019039412868,7.046081509939404,25323.974392714666,93.6,27.240041934471236
1306893706.63,5.9037975,3.9375924,97.65,1.1,6.3,77.0,638907.56,-316757.94,-1.0,99.22011548662987,12913524.271423774,12913524.271423774,12913524.271423774,12913524.271423774,27.781019039412868,7.046081509939404,25323.974392714663,93.6,27.24004193447123
1306893706.84,5.9040524,3.9376405,97.06,1.1,6.2,77.0,638928.13,-316750.38,-1.0,104.59647900360753,14651657.609383142,14651657.609383142,14651657.609383142,14651657.609383142,25.82188407694093,7.278106651212581,25061.94567694365,95.30000000000001,27.238832398163268
1306893707.05,5.9042916,3.9376854,96.45,1.1,6.1,77.1,638947.44,-316743.28,-1.0,98.22176902852085,24926402.751267295,24926402.751267295,24926402.751267295,24926402.751267295,24.52557613340472,7.3195483530627925,24472.6511303261,93.4,27.23684967725338
1306893707.48,5.9048008,3.9377805,95.02,1.1,6.0,77.1,638988.63,-316728.31,-1.0,102.19680808811309,25612757.173395038,25612757.173395038,25612757.173395038,25612757.173395038,24.821043420200056,7.181258822587438,24545.350010924634,93.30000000000001,27.233343553018916
1306893707.7,5.9050568,3.937828,94.24,1.0,5.9,77.1,639009.31,-316720.78,-1.0,100.32132719968853,21371702.260223925,21371702.260223925,21371702.260223925,21371702.260223925,26.510487889335668,7.167407127543631,25073.651280451966,93.30000000000001,27.306252564392494
1306893708.12,5.9055605,3.9379211,92.64,1.0,6.0,77.2,639050.06,-316706.06,-1.0,103.46033258753401,13433897.00190994,13433897.00190994,13433897.00190994,13433897.00190994,28.702607204857248,7.204162562699205,25653.605955700477,93.4,27.37793672887193
1306893708.34,5.9058213,3.937969,91.83,0.9,6.1,77.2,639071.13,-316698.47,-1.0,102.10009792450819,3552435.467431008,3552435.467431008,3552435.467431008,3552435.467431008,29.11607342590065,7.122396104944861,25613.91118789625,92.8,27.449000814611214
1306893708.56,5.906095,3.9380192,91.05,0.9,6.3,77.2,639093.25,-316690.5,-1.0,107.16151099176727,7450487.564722869,7450487.564722869,7450487.564722869,7450487.564722869,28.14359714772349,7.277151395626736,25902.04654385892,93.80000000000001,27.442455539020667
1306893708.77,5.906343,3.9380645,90.43,0.9,6.5,77.2,639113.31,-316683.31,-1.0,101.76230976474069,5406610.325064779,5406610.325064779,5406610.325064779,5406610.325064779,26.14820664998467,7.303786157460094,25566.487506321384,92.9,27.435864331671585
1306893708.99,5.9066061,3.9381124,89.89,0.8,6.9,77.2,639134.63,-316675.72,-1.0,103.15059666991547,5191246.720046033,5191246.720046033,5191246.720046033,5191246.720046033,24.653626495699704,7.446944323903906,25414.04061800088,93.0,27.429165950219268
1306893709.21,5.9068687,3.9381601,89.5,0.7,7.3,77.3,639155.81,-316668.13,-1.0,102.52747481703074,4931222.389338355,4931222.389338355,4931222.389338355,4931222.389338355,24.722724431934843,7.550026857193098,25456.012245591475,94.0,27.42292688635225
1306893709.42,5.9071305,3.9382076,89.29,0.7,7.8,77.3,639177.0,-316660.56,-1.0,107.39863405679675,1400636.2206865763,1400636.2206865763,1400636.2206865763,1400636.2206865763,26.034910499668285,7.651922770013263,25811.326904882844,90.7,27.41697872362259
1306893709.63,5.9073892,3.9382543,89.3,0.6,8.3,77.3,639197.94,-316653.13,-1.0,106.06145307475794,1193972.7373702915,1193972.7373702915,1193972.7373702915,1193972.7373702915,27.830182199536917,7.553785545443407,25898.288877710056,90.7,27.411505189064414
1306893709.84,5.9076359,3.9382989,89.52,0.6,8.8,77.3,639217.88,-316646.03,-1.0,101.05431531376114,1417117.1185647105,1417117.1185647105,1417117.1185647105,1417117.1185647105,25.79857045563143,7.551041014687986,25997.390267252726,92.2,27.407294777865815
1306893710.06,5.907906,3.9383477,90.0,0.5,9.2,77.3,639239.75,-316638.25,-1.0,105.78674602448923,1113528.8787754655,1113528.8787754655,1113528.8787754655,1113528.8787754655,25.62360975147702,7.503141915166561,25100.35045782172,92.3,27.40404893359634
1306893710.27,5.908164,3.9383942,90.7,0.4,9.4,77.3,639260.63,-316630.84,-1.0,105.81291928869382,2760845.369233943,2760845.369233943,2760845.369233943,2760845.369233943,25.46713956431503,7.715381340228409,24322.94273382258,92.20000000000002,27.402563806737195
1306893710.48,5.9084208,3.9384406,91.61,0.3,9.6,77.4,639281.38,-316623.44,-1.0,105.24323415432733,552746.2222801106,552746.2222801106,552746.2222801106,552746.2222801106,25.320747128303456,7.737661144301294,24883.816040047837,92.2,27.402395390289257
1306893710.69,5.9086776,3.938487,92.71,0.3,9.7,77.4,639302.19,-316616.06,-1.0,105.53012721784435,1119798.7315859483,1119798.7315859483,1119798.7315859483,1119798.7315859483,24.988566789788575,7.650931638186471,24315.45937676741,90.00000000000001,27.403666168941925
1306893710.9,5.9089318,3.938533,93.98,0.2,9.8,77.4,639322.75,-316608.72,-1.0,104.38059527129442,1472111.0645541977,1472111.0645541977,1472111.0645541977,1472111.0645541977,27.504611941820084,7.753045032331576,24017.651367770195,90.2,27.40638379798829
1306893711.32,5.9094375,3.9386247,96.95,0.1,9.7,77.4,639363.63,-316594.13,-1.0,103.83739859333976,1429868.122640893,1429868.122640893,1429868.122640893,1429868.122640893,26.764772568295204,7.689777088916999,24310.821129921893,89.1,27.411788434908683
1306893711.54,5.9096998,3.9386725,98.68,0.0,9.6,77.4,639384.88,-316586.53,-1.0,103.13010231243595,6838877.336923874,6838877.336923874,6838877.336923874,6838877.336923874,25.763747699434084,7.736674191694069,23764.568157570076,85.8,27.418815993963797
1306893711.76,5.9099741,3.9387226,100.6,0.0,9.5,77.4,639407.06,-316578.59,-1.0,107.67801857578677,7281661.424363685,7281661.424363685,7281661.424363685,7281661.424363685,23.921839879139636,7.43421880661554,23021.398999579666,87.0,27.42747413044674
1306893711.97,5.9102324,3.9387699,102.5,-0.1,9.4,77.4,639427.94,-316571.09,-1.0,106.27057015632236,4321943.601392761,4321943.601392761,4321943.601392761,4321943.601392761,23.026702193937066,7.537120749530864,22935.836539344764,86.60000000000001,27.437579117323377
1306893712.18,5.9104771,3.9388149,104.37,-0.1,9.3,77.4,639447.69,-316563.97,-1.0,100.60490525647921,6724805.494075812,6724805.494075812,6724805.494075812,6724805.494075812,23.56168006654855,7.613396184722487,22906.857976889005,86.20000000000002,27.4489472275596
1306893712.39,5.9107375,3.9388629,106.4,-0.1,9.1,77.4,639468.75,-316556.34,-1.0,107.32202865973278,8497562.820090542,8497562.820090542,8497562.820090542,8497562.820090542,23.19180913487851,7.473190653150502,23590.560122536863,86.39999999999999,27.461501908224516
1306893712.61,5.9110073,3.9389129,108.56,-0.2,9.0,77.4,639490.56,-316548.44,-1.0,106.11775821976853,3301563.432185725,3301563.432185725,3301563.432185725,3301563.432185725,23.313023800761048,7.301977218999289,23897.948960353813,84.80000000000001,27.47517426168033
1306893712.82,5.9112613,3.9389601,110.61,-0.2,8.8,77.4,639511.13,-316541.0,-1.0,104.84499285744884,3332760.007911558,3332760.007911558,3332760.007911558,3332760.007911558,24.52866859739668,7.2309598625207725,23933.86739331824,86.9,27.489719318548225
1306893713.04,5.9115163,3.9390076,112.67,-0.2,8.6,77.4,639531.75,-316533.5,-1.0,100.39554718753314,5703466.1407219805,5703466.1407219805,5703466.1407219805,5703466.1407219805,25.80938796658573,7.298457099262794,24483.73189805995,86.00000000000001,27.5049992835526
1306893713.26,5.9117882,3.9390585,114.84,-0.2,8.4,77.4,639553.69,-316525.47,-1.0,106.85807985559315,7235424.350935158,7235424.350935158,7235424.350935158,7235424.350935158,23.973221791958213,7.288741100204116,24834.80014406136,86.2,27.520968224934926
1306893713.47,5.9120469,3.9391071,116.82,-0.3,8.1,77.4,639574.63,-316517.81,-1.0,106.79938124739994,5043606.448458028,5043606.448458028,5043606.448458028,5043606.448458028,25.445277161029086,7.4517605605316755,24231.727979806208,87.0,27.536179292301508
1306893713.68,5.9122922,3.9391535,118.61,-0.3,7.8,77.4,639594.44,-316510.53,-1.0,101.06686162096754,7816532.798347052,7816532.798347052,7816532.798347052,7816532.798347052,24.6535204708097,7.590827248910016,24123.46556159388,90.39999999999999,27.551436291426615
1306893713.89,5.9125523,3.9392028,120.38,-0.3,7.6,77.4,639615.44,-316502.78,-1.0,107.11534774805992,9721313.93096079,9721313.93096079,9721313.93096079,9721313.93096079,26.99953182320103,7.731932369979539,24915.953705610256,90.2,27.5665784611554
1306893714.11,5.912821,3.939254,122.05,-0.3,7.3,77.4,639637.13,-316494.75,-1.0,105.59096727375388,4583002.0350230485,4583002.0350230485,4583002.0350230485,4583002.0350230485,25.726236050333572,7.541167505279192,25077.002745487647,90.90000000000002,27.581544559143154
1306893714.32,5.9130755,3.9393026,123.46,-0.3,7.0,77.3,639657.69,-316487.13,-1.0,104.81408954726314,4967287.629462283,4967287.629462283,4967287.629462283,4967287.629462283,27.07859831799326,7.691621659163714,24798.171840416755,91.20000000000002,27.596158513648838
1306893714.53,5.9133279,3.9393509,124.68,-0.2,6.8,77.3,639678.06,-316479.56,-1.0,103.8270133910237,5542710.282512412,5542710.282512412,5542710.282512412,5542710.282512412,26.7061953743658,7.846276950001216,25060.77262905233,89.00000000000001,27.610152389414367
1306893714.75,5.9135929,3.9394018,125.75,-0.2,6.6,77.3,639699.5,-316471.59,-1.0,104.26541812660405,4768219.919441429,4768219.919441429,4768219.919441429,4768219.919441429,25.11806944446454,8.048500693832638,24926.217209820814,89.60000000000001,27.623311838233267
1306893714.97,5.9138548,3.9394522,126.6,-0.2,6.4,77.3,639720.63,-316463.72,-1.0,102.74402346120162,4569630.497026005,4569630.497026005,4569630.497026005,4569630.497026005,23.83505945241091,7.967850748009093,24165.27566291554,88.90000000000002,27.63555265188156
1306893715.18,5.914116,3.9395025,127.26,-0.2,6.3,77.3,639741.75,-316455.88,-1.0,107.5032713221326,10387014.778744416,10387014.778744416,10387014.778744416,10387014.778744416,23.034512325966936,7.711156788684896,23937.28710849444,90.10000000000001,27.646721724497485
1306893715.61,5.9146413,3.9396038,128.08,-0.1,6.4,77.3,639784.13,-316440.03,-1.0,105.41278290377686,6724855.555979398,6724855.555979398,6724855.555979398,6724855.555979398,24.749906579952064,7.456188389258904,23752.475167336503,90.0,27.65685733254648
1306893715.82,5.9149018,3.9396539,128.3,-0.1,6.5,77.3,639805.19,-316432.19,-1.0,107.19016780807283,3518488.767626687,3518488.767626687,3518488.767626687,3518488.767626687,24.82574713260812,7.501691999783797,23943.157192219962,92.0,27.665645609011918
1306893716.03,5.9151629,3.9397042,128.41,-0.1,6.6,77.3,639826.25,-316424.31,-1.0,107.24429041168776,2891858.494714626,2891858.494714626,2891858.494714626,2891858.494714626,24.90642787731059,7.374137846692902,24162.177326022327,91.9,27.673147796238514
1306893716.24,5.915416,3.9397529,128.44,-0.0,6.8,77.3,639846.69,-316416.72,-1.0,104.01098915620678,9335368.41205126,9335368.41205126,9335368.41205126,9335368.41205126,23.782059990947143,7.417657495304143,23331.255368621223,94.10000000000002,27.679317962467735
1306893716.46,5.9156932,3.9398062,128.41,-0.0,6.9,77.3,639869.06,-316408.38,-1.0,108.69020486743281,9479032.455733372,9479032.455733372,9479032.455733372,9479032.455733372,23.49071105144047,7.465993961920825,23171.2489199193,94.30000000000001,27.684186728871932
1306893716.67,5.9159499,3.9398554,128.33,0.1,7.0,77.3,639889.81,-316400.66,-1.0,105.60579051024803,9638575.104314044,9638575.104314044,9638575.104314044,9638575.104314044,22.29654250908006,7.519548236387161,23457.383922313704,92.30000000000001,27.687914856605964
1306893716.9,5.9162321,3.9399096,128.21,0.1,7.1,77.3,639912.63,-316392.19,-1.0,106.01458124803405,4884328.582266878,4884328.582266878,4884328.582266878,4884328.582266878,23.23916045471787,7.544385914989745,22824.507017179512,94.10000000000001,27.69061717506616
1306893717.11,5.9164938,3.9399597,128.08,0.1,7.2,77.3,639933.75,-316384.34,-1.0,107.47365067092414,1037310.7618908243,1037310.7618908243,1037310.7618908243,1037310.7618908243,22.616181790551888,7.564645855350225,23074.24132419348,91.8,27.692400858355747
1306893717.33,5.9167811,3.9400146,127.92,0.2,7.2,77.3,639956.94,-316375.72,-1.0,112.63031948565727,3418326.035621794,3418326.035621794,3418326.035621794,3418326.035621794,22.388135451774012,7.5845792712480895,23762.273252558378,90.3,27.693411357043413
1306893717.54,5.9170365,3.9400634,127.77,0.2,7.3,77.3,639977.56,-316368.09,-1.0,104.88805119645824,3107228.583667308,3107228.583667308,3107228.583667308,3107228.583667308,23.164076414378997,7.783301908337037,24310.190616760345,89.19999999999999,27.693801776990917
1306893717.75,5.9173063,3.940115,127.61,0.2,7.4,77.3,639999.38,-316360.0,-1.0,110.99732017892659,987249.8729538321,987249.8729538321,987249.8729538321,987249.8729538321,21.40551588658136,7.870758216539483,24990.18511306202,90.5,27.693441978215766
1306893717.96,5.9175654,3.9401644,127.46,0.3,7.5,77.4,640020.31,-316352.25,-1.0,106.46775347097662,6332948.050410716,6332948.050410716,6332948.050410716,6332948.050410716,22.032509749434507,7.544948042930914,25211.310446602107,89.2,27.692798933596343
1306893718.59,5.9183634,3.9403164,127.1,0.3,7.7,77.4,640084.75,-316328.41,-1.0,109.2464745618632,6943973.107679251,6943973.107679251,6943973.107679251,6943973.107679251,24.261340441981417,7.678608280139123,25586.905756250828,88.20000000000002,27.691796090201763
1306893719.02,5.9189079,3.9404199,126.96,0.4,7.7,77.4,640128.75,-316312.19,-1.0,109.24710684371225,1655886.0725087572,1655886.0725087572,1655886.0725087572,1655886.0725087572,24.818372542039533,7.702089912138425,26085.555505575157,86.80000000000001,27.690663106824687
1306893719.44,5.9194405,3.9405209,126.96,0.4,8.0,77.4,640171.81,-316296.31,-1.0,109.46233167873005,2927861.123903456,2927861.123903456,2927861.123903456,2927861.123903456,26.67020988307727,7.71015047148048,26946.54797193555,86.20000000000002,27.68955308932688
1306893719.65,5.9197127,3.9405725,126.96,0.4,8.1,77.4,640193.75,-316288.19,-1.0,111.58253158856003,5964467.698095683,5964467.698095683,5964467.698095683,5964467.698095683,25.86461384518566,7.740177299694256,27100.54032855349,88.70000000000002,27.688504314173777
1306893719.88,5.9199995,3.9406268,127.04,0.4,8.2,77.4,640216.94,-316279.66,-1.0,107.62646856664415,8234107.193630847,8234107.193630847,8234107.193630847,8234107.193630847,24.49729478024724,7.8908785164390185,27710.8159684898,90.80000000000001,27.687608644882438
1306893720.09,5.9202739,3.9406787,127.15,0.4,8.3,77.4,640239.13,-316271.5,-1.0,112.77615387830963,9015338.499096602,9015338.499096602,9015338.499096602,9015338.499096602,26.924517765306234,7.832184171403133,27313.942364647555,93.10000000000001,27.686896702625216
1306893720.3,5.9205489,3.9407307,127.3,0.4,8.4,77.4,640261.31,-316263.34,-1.0,112.73167748026337,477090.4589247517,477090.4589247517,477090.4589247517,477090.4589247517,29.414294037002467,8.166461440351966,26523.132335084407,94.90000000000002,27.686422074453738
1306893720.51,5.9208127,3.9407806,127.48,0.4,8.5,77.4,640282.63,-316255.5,-1.0,108.36878573864765,1505973.9263868895,1505973.9263868895,1505973.9263868895,1505973.9263868895,28.977765817657236,8.163550552646548,26334.071048664162,97.20000000000002,27.686200070954172
1306893720.95,5.9213881,3.9408892,128.02,0.4,8.5,77.5,640329.13,-316238.41,-1.0,112.79103657417355,2270952.3485565106,2270952.3485565106,2270952.3485565106,2270952.3485565106,28.923625799077556,8.235373186914874,26099.6488314795,94.00000000000001,27.686513937970794
1306893721.37,5.9219278,3.940991,128.65,0.4,8.4,77.5,640372.75,-316222.38,-1.0,110.85152495405801,2153292.8175383313,2153292.8175383313,2153292.8175383313,2153292.8175383313,27.1706665604195,8.565822577718054,25997.32368114134,93.2,27.687424917848315
1306893722.01,5.9227501,3.9411461,129.81,0.4,8.3,77.5,640439.19,-316197.97,-1.0,110.80572939515851,447056.3326394068,447056.3326394068,447056.3326394068,447056.3326394068,26.709161383890756,8.289469312654164,25420.918874142004,93.1,27.689499502275254
1306893722.66,5.9235995,3.9413063,131.14,0.4,8.2,77.5,640507.81,-316172.78,-1.0,112.66933644393804,7748318.083209259,7748318.083209259,7748318.083209259,7748318.083209259,27.190838918669094,8.223701169159408,25569.066133917753,92.3,27.69269941478619
1306893723.51,5.9247183,3.9415172,133.02,0.4,8.2,77.6,640598.19,-316139.59,-1.0,113.48555489143473,10006737.419492498,10006737.419492498,10006737.419492498,10006737.419492498,26.054785639568745,8.453834993094771,25022.528575597742,93.6,27.69733852239774
1306893723.72,5.9249947,3.9415694,133.5,0.4,8.1,77.6,640620.56,-316131.38,-1.0,113.68682079400998,7502617.9588927245,7502617.9588927245,7502617.9588927245,7502617.9588927245,26.084565257065414,8.148158922361695,24746.993447581564,90.5,27.702345084077535
1306893724.98,5.9266557,3.9418832,136.44,0.4,8.1,77.6,640754.75,-316082.03,-1.0,113.68668478418519,9775097.594814623,9775097.594814623,9775097.594814623,9775097.594814623,27.50023807646414,7.932687785171585,24600.98345534682,87.8,27.709541059580598
1306893726.47,5.9286492,3.9422599,140.2,0.4,8.1,77.7,640915.81,-316022.78,-1.0,115.39065868345453,5352178.779950643,5352178.779950643,5352178.779950643,5352178.779950643,25.08835666973442,7.641992682293669,25282.28253829444,88.60000000000001,27.71953121706091
1306893728.18,5.93095,3.9426942,144.97,0.4,8.1,77.7,641101.69,-315954.44,-1.0,116.03636020972351,1624104.370667962,1624104.370667962,1624104.370667962,1624104.370667962,24.232617896218528,7.3326971807159165,25885.09629970282,88.60000000000001,27.733058119948055
1306893729.46,5.9326953,3.9430227,148.92,0.4,8.1,77.8,641242.69,-315902.69,-1.0,117.57028552953714,2920657.8503275607,2920657.8503275607,2920657.8503275607,2920657.8503275607,24.75062102542027,7.3140702462014255,25653.63257479822,87.10000000000001,27.749471068329505
1306893731.35,5.9352955,3.9435133,155.3,0.4,8.1,77.8,641452.75,-315825.5,-1.0,118.64280361849478,2304634.419162549,2304634.419162549,2304634.419162549,2304634.419162549,25.267030609875214,7.091213430701264,25235.36270488375,88.2,27.770354707874557
1306893732.82,5.9373202,3.9438942,160.65,0.4,8.1,77.9,641616.38,-315765.47,-1.0,118.81117667797223,2737065.146168811,2737065.146168811,2737065.146168811,2737065.146168811,25.34869944905531,7.123991472191474,25457.16339527873,89.30000000000001,27.794851645757326
1306893733.45,5.9382029,3.9440604,163.07,0.3,8.1,77.9,641687.69,-315739.31,-1.0,120.8140239777668,3416753.203642071,3416753.203642071,3416753.203642071,3416753.203642071,24.78065658550848,7.093631083048508,25526.02698421083,89.20000000000002,27.820313150569223
1306893734.93,5.9402798,3.9444519,168.98,0.3,8.1,77.9,641855.44,-315677.66,-1.0,121.00573305562074,3121236.69526524,3121236.69526524,3121236.69526524,3121236.69526524,23.62071884110094,7.056841793091813,24917.60205456924,91.20000000000002,27.84928077961559
1306893735.99,5.941762,3.9447322,173.38,0.4,8.1,77.9,641975.19,-315633.56,-1.0,120.64038850334565,2972648.839168332,2972648.839168332,2972648.839168332,2972648.839168332,23.18872910984708,6.900732366956413,25114.822001762015,90.60000000000001,27.88017754252023
1306893736.44,5.9423976,3.9448525,175.31,0.4,8.1,78.0,642026.56,-315614.63,-1.0,121.91307746863218,3068523.2131687347,3068523.2131687347,3068523.2131687347,3068523.2131687347,23.909632629401187,7.1101830195164,25652.04599530344,90.00000000000001,27.912184322922677
1306893738.57,5.9454272,3.9454275,184.83,0.4,8.1,78.0,642271.25,-315524.25,-1.0,122.7185922222865,2721092.46020222,2721092.46020222,2721092.46020222,2721092.46020222,24.330219293179567,7.110304368976713,25776.896839356777,89.80000000000001,27.949228286177274
1306893739.0,5.9460384,3.9455438,186.82,0.5,8.1,78.0,642320.63,-315506.0,-1.0,122.68875349466781,2741260.9673244106,2741260.9673244106,2741260.9673244106,2741260.9673244106,24.30275265675757,7.144381963709257,25636.164715826562,90.50000000000001,27.984917262555225
1306893739.44,5.9466693,3.9456639,188.89,0.5,8.1,78.1,642371.56,-315487.13,-1.0,123.69619505670559,3319843.4132917696,3319843.4132917696,3319843.4132917696,3319843.4132917696,23.719284081480964,7.417242575113483,25653.83722507984,89.80000000000001,28.018539309799316
1306893740.92,5.9488007,3.94607,196.05,0.6,8.1,78.1,642543.69,-315423.38,-1.0,124.28591778525566,3164829.2932262276,3164829.2932262276,3164829.2932262276,3164829.2932262276,23.70624497450394,7.434951795620878,25324.69674661771,91.0,28.054618706124774
1306893741.13,5.9490975,3.9461266,197.06,0.6,8.1,78.1,642567.69,-315414.5,-1.0,122.12337951099484,3306456.640186014,3306456.640186014,3306456.640186014,3306456.640186014,23.094428518933313,7.6459613935863775,25810.69465185992,90.80000000000001,28.086587210061786
1306893741.99,5.9503361,3.9463638,201.35,0.6,8.1,78.2,642667.69,-315377.31,-1.0,124.32055445108887,6375285.546869989,6375285.546869989,6375285.546869989,6375285.546869989,24.03424922004705,7.65366414069171,25762.551186411783,88.3,28.117744252931423
1306893742.62,5.9512506,3.9465399,204.56,0.7,8.1,78.2,642741.5,-315349.75,-1.0,125.3160203030781,8371425.3400177015,8371425.3400177015,8371425.3400177015,8371425.3400177015,23.95846094219,7.647569462387596,25875.948082982934,86.1,28.149506063955048
1306893743.26,5.9521757,3.9467188,207.85,0.7,8.1,78.2,642816.19,-315321.75,-1.0,124.88650347108648,10519597.551236805,10519597.551236805,10519597.551236805,10519597.551236805,23.949832024099575,7.603242811876636,25954.333617495373,84.9,28.17926218818952
1306893743.69,5.9528047,3.9468405,210.11,0.8,8.1,78.2,642867.0,-315302.72,-1.0,126.43456912414604,13597572.147934979,13597572.147934979,13597572.147934979,13597572.147934979,26.219617496009462,7.535795473760597,26140.276195854596,85.0,28.20738007970308
1306893743.91,5.9531262,3.9469027,211.28,0.8,8.1,78.3,642892.94,-315293.03,-1.0,126.13080250195101,12651337.618069632,12651337.618069632,12651337.618069632,12651337.618069632,27.354671404223595,7.622003927969287,25796.973394040375,85.89999999999999,28.234916168941922
1306893744.57,5.9540805,3.9470867,214.75,0.9,8.1,78.3,642970.0,-315264.22,-1.0,124.91244247326406,10060738.430666313,10060738.430666313,10060738.430666313,10060738.430666313,27.769315699442352,7.708664787995018,25434.80833585227,87.2,28.257820805862305
1306893745.0,5.9547097,3.9472078,217.07,0.9,8.1,78.3,643020.75,-315245.25,-1.0,126.26450457045655,8947910.827729901,8947910.827729901,8947910.827729901,8947910.827729901,29.675780162089964,7.787694627583379,24726.92991949012,85.39999999999999,28.28097806745461
1306893745.42,5.9553223,3.9473255,219.34,0.9,8.1,78.4,643070.25,-315226.81,-1.0,126.04143936284589,6725779.185495881,6725779.185495881,6725779.185495881,6725779.185495881,30.86893418032343,7.645006253156363,24546.073400240344,83.89999999999999,28.304288434908678
1306893745.84,5.9559418,3.9474442,221.65,1.0,8.1,78.4,643120.25,-315208.19,-1.0,127.3091510998907,5269403.886905854,5269403.886905854,5269403.886905854,5269403.886905854,29.216518638951115,7.477247193644588,25204.616759348533,84.2,28.32388598521489
1306893746.5,5.9569117,3.9476296,225.3,1.0,8.1,78.4,643198.56,-315179.09,-1.0,126.85903944038817,5980938.406661285,5980938.406661285,5980938.406661285,5980938.406661285,28.955510788010976,7.254560455174766,25201.033160311916,83.60000000000001,28.345504532896435
1306893746.72,5.9572336,3.947691,226.52,1.0,8.1,78.5,643224.56,-315169.47,-1.0,126.30111236155547,5552835.685617474,5552835.685617474,5552835.685617474,5552835.685617474,27.46052666381701,7.121181467628497,25046.373546791336,86.50000000000001,28.36477290559984
1306893748.04,5.959185,3.9480616,234.01,1.0,8.1,78.6,643382.19,-315111.22,-1.0,127.60404309066719,5626164.212930708,5626164.212930708,5626164.212930708,5626164.212930708,27.80207100768505,7.314503268298055,24937.608646675788,87.20000000000002,28.387317743745076
1306893748.89,5.9604382,3.9482982,238.89,0.9,8.1,78.6,643483.44,-315073.94,-1.0,127.23977147580253,6283148.940073736,6283148.940073736,6283148.940073736,6283148.940073736,27.22524534951337,7.4919667371405865,25609.15020900216,87.0,28.411079773491352
1306893750.2,5.9623776,3.9486623,246.56,0.8,8.1,78.6,643640.13,-315016.5,-1.0,127.71025231481563,6804224.407516561,6804224.407516561,6804224.407516561,6804224.407516561,25.967274174169003,7.540892778791057,24923.165733338046,85.7,28.43898331679844
1306893751.06,5.9636698,3.9489037,251.74,0.7,8.1,78.6,643744.5,-314978.34,-1.0,129.54251015076903,8123322.30052362,8123322.30052362,8123322.30052362,8123322.30052362,25.53701631501989,7.583076708419418,24504.491502169036,87.70000000000002,28.469956632633963
1306893751.91,5.9649297,3.9491383,256.85,0.6,8.1,78.6,643846.31,-314941.25,-1.0,127.81059230764366,8646128.898523856,8646128.898523856,8646128.898523856,8646128.898523856,25.449117418148752,7.592754020251607,24839.125306834,86.0,28.502185416535976
1306893752.77,5.9662199,3.9493778,262.14,0.5,8.1,78.6,643950.56,-314903.34,-1.0,129.3272404556147,8573818.582020974,8573818.582020974,8573818.582020974,8573818.582020974,26.17152274258055,7.650875457867662,25379.270233407377,83.9,28.53668782248523
1306893754.06,5.9681591,3.9497368,270.18,0.3,8.1,78.6,644107.31,-314846.44,-1.0,129.61599367359386,8316522.274793185,8316522.274793185,8316522.274793185,8316522.274793185,25.91810464474378,7.565153480623406,25597.063733422667,85.00000000000001,28.575607332546475
1306893754.91,5.9694485,3.9499751,275.6,0.2,8.1,78.6,644211.5,-314808.66,-1.0,130.73898627348177,7285097.09846976,7285097.09846976,7285097.09846976,7285097.09846976,25.058148466737794,7.715479909914345,25688.995302226194,83.60000000000001,28.6169076387582
1306893755.34,5.9700935,3.9500942,278.32,0.2,8.0,78.6,644263.63,-314789.78,-1.0,129.2938947312348,6732138.581439193,6732138.581439193,6732138.581439193,6732138.581439193,26.791613725665368,7.85544828937405,25477.90420828156,84.9,28.657496002712705
1306893755.76,5.9707378,3.9502131,281.06,0.1,8.0,78.6,644315.69,-314770.91,-1.0,132.20161826948697,7579528.819322023,7579528.819322023,7579528.819322023,7579528.819322023,27.813860365472575,7.85114211034469,25414.002275746505,85.80000000000001,28.699247971216643
1306893759.98,5.9771517,3.9513968,308.93,-0.2,8.0,78.6,644834.06,-314583.13,-1.0,131.01308672168292,6441016.95713473,6441016.95713473,6441016.95713473,6441016.95713473,28.131776408538048,7.876001229770924,26076.619674151,85.7,28.756601427034667
1306893776.92,6.0035546,3.9563025,433.14,-0.2,8.0,78.9,646967.38,-313806.03,-1.0,134.41604496844582,5967787.493033353,5967787.493033353,5967787.493033353,5967787.493033353,28.126812173579502,7.869001248655391,26132.09715779455,85.9,28.90530549527613
1306893778.2,6.0055752,3.9566777,443.13,-0.1,8.5,78.9,647130.63,-313746.56,-1.0,136.14769837144556,5751100.473119979,5751100.473119979,5751100.473119979,5751100.473119979,27.145601905963453,7.828071149888759,26603.453068073646,87.4,29.0557855915141
1306893778.63,6.0062622,3.9568058,446.89,-10.5,13.7,78.7,647186.13,-313726.28,-1.0,137.87364369133647,4414760.189432404,4414760.189432404,4414760.189432404,4414760.189432404,27.64515669188852,7.7439235542086164,27437.581216083905,88.1,29.205178636133525
1306893779.05,6.0069263,3.9569355,451.98,-25.5,15.7,77.6,647239.69,-313706.0,-1.0,137.01673064631925,3676922.3773773303,3676922.3773773303,3676922.3773773303,3676922.3773773303,27.389596012300146,7.785692001901087,26949.857558627435,88.2,29.354556370166765
1306893779.47,6.0075721,3.9570752,458.45,-30.1,17.0,76.0,647291.63,-313684.81,-1.0,134.4396508765131,4491503.558057519,4491503.558057519,4491503.558057519,4491503.558057519,25.450995852470953,7.678639532360973,26852.154387417424,88.8,29.50483742878444
1306893779.9,6.0082456,3.9572382,466.66,-33.2,17.9,74.2,647345.56,-313660.78,-1.0,138.45387580942892,7717922.050701116,7717922.050701116,7717922.050701116,7717922.050701116,25.78206807080209,7.851620331307608,26564.073577847692,87.69999999999999,29.65524862738462
1306893780.32,6.0088718,3.9574073,475.49,-38.0,18.6,72.4,647395.56,-313636.47,-1.0,133.69368139129944,10634911.884778772,10634911.884778772,10634911.884778772,10634911.884778772,26.927748991975587,7.977074105087121,26430.15464401553,86.89999999999999,29.808270280927925
1306893780.53,6.0091882,3.9574999,480.34,-39.5,18.7,71.4,647420.69,-313623.38,-1.0,136.41077611317414,19662908.375519395,19662908.375519395,19662908.375519395,19662908.375519395,25.983711181990323,8.059163956584495,26222.38337718753,88.20000000000002,29.962922511899052
1306893780.96,6.0098164,3.9576987,490.61,-40.9,18.5,69.4,647470.5,-313595.75,-1.0,133.5478068468446,27150104.4615982,27150104.4615982,27150104.4615982,27150104.4615982,24.89034487217096,8.033809164079404,26594.30484841693,86.50000000000001,30.12333917856572
1306893781.38,6.0104256,3.9579103,501.21,-42.3,18.7,67.6,647518.56,-313566.88,-1.0,134.43205765834327,33576630.09717365,33576630.09717365,33576630.09717365,33576630.09717365,24.676144107092934,8.054292608808579,26593.88129710543,87.40000000000002,30.27053515406878
1306893781.8,6.0110243,3.958137,512.14,-43.6,18.9,65.8,647565.56,-313536.41,-1.0,134.10033092338773,39272085.936991274,39272085.936991274,39272085.936991274,39272085.936991274,25.196742238019134,7.882403387229406,25781.784734225377,85.9,30.331011969466857
1306893782.22,6.0116093,3.9583775,523.27,-44.3,18.9,64.0,647611.25,-313504.5,-1.0,133.1745433541067,43154336.439251184,43154336.439251184,43154336.439251184,43154336.439251184,24.936158175666215,8.071094383281208,26130.099520310025,87.60000000000001,30.39236148827701
1306893782.65,6.0121899,3.9586355,534.69,-44.7,18.9,62.2,647656.38,-313470.72,-1.0,131.2885836741736,43986821.64778733,43986821.64778733,43986821.64778733,43986821.64778733,24.938639676709013,7.779536671449952,26050.127985804083,84.00000000000001,30.459574961592843
1306893783.07,6.0127402,3.9588987,545.83,-45.2,18.9,60.4,647698.94,-313436.63,-1.0,129.70773007335097,45004627.12644725,45004627.12644725,45004627.12644725,45004627.12644725,22.660400625802772,7.810617576359645,26389.876623395194,86.10000000000001,30.531419887227138
1306893783.5,6.013297,3.9591846,557.42,-45.4,19.1,58.5,647741.81,-313399.94,-1.0,130.82089519552045,46928933.95759203,46928933.95759203,46928933.95759203,46928933.95759203,22.92001224761662,7.976855873204952,26403.508345588736,89.4,30.607184322922677
1306893783.92,6.0138334,3.95948,568.89,-45.6,19.1,56.7,647782.81,-313362.38,-1.0,131.68687499052047,46764228.15337416,46764228.15337416,46764228.15337416,46764228.15337416,23.12319224782523,7.823857624198199,26169.693122112425,91.90000000000002,30.68544438416502
1306893784.34,6.0143472,3.9597826,580.16,-45.8,19.1,54.9,647821.88,-313324.22,-1.0,128.96811160138165,48022701.9668996,48022701.9668996,48022701.9668996,48022701.9668996,23.200709787940898,7.774572356529556,25691.068249985747,93.10000000000002,30.765572336920926
1306893784.76,6.0148564,3.9601029,591.63,-45.9,19.3,53.1,647860.38,-313284.13,-1.0,130.99931350821242,47647652.96369472,47647652.96369472,47647652.96369472,47647652.96369472,23.71863082130458,7.64196252529001,25682.3582727866,91.50000000000001,30.850768093701326
1306893785.18,6.0153345,3.9604237,602.7,-45.9,19.3,51.3,647896.25,-313244.25,-1.0,125.9654770187157,46681822.02579057,46681822.02579057,46681822.02579057,46681822.02579057,26.18229312247923,7.714875469385639,25611.37068879811,90.30000000000001,30.9365762739288
1306893785.61,6.0158226,3.9607731,614.32,-45.9,19.3,49.5,647932.63,-313201.13,-1.0,129.201959710362,45806854.31352262,45806854.31352262,45806854.31352262,45806854.31352262,24.61978074502234,7.7341128296999235,25478.58248447001,89.00000000000001,31.023165294051292
1306893786.03,6.0162826,3.9611245,625.61,-45.9,19.3,47.7,647966.63,-313158.0,-1.0,128.42630850653015,45068531.80789002,45068531.80789002,45068531.80789002,45068531.80789002,25.878712478018464,7.723530442422868,25776.839824261267,91.50000000000001,31.110029904724954
1306893786.45,6.0167214,3.9614819,636.72,-45.9,19.6,45.9,647998.81,-313114.41,-1.0,126.32554926457333,44373726.356962964,44373726.356962964,44373726.356962964,44373726.356962964,27.69475416507802,7.549061414177126,25731.69393869241,90.4,31.196879204812443
1306893786.87,6.0171473,3.9618516,647.87,-45.9,19.6,44.1,648029.81,-313069.56,-1.0,126.84645574761157,43822600.884428374,43822600.884428374,43822600.884428374,43822600.884428374,25.87667037093353,7.576772543196915,25391.14213852045,92.49999999999999,31.283521811986546
1306893787.3,6.0175576,3.9622317,659.0,-45.9,19.6,42.2,648059.38,-313023.69,-1.0,123.5951361706803,43225753.345196545,43225753.345196545,43225753.345196545,43225753.345196545,27.82906702517877,7.492863344925249,24673.432703567894,90.10000000000001,31.37015676386756
1306893787.72,6.0179519,3.9626218,670.11,-45.9,19.6,40.3,648087.5,-312976.88,-1.0,126.45531494480002,41820349.22670855,41820349.22670855,41820349.22670855,41820349.22670855,28.074555949117883,7.4579273714915555,25076.043709641046,88.2,31.456424261680333
1306893788.15,6.018335,3.9630271,681.36,-45.9,19.9,38.5,648114.5,-312928.44,-1.0,125.091992266524,40563355.43401556,40563355.43401556,40563355.43401556,40563355.43401556,25.42501645517742,7.3733341972514514,25531.715223749823,85.30000000000001,31.54252334304516
1306893788.57,6.0186948,3.9634352,692.4,-45.9,20.0,36.6,648139.5,-312879.91,-1.0,125.82579034601302,39346680.29708081,39346680.29708081,39346680.29708081,39346680.29708081,26.774074805186906,7.385392293538329,25985.30419443956,85.0,31.628446352668963
1306893788.99,6.0190303,3.9638431,703.19,-45.9,20.0,34.8,648162.56,-312831.59,-1.0,123.01074613994861,37922124.72186628,37922124.72186628,37922124.72186628,37922124.72186628,27.06156140338039,7.294056401320587,26581.726188196764,83.89999999999999,31.713848802362747
1306893789.41,6.019349,3.964259,713.95,-45.9,20.0,32.9,648184.06,-312782.56,-1.0,122.73092119247451,36655941.155180514,36655941.155180514,36655941.155180514,36655941.155180514,26.13933278430767,7.3965070430735285,26745.87433838224,83.1,31.799013937970795
1306893789.83,6.019656,3.9646907,724.9,-45.9,20.0,31.0,648204.44,-312731.84,-1.0,125.19671106531106,34941644.46720254,34941644.46720254,34941644.46720254,34941644.46720254,28.21956969557572,7.367974664125301,26415.0691323681,84.2,31.88366616894193
1306893790.26,6.0199446,3.9651299,735.83,-45.9,20.0,29.0,648223.25,-312680.5,-1.0,121.90958243649284,33651229.20481431,33651229.20481431,33651229.20481431,33651229.20481431,27.858236845883926,7.283416126732218,26335.162538090608,81.4,31.968042809361876
1306893790.69,6.0202172,3.9655802,746.84,-45.9,20.4,27.1,648240.5,-312628.03,-1.0,122.96554835994351,31584360.812870193,31584360.812870193,31584360.812870193,31584360.812870193,27.703370921444634,7.141207060115168,25996.21746455776,82.10000000000001,32.052342896850945
1306893791.12,6.020468,3.9660329,757.72,-45.9,20.5,25.1,648256.0,-312575.5,-1.0,121.63442454049923,29926697.21413048,29926697.21413048,29926697.21413048,29926697.21413048,27.711345469888965,7.347732144560403,26151.85407068439,79.9,32.13643629142662
1306893791.54,6.0206945,3.9664808,768.32,-45.9,20.6,23.2,648269.5,-312523.69,-1.0,121.50884569668052,28201725.837417923,28201725.837417923,28201725.837417923,28201725.837417923,26.586653594607974,7.498833492114022,26763.010272969874,81.3,32.22012395546861
1306893791.96,6.0209004,3.9669297,778.8,-46.1,20.6,21.3,648281.25,-312472.0,-1.0,120.01106375399317,26195914.8281848,26195914.8281848,26195914.8281848,26195914.8281848,25.764002712245865,7.356537116865268,26558.463608760427,82.20000000000002,32.30332933604604
1306893792.38,6.0210908,3.9673909,789.43,-45.9,20.6,19.4,648291.63,-312419.03,-1.0,122.15334430703817,24085476.44427829,24085476.44427829,24085476.44427829,24085476.44427829,26.31534161430549,7.706614307541221,26177.420048401786,84.4,32.38606008845199
1306893792.8,6.02126,3.9678497,799.88,-45.5,20.6,17.5,648300.25,-312366.53,-1.0,120.08117692636733,22604527.69811855,22604527.69811855,22604527.69811855,22604527.69811855,24.455146767282514,7.474253394228436,25869.306223680705,84.20000000000002,32.46833917856572
1306893793.22,6.0214104,3.9683111,810.26,-45.1,20.6,15.6,648307.25,-312313.94,-1.0,119.52901313383872,20700659.393768672,20700659.393768672,20700659.393768672,20700659.393768672,22.93669190076102,7.758483149206414,25881.31214326191,85.20000000000002,32.55030440166284
1306893793.65,6.0215447,3.9687834,820.78,-44.6,20.6,13.8,648312.88,-312260.25,-1.0,118.5730385851076,19037970.552880153,19037970.552880153,19037970.552880153,19037970.552880153,23.40391167774759,7.502147121234063,25377.13682740082,85.70000000000002,32.63208589772583
1306893794.07,6.0216588,3.9692516,831.12,-44.1,20.6,11.9,648316.81,-312207.19,-1.0,119.5600446608728,17440734.06396044,17440734.06396044,17440734.06396044,17440734.06396044,23.68347040309792,7.568764790674604,25406.003189228762,84.9,32.71340042091043
1306893794.49,6.021754,3.9697162,841.3,-43.6,20.6,10.1,648319.19,-312154.69,-1.0,117.8292744909747,16069044.467834147,16069044.467834147,16069044.467834147,16069044.467834147,23.67497116551516,7.557263248123506,25809.64424089536,88.2,32.7941407971134
1306893794.91,6.021832,3.9701825,851.45,-43.0,20.6,8.3,648320.19,-312102.19,-1.0,117.59420225134319,15129037.529989112,15129037.529989112,15129037.529989112,15129037.529989112,23.80473829817706,7.635688156617756,25717.655053688773,85.7,32.87422281811077
1306893795.33,6.0218927,3.9706475,861.53,-42.4,20.6,6.6,648319.69,-312049.94,-1.0,116.84190695928812,14547909.503910424,14547909.503910424,14547909.503910424,14547909.503910424,24.002234650842652,7.638538436011568,25099.770991581176,86.2,32.95369241566108
1306893795.77,6.0219383,3.9711309,871.97,-41.7,20.6,4.8,648317.81,-311995.81,-1.0,115.40319086548119,14220097.281845363,14220097.281845363,14220097.281845363,14220097.281845363,25.794194226192705,7.600390344634805,24582.77569932403,87.7,33.03303952852198
1306893796.19,6.0219657,3.9715978,882.02,-41.1,20.6,3.1,648314.56,-311943.66,-1.0,116.62749044470604,15210462.999672769,15210462.999672769,15210462.999672769,15210462.999672769,28.07143457152626,7.552682680429185,23936.409237187818,86.89999999999999,33.11205746378007
1306893796.63,6.0219775,3.9720853,892.5,-40.4,20.6,1.3,648309.75,-311889.38,-1.0,115.96992424183496,15077667.8004019,15077667.8004019,15077667.8004019,15077667.8004019,27.862138769078687,7.570825169713589,23660.64946368596,85.3,33.19096056964184
1306893797.07,6.0219725,3.9725686,902.89,-39.7,20.6,359.6,648303.63,-311835.69,-1.0,114.84010185366942,15363358.594105555,15363358.594105555,15363358.594105555,15363358.594105555,27.640177175057996,7.794752477960419,23757.537360757196,85.4,33.26981774374507
1306893797.5,6.0219519,3.9730408,913.06,-39.0,20.6,357.9,648296.38,-311783.38,-1.0,114.78205569552289,16015388.785986528,16015388.785986528,16015388.785986528,16015388.785986528,28.231716587502913,7.492835623805982,23614.626320923267,87.50000000000001,33.348514156693454
1306893797.92,6.021918,3.973492,922.78,-38.3,20.6,356.3,648288.25,-311733.5,-1.0,112.18685746327382,16240234.972614055,16240234.972614055,16240234.972614055,16240234.972614055,27.120666361860504,7.624717366161892,23456.43591094585,87.1,33.42659814619476
1306893798.34,6.0218694,3.9739523,932.72,-37.6,20.6,354.8,648278.75,-311682.75,-1.0,114.78942316942269,17064757.274736393,17064757.274736393,17064757.274736393,17064757.274736393,25.126753230542608,7.692768422103259,23088.887017017238,88.30000000000001,33.504375923972546
1306893798.77,6.0218077,3.9744073,942.58,-36.8,20.6,353.3,648268.25,-311632.72,-1.0,110.63367573533245,17818646.241692,17818646.241692,17818646.241692,17818646.241692,25.070794510740114,7.824793719494714,22766.470181500517,86.9,33.581908732371495
1306893799.2,6.0217319,3.9748663,952.56,-35.9,20.6,351.7,648256.56,-311582.38,-1.0,111.92768461430148,19635465.52466548,19635465.52466548,19635465.52466548,19635465.52466548,23.08256923045719,7.7245514546692995,22781.473648812334,86.19999999999999,33.65931140078794
1306893799.63,6.0216433,3.9753248,962.56,-32.9,19.9,350.4,648243.81,-311532.19,-1.0,112.14487020830944,20628268.354721572,20628268.354721572,20628268.354721572,20628268.354721572,24.956396144577994,7.532491722152581,23447.631154485643,87.0,33.73665282685968
1306893800.05,6.0215486,3.975761,972.03,-27.1,19.1,349.3,648230.81,-311484.5,-1.0,109.29834501747742,20856335.030113503,20856335.030113503,20856335.030113503,20856335.030113503,23.82234850312563,7.382612541006621,23639.740195069066,84.5,33.813251689501854
1306893800.47,6.0214458,3.9762007,981.5,-21.1,19.1,348.5,648217.06,-311436.53,-1.0,110.38302733642287,21564292.459931105,21564292.459931105,21564292.459931105,21564292.459931105,21.34286725374021,7.526082894879297,23995.69747572245,83.80000000000001,33.889406545144894
1306893800.9,6.0213367,3.9766438,991.02,-15.3,19.2,347.8,648202.81,-311388.25,-1.0,108.58286075761015,21257180.67681478,21257180.67681478,21257180.67681478,21257180.67681478,23.229939076194494,7.3259856161071175,24383.65927430591,83.60000000000001,33.96482649265146
1306893801.32,6.0212268,3.9770761,1000.34,-9.9,19.3,347.3,648188.56,-311341.16,-1.0,108.65835749571626,20646389.74768272,20646389.74768272,20646389.74768272,20646389.74768272,22.825052646928658,7.32778386891377,24509.09272384364,83.4,34.03942732379757
1306893801.74,6.0211171,3.9775125,1009.85,-5.2,19.5,347.6,648174.31,-311293.59,-1.0,109.82454477913424,20385099.707471225,20385099.707471225,20385099.707471225,20385099.707471225,22.47413909879981,7.510903794288719,24115.373809513054,80.7,34.113522905599844
1306893802.17,6.0210142,3.9779518,1019.53,-2.7,19.6,348.0,648160.63,-311245.69,-1.0,107.47639483245767,19285935.92399178,19285935.92399178,19285935.92399178,19285935.92399178,22.483384939693806,7.583323360478613,24629.136394004316,82.8,34.18758786622977
1306893803.01,6.0208272,3.9788042,1038.53,-1.9,19.6,348.0,648135.06,-311152.56,-1.0,106.65269890577679,16803297.738065064,16803297.738065064,16803297.738065064,16803297.738065064,23.978595791877538,7.362665274705478,24804.706410881536,82.10000000000001,34.26858852239774
1306893803.44,6.0207371,3.9792322,1048.14,-1.2,19.6,348.0,648122.5,-311105.78,-1.0,104.32702805455578,15971908.004952587,15971908.004952587,15971908.004952587,15971908.004952587,23.753089020221665,7.447353824637883,24449.932282605223,83.2,34.34939779623851
1306893803.87,6.0206485,3.9796655,1057.88,-0.9,19.8,348.0,648110.06,-311058.41,-1.0,105.62400372908047,14922063.204729069,14922063.204729069,14922063.204729069,14922063.204729069,24.659380012433097,7.8129500439589386,24819.832216772804,85.30000000000001,34.430023343045164
1306893804.3,6.0205626,3.9800989,1067.65,-0.7,19.8,348.0,648097.81,-311010.97,-1.0,105.68936638129136,14081864.669645604,14081864.669645604,14081864.669645604,14081864.669645604,24.616458758907427,8.000965748216059,25074.010750108566,85.30000000000001,34.510472818110784
1306893804.73,6.0204808,3.9805255,1077.27,-0.5,19.9,348.0,648086.0,-310964.25,-1.0,103.7896794899297,14326386.672141703,14326386.672141703,14326386.672141703,14326386.672141703,24.340589737824864,8.02450663604507,24904.820955163646,87.80000000000001,34.59103712257273
1306893806.02,6.0202527,3.9817986,1106.04,-0.2,20.1,348.0,648052.06,-310824.75,-1.0,103.03116284293792,14096589.149374982,14096589.149374982,14096589.149374982,14096589.149374982,24.59813348685137,8.050081932817474,25131.930889401818,90.0,34.6863761426952
1306893807.73,6.0199905,3.9834709,1143.91,-0.2,20.4,348.0,648010.56,-310641.16,-1.0,101.8296822196749,13786178.830881638,13786178.830881638,13786178.830881638,13786178.830881638,24.082755255196613,7.983039334083755,25000.961661204554,89.40000000000002,34.803417918723206
1306893809.46,6.0197732,3.9851236,1181.42,-0.2,20.7,348.0,647973.0,-310459.34,-1.0,99.07436745269972,13332503.669476973,13332503.669476973,13332503.669476973,13332503.669476973,24.289780307077365,7.9528631087949435,25347.45666877584,91.9,34.9420399659673
1306893809.9,6.0197246,3.9855433,1190.95,-0.2,20.7,347.9,647964.0,-310413.09,-1.0,98.86557942007643,13156394.17801232,13156394.17801232,13156394.17801232,13156394.17801232,24.201971345559148,7.804421999585303,25329.08103010221,93.60000000000001,35.080677323797566
1306893811.16,6.0196023,3.9867202,1217.73,-0.2,21.0,347.9,647940.0,-310283.34,-1.0,96.49182863115718,13103945.12957866,13103945.12957866,13103945.12957866,13103945.12957866,23.04905335907677,7.818435314584004,25328.202865198113,93.19999999999999,35.232405232808944
1306893811.6,6.0195644,3.9871319,1227.1,-0.2,21.1,347.9,647932.0,-310237.91,-1.0,96.63260770827554,12716099.008246042,12716099.008246042,12716099.008246042,12716099.008246042,22.410515084801283,7.688200382067004,26000.420410033214,95.70000000000002,35.376761094576224
1306893812.89,6.0194685,3.9883221,1254.23,-0.2,21.1,347.9,647910.0,-310106.44,-1.0,95.1243413177362,12795963.578188656,12795963.578188656,12795963.578188656,12795963.578188656,21.60143151224539,7.464176368604568,26752.423214187693,92.8,35.53452902983432
1306893813.74,6.0194166,3.9891031,1272.06,-0.2,21.5,347.9,647896.44,-310020.09,-1.0,94.65027391203233,12297600.67302619,12297600.67302619,12297600.67302619,12297600.67302619,23.068289944873527,7.1707595851791375,26618.62830364468,90.9,35.698490097200896
1306893814.16,6.0193944,3.9894834,1280.74,-0.2,21.6,347.9,647890.13,-309978.0,-1.0,93.13768608674597,11655072.365825415,11655072.365825415,11655072.365825415,11655072.365825415,22.660913607858536,7.291013735869574,26607.480577245115,91.1,35.86161673762084
1306893814.58,6.0193742,3.9898612,1289.38,-0.2,21.7,347.9,647884.0,-309936.19,-1.0,92.42082922057341,11730199.107926115,11730199.107926115,11730199.107926115,11730199.107926115,24.20569624423374,7.368682730405518,26629.48479404977,91.4,36.023993159318124
1306893816.69,6.0193018,3.9917467,1332.22,-0.2,21.4,347.7,647855.75,-309727.22,-1.0,91.73484151880544,11929437.481779894,11929437.481779894,11929437.481779894,11929437.481779894,24.479397587540706,7.3050577945798985,26207.84132680278,89.49999999999999,36.197140578390744
1306893817.11,6.0192929,3.9921121,1340.38,-0.2,21.3,347.7,647850.69,-309686.66,-1.0,89.01737145676563,12193965.906374566,12193965.906374566,12193965.906374566,12193965.906374566,24.301577299564652,7.564149518038437,26501.890770196987,90.60000000000001,36.34754412169784
1306893817.53,6.0192853,3.9924886,1348.71,-0.2,21.2,347.7,647845.63,-309644.88,-1.0,91.92851593387293,13288296.402288493,13288296.402288493,13288296.402288493,13288296.402288493,23.91800098201574,7.568794542230341,26190.922166933215,88.3,36.47560951977307
1306893818.38,6.0192748,3.993229,1364.78,-0.2,20.9,347.7,647836.0,-309562.66,-1.0,88.99533026958322,12912909.849619055,12912909.849619055,12912909.849619055,12912909.849619055,25.69265450856416,7.911474517767238,26053.775978138903,88.40000000000002,36.6086814795281
1306893818.81,6.0192717,3.993601,1372.68,-0.2,20.7,347.7,647831.31,-309521.34,-1.0,88.22859310915936,12540601.653855499,12540601.653855499,12540601.653855499,12540601.653855499,26.974043410167354,7.622849230782192,25683.24450489202,89.7,36.727300245932305
1306893819.23,6.0192699,3.9939685,1380.35,-0.2,20.5,347.6,647826.88,-309480.5,-1.0,89.2949647229686,12052136.721172182,12052136.721172182,12052136.721172182,12052136.721172182,27.301614842332143,7.8724118517391695,24908.998365119816,89.10000000000002,36.84461761251148
1306893819.66,6.0192693,3.9943455,1388.07,-0.2,20.3,347.6,647822.38,-309438.59,-1.0,89.44802596801587,10698758.36289285,10698758.36289285,10698758.36289285,10698758.36289285,26.96308895997588,8.193109572645183,24188.35994561655,91.60000000000001,36.94707605520614
1306893820.08,6.0192699,3.9947035,1395.24,-0.2,20.1,347.6,647818.19,-309398.78,-1.0,86.6186266917466,9725102.116650678,9725102.116650678,9725102.116650678,9725102.116650678,26.918611950343486,8.312862252966738,24083.998296982452,92.89999999999999,37.041373955468615
1306893820.5,6.0192715,3.9950667,1402.35,-0.2,19.9,347.6,647814.0,-309358.41,-1.0,87.89518779050147,9905160.209426533,9905160.209426533,9905160.209426533,9905160.209426533,25.448605591005048,7.985450687010952,23465.726059722838,94.3,37.13446997471621
1306893820.92,6.0192742,3.9954327,1409.34,-0.2,19.6,347.6,647809.94,-309317.69,-1.0,88.63617858189399,9570063.705956647,9570063.705956647,9570063.705956647,9570063.705956647,25.238318698441702,7.800751913153831,24235.050007316055,92.8,37.22630287060422
1306893821.34,6.0192776,3.9957877,1415.94,-0.2,19.4,347.6,647806.0,-309278.19,-1.0,85.59725411835477,9205401.668479871,9205401.668479871,9205401.668479871,9205401.668479871,26.869607180999214,7.716226670668995,24993.588346009048,93.19999999999999,37.29039298434
1306893821.76,6.0192819,3.9961466,1422.43,-0.2,19.1,347.5,647802.13,-309238.25,-1.0,86.56746926843643,10213854.67118813,10213854.67118813,10213854.67118813,10213854.67118813,28.14649597005544,7.351066442854605,24651.112313230085,92.99999999999997,37.353204664130025
1306893822.19,6.0192872,3.9965204,1428.97,-0.2,18.8,347.5,647798.13,-309196.66,-1.0,88.12754220539819,9795673.113214785,9795673.113214785,9795673.113214785,9795673.113214785,30.463805019478176,7.40485212029811,24200.379859099285,95.0,37.41464604645724
1306893822.61,6.019293,3.9968811,1435.07,-0.2,18.5,347.5,647794.38,-309156.5,-1.0,86.90490107568019,9053776.095309392,9053776.095309392,9053776.095309392,9053776.095309392,29.717479812325653,7.353503323888105,24923.85903885075,94.6,37.46845510157535
1306893823.04,6.0192994,3.997244,1440.99,-0.2,18.2,347.5,647790.63,-309116.09,-1.0,85.15134307715375,9174843.689088061,9174843.689088061,9174843.689088061,9174843.689088061,30.888464792618215,7.534362198068934,24719.583737550995,93.8,37.520748408661966
1306893823.47,6.0193065,3.9976127,1446.78,-0.2,17.9,347.5,647786.88,-309075.06,-1.0,86.52465061932114,8927052.196367687,8927052.196367687,8927052.196367687,8927052.196367687,30.985997830828495,7.301224812647823,25407.438075250167,92.2,37.57160252064796
1306893823.89,6.0193139,3.9979745,1452.23,-0.2,17.6,347.5,647783.19,-309034.78,-1.0,86.93345774143476,8013279.268206135,8013279.268206135,8013279.268206135,8013279.268206135,32.900360980195714,7.210428430574255,26262.874332645726,90.5,37.6207188811029
1306893824.31,6.0193218,3.9983363,1457.45,-0.2,17.3,347.5,647779.56,-308994.47,-1.0,86.91607938754969,8008376.710872478,8008376.710872478,8008376.710872478,8008376.710872478,32.768237165595416,7.3353685388517595,26611.019393071852,89.5,37.66834245940562
1306893824.73,6.0193298,3.9986887,1462.3,-0.2,17.0,347.5,647776.06,-308955.22,-1.0,84.28074058069284,7836274.157452185,7836274.157452185,7836274.157452185,7836274.157452185,34.61323702076683,7.530168830780514,26381.535221236078,89.79999999999998,37.71423594147036
1306893825.15,6.0193382,3.9990482,1467.03,-0.2,16.6,347.5,647772.56,-308915.19,-1.0,86.08032581071215,7446272.623825072,7446272.623825072,7446272.623825072,7446272.623825072,33.27545130979253,7.7668461414112535,25703.39874137897,88.2,37.75839932729713
1306893825.57,6.0193468,3.9994095,1471.54,-0.2,16.3,347.5,647769.0,-308874.97,-1.0,86.46915745097675,7217838.208191557,7217838.208191557,7217838.208191557,7217838.208191557,33.307165652765285,7.838078066087425,25674.22080730654,86.30000000000001,37.80096275686843
1306893825.99,6.0193557,3.9997712,1475.82,-0.2,16.0,347.5,647765.44,-308834.66,-1.0,86.61529349280578,7057255.71145158,7057255.71145158,7057255.71145158,7057255.71145158,32.78066194697509,7.991756471046282,26021.677523988972,88.80000000000001,37.84183436666721
1306893826.41,6.0193646,4.000135,1479.88,-0.2,15.7,347.3,647761.88,-308794.16,-1.0,87.00415339027207,6642369.109680425,6642369.109680425,6642369.109680425,6642369.109680425,32.13106064785228,7.998310049888212,26225.720102171086,88.30000000000001,37.88080746378007
1306893826.83,6.0193735,4.0004923,1483.64,-0.2,15.3,347.3,647758.44,-308754.34,-1.0,85.30485502833756,6001892.467215281,6001892.467215281,6001892.467215281,6001892.467215281,30.613623798860626,7.817715683334034,25932.283994046702,86.9,37.917989222310254
1306893827.25,6.0193824,4.000851,1487.18,-0.2,15.0,347.3,647754.94,-308714.38,-1.0,85.59002687752375,5739251.951344263,5739251.951344263,5739251.951344263,5739251.951344263,28.49095644316935,7.583020079035016,26468.63943382957,88.30000000000001,37.95334902108541
1306893827.67,6.0193914,4.0012181,1490.57,-0.2,14.7,347.3,647751.31,-308673.5,-1.0,87.74991031748586,5543613.99820811,5543613.99820811,5543613.99820811,5543613.99820811,27.943154842802517,7.744883232799353,26096.0257901203,90.30000000000001,37.98687154951935
1306893828.09,6.0194003,4.0015799,1493.69,-0.2,14.4,347.3,647747.81,-308633.22,-1.0,86.25541291958386,5104540.373428791,5104540.373428791,5104540.373428791,5104540.373428791,27.979004843958798,7.816786017210614,25907.04651236924,89.8,38.01861039466371
1306893828.51,6.019409,4.0019441,1496.59,-0.2,14.1,347.3,647744.19,-308592.66,-1.0,86.89061971073905,4888104.741453762,4888104.741453762,4888104.741453762,4888104.741453762,27.339881116436892,7.840499031819622,25625.35640119984,93.0,38.048573211811565
1306893828.93,6.0194173,4.002303,1499.25,-0.2,13.8,347.3,647740.69,-308552.69,-1.0,85.43286200060095,4799047.562083975,4799047.562083975,4799047.562083975,4799047.562083975,25.392152892097055,7.656942167258638,26370.3177840707,93.29999999999998,38.076859519773066
1306893829.35,6.0194257,4.0026714,1501.76,-0.2,13.5,347.3,647737.0,-308511.66,-1.0,87.94574640572667,4443820.023868771,4443820.023868771,4443820.023868771,4443820.023868771,24.907213634317017,7.4940511527081215,26815.90292074581,94.29999999999998,38.10344635266895
1306893829.98,6.0194376,4.0032189,1505.09,-0.2,13.1,347.3,647731.56,-308450.69,-1.0,86.98349765114611,4040321.6774532287,4040321.6774532287,4040321.6774532287,4040321.6774532287,23.601135241962826,7.405002966032179,26834.517572732584,97.89999999999999,38.12912986098041
1306893830.61,6.0194489,4.0037729,1508.03,-0.2,12.7,347.3,647725.94,-308389.0,-1.0,88.1035593174644,3799114.2189910063,3799114.2189910063,3799114.2189910063,3799114.2189910063,22.325818261957632,7.409306145241009,26379.242396906266,97.8,38.15378756001804
1306893831.03,6.019456,4.0041436,1509.75,-0.2,12.4,347.3,647722.13,-308347.72,-1.0,88.4479277253749,3360250.6401888966,3360250.6401888966,3360250.6401888966,3360250.6401888966,22.022329024815136,7.270365364268778,26710.966093126095,96.7,38.17665392047298
1306893831.46,6.0194628,4.0045225,1511.33,-0.2,12.2,347.3,647718.25,-308305.53,-1.0,88.25762552548078,3083907.619185651,3083907.619185651,3083907.619185651,3083907.619185651,22.11538062727933,7.422583721052304,26077.5695318234,97.60000000000001,38.19785142703466
1306893831.88,6.0194689,4.0048876,1512.69,-0.2,12.0,347.3,647714.44,-308264.91,-1.0,86.84480342538187,2816052.4194433284,2816052.4194433284,2816052.4194433284,2816052.4194433284,22.404761896468152,7.732052267344498,25739.89981782777,95.5,38.21738007970308
1306893832.51,6.0194774,4.0054459,1514.47,-0.2,12.0,347.3,647708.56,-308202.75,-1.0,88.7940980376546,2500581.1950656925,2500581.1950656925,2500581.1950656925,2500581.1950656925,21.656169093509448,7.891026505585975,25808.472957474627,95.2,38.235676230184275
1306893832.73,6.0194801,4.0056418,1515.02,-0.2,11.6,347.3,647706.44,-308180.94,-1.0,89.27198972331702,2296042.0906031895,2296042.0906031895,2296042.0906031895,2296042.0906031895,21.028043625331588,7.760177983923397,25898.42050031707,96.19999999999999,38.25200497034175
1306893833.15,6.019485,4.0060249,1515.98,-0.2,11.4,347.3,647702.31,-308138.31,-1.0,91.63691687793585,2165079.6589140478,2165079.6589140478,2165079.6589140478,2165079.6589140478,20.50556145581629,7.580364201998465,25303.77577354491,96.2,38.26684858364009
1306893833.59,6.0194894,4.0064138,1516.83,-0.2,11.2,347.3,647698.13,-308095.06,-1.0,88.41021535805538,1915331.330300344,1915331.330300344,1915331.330300344,1915331.330300344,20.633754564879933,7.609096387073189,24575.59777483898,94.89999999999999,38.28030658888943
1306893833.8,6.0194913,4.0066016,1517.19,-0.2,11.1,347.3,647696.06,-308074.16,-1.0,89.65447503356691,1555025.371924444,1555025.371924444,1555025.371924444,1555025.371924444,21.47209879920475,7.622397631969955,24466.346944687575,93.6,38.292118706124775
1306893834.45,6.0194964,4.0071915,1518.16,-0.2,10.9,347.3,647689.5,-308008.53,-1.0,91.10831274730732,1874256.676178462,1874256.676178462,1874256.676178462,1874256.676178462,21.753516057923925,7.8831185670800625,23723.790101083974,93.4,38.30212417419128
1306893835.3,6.0195009,4.0079586,1519.11,-0.2,10.7,347.3,647680.81,-307923.22,-1.0,90.50902825145582,2820270.4966623327,2820270.4966623327,2820270.4966623327,2820270.4966623327,21.95785103118895,7.9210782990266235,24305.27774399804,93.0,38.31060623893318
1306893835.73,6.0195022,4.0083502,1519.49,-0.2,10.6,347.3,647676.31,-307879.69,-1.0,91.38921852604862,2475118.609171641,2475118.609171641,2475118.609171641,2475118.609171641,20.738576285459327,7.813724022625017,24533.260046492018,91.8,38.31806249440125
1306893836.61,6.0195022,4.0091582,1520.11,-0.2,10.5,347.3,647666.81,-307789.84,-1.0,92.27933318483569,2724963.1356869848,2724963.1356869848,2724963.1356869848,2724963.1356869848,21.27114538089361,7.574441669943815,25147.410758477083,91.8,38.32478384173283
1306893837.24,6.019502,4.009746,1520.48,-0.2,10.5,346.8,647659.81,-307724.5,-1.0,93.9098002635809,2818527.4545562114,2818527.4545562114,2818527.4545562114,2818527.4545562114,22.801216952510792,7.363891715772662,25347.473954209254,92.30000000000001,38.33074731504866
1306893839.35,6.0194883,4.0117217,1521.88,-0.2,10.7,346.7,647635.31,-307505.0,-1.0,94.26329922619406,2443765.9663506285,2443765.9663506285,2443765.9663506285,2443765.9663506285,24.25979129831225,7.167406706741009,25631.048230134747,89.80000000000001,38.336419887227144
1306893841.03,6.019467,4.0133123,1523.95,-0.2,11.1,346.7,647614.75,-307328.34,-1.0,95.44437435964102,2212325.478506273,2212325.478506273,2212325.478506273,2212325.478506273,24.07807868989334,6.980902946176588,25573.083313565956,90.00000000000001,38.343256063955046
1306893841.45,6.0194603,4.0137148,1524.7,-0.2,11.2,346.6,647609.44,-307283.66,-1.0,96.71029870671609,2994662.276729976,2994662.276729976,2994662.276729976,2994662.276729976,25.21979277577808,7.177276963033239,25856.488739418593,87.8,38.3499314795281
1306893841.66,6.0194568,4.013916,1525.12,-0.2,11.3,346.6,647606.81,-307261.34,-1.0,96.60893341025255,2346616.5753261065,2346616.5753261065,2346616.5753261065,2346616.5753261065,25.240965895449172,7.2957467989990965,25971.14543123766,86.6,38.35627771749836
1306893841.87,6.0194532,4.0141155,1525.56,-0.2,11.4,346.6,647604.13,-307239.19,-1.0,95.82681797662944,2044191.3564003513,2044191.3564003513,2044191.3564003513,2044191.3564003513,24.522865019344366,7.183285130262266,25457.926504064457,88.8,38.36268519781332
1306893842.72,6.0194373,4.0149325,1527.71,-0.2,11.7,346.6,647593.19,-307148.5,-1.0,97.05951165454043,892850.2669200831,892850.2669200831,892850.2669200831,892850.2669200831,25.36841343214984,7.242636882876561,25745.007357032642,87.00000000000001,38.3699960027127
