timestamp,longitude,latitude,altitude,roll,pitch,yaw,u,v,heading,air_speed,engine_0,engine_1,temperature_in,humidity_in,pressure_in,heart_rate,oxygen_mask
1306893631.32,1.3424986,7.0011117,147.5065664,-1.0,4.0,-1.0,796364.690838,-19229.4625576,-1.0,156.09908533229742,538.9344955890773,538.9344955890773,301.25238264024637,0.06773247022045188,3.7424139237939205,89.60000000000001,0.32511043223845626
1306893631.74,1.3427675,7.0013055,147.6706084,-1.0,6.0,-1.0,796430.4060632,-19155.118723199997,-1.0,156.09908533229742,769.8746416572463,769.8746416572463,299.00211035031776,0.06774198676738227,3.7977271376296673,89.29999999999998,0.32506717983250694
1306893632.16,1.3430496,7.0015086,147.7690336,-1.0,7.3,-1.0,796499.3693199999,-19077.1331564,-1.0,164.00681368256656,1090.3230496150063,1090.3230496150063,300.31522334908834,0.06724195602485383,3.7126594757112565,87.4,0.3250382428246329
1306893632.58,1.3433282,7.0017094,147.83465040000002,-1.0,8.1,-1.0,796567.5123668,-19000.0990332,-1.0,161.9733419818894,1125.5707270416017,1125.5707270416017,300.5973837870916,0.06772595648414274,3.7503906534908773,84.5,0.3250205590975988
1306893633.01,1.3436237,7.0019222,147.9002672,-1.0,8.7,-1.0,796639.7236552,-18918.4389256,-1.0,167.8455987388324,1425.4185751856753,1425.4185751856753,300.699780556369,0.06542921418956274,3.8118217734081723,87.4,0.32501129619296193
1306893634.5,1.3446978,7.0026959,149.7047292,-1.0,10.3,-1.0,796902.2892804,-18621.5229056,-1.0,176.35844216958512,1425.4185751856758,1425.4185751856758,300.699780556369,0.06542921418956275,3.8118217734081723,87.4,0.32501129619296193
1306893634.92,1.3450097,7.0029207,151.8700836,-1.0,10.5,-1.0,796978.5688104,-18535.269622,-1.0,181.93241130936437,1125.5707270416015,1125.5707270416015,300.5973837870916,0.06772595648414276,3.7503906534908773,84.5,0.3250205590975988
1306893635.36,1.3453462,7.0031634,155.4133908,-1.0,10.7,-1.0,797060.8194692,-18442.1593828,-1.0,187.55733358530563,1090.3230496150068,1090.3230496150068,300.31522334908834,0.06724195602485385,3.712659475711257,87.4,0.325038242824633
1306893635.79,1.3456807,7.0034048,160.1706088,-1.0,10.8,-1.0,797142.6108104,-18349.5084612,-1.0,191.06657145707283,769.8746416572463,769.8746416572463,299.00211035031776,0.06774198676738229,3.797727137629668,89.3,0.32506717983250694
1306893636.22,1.3460192,7.0036494,166.20735439999999,-1.0,10.9,-1.0,797225.3207868,-18255.6436288,-1.0,193.54858906802554,538.9344955890774,538.9344955890774,301.25238264024637,0.06773247022045191,3.7424139237939205,89.6,0.32511043223845626
1306893637.52,1.3470747,7.0044149,192.1587988,-1.0,10.8,-1.0,797483.2604276,-17961.9756404,-1.0,200.37596618230137,606.0392487955259,606.0392487955259,299.7276583459191,0.0656812770378787,3.7948543550526996,89.9,0.32521462077738894
1306893638.8,1.3481713,7.0052165,228.44488919999998,0.2,10.8,-1.0,797751.0753968,-17654.5937408,-1.0,212.9008397183189,959.0169396785028,959.0169396785028,299.621901306659,0.06863574883903106,3.7712523029061416,88.60000000000001,0.3254030940932245
1306893639.66,1.348939,7.0057824,258.4645752,0.3,10.8,-1.0,797938.4769776,-17437.6646,-1.0,223.34844390359135,1346.534110950257,1346.534110950257,299.6260140451894,0.06894439280771167,3.766329870999163,87.50000000000001,0.32566138368202585
1306893640.09,1.3493278,7.0060706,274.934392,0.4,10.8,-1.0,798033.326062,-17327.2315256,-1.0,227.1032967784113,2054.169131679619,2054.169131679619,297.760985929262,0.07173032930678191,3.7120070351892878,90.9,0.325957949736269
1306893640.51,1.3497179,7.006361,292.1916104,0.4,10.8,-1.0,798128.5032304,-17215.9454328,-1.0,234.14432760947733,2672.445958721462,2672.445958721462,297.4194381379897,0.07389247345614536,3.704708182929674,91.0,0.32629462952629523
1306893640.95,1.3501318,7.0066708,311.351716,0.6,10.8,-1.0,798229.4546772,-17097.3102584,-1.0,237.9582967365012,3088.1489885929464,3088.1489885929464,300.3641052075247,0.07546124733419331,3.7538517783475025,91.00000000000003,0.3266718058167589
1306893641.37,1.3505308,7.0069708,330.51182159999996,0.7,10.8,-1.0,798326.7315832,-16982.44805,-1.0,241.05200127913466,3415.612698770565,3415.612698770565,299.86649884242075,0.0748417282254328,3.7961507859849997,92.4,0.32708863652542036
1306893641.79,1.3509423,7.0072815,350.9514548,0.7,10.3,-1.0,798427.026862,-16863.451983199997,-1.0,249.51004119703668,3794.373681186121,3794.373681186121,300.6222780110531,0.07850555189267473,3.7265116198242563,89.90000000000002,0.32754489199348685
1306893642.22,1.3513625,7.0076003,372.5065736,1.0,10.3,-1.0,798529.4546868,-16741.404735199998,-1.0,249.62686142451486,3931.547991290007,3931.547991290007,302.509148148898,0.08032337669249984,3.7566953754690013,87.4,0.32804034256216574
1306893642.64,1.3517805,7.007919,394.356968,1.2,10.1,-1.0,798631.259152,-16619.455912399997,-1.0,254.96780066157436,4510.472734800762,4510.472734800762,302.3806910105933,0.08217498735446642,3.827447594280105,85.19999999999999,0.32857269164353065
1306893643.06,1.3522054,7.0082443,416.5682548,1.4,9.9,44.9,798734.7040372,-16494.9808428,-1.0,259.83156158995274,5207.1253829226125,5207.1253829226125,304.2930124451915,0.08308612219603491,3.6963866818217763,83.3,0.32909631369077474
1306893643.48,1.3526333,7.0085734,438.5826912,1.6,9.7,44.9,798838.8707071999,-16369.095012,-1.0,262.2511400368231,5741.974617398787,5741.974617398787,305.6039035607316,0.08114309709945369,3.643258693929512,84.39999999999999,0.3295866352130844
1306893643.9,1.3530706,7.008911,460.4330856,1.8,9.5,44.9,798945.3339652,-16239.9283412,-1.0,268.6135228846606,6551.609209675088,6551.609209675088,305.99824730490064,0.08292080144608426,3.688860538038359,87.50000000000001,0.33005789505560407
1306893644.33,1.3535198,7.0092593,481.9882044,2.0,9.3,44.9,799054.6187456,-16106.791854000001,-1.0,269.7974471637372,7242.840947383656,7242.840947383656,305.9076644064993,0.08280320761805428,3.629857071407157,84.70000000000002,0.3305410206024107
1306893644.75,1.3539718,7.0096108,502.6574964,2.3,9.3,45.1,799164.5925023999,-15972.3758392,-1.0,278.44890920006134,7776.988400257247,7776.988400257247,304.810129191625,0.08301041177542279,3.632148564043883,84.30000000000001,0.3310321076540293
1306893645.18,1.3544442,7.0099792,523.0643212,2.6,9.3,45.1,799279.4875192,-15831.529378,-1.0,284.52365556956596,8157.410964195225,8157.410964195225,304.79309396172846,0.07977873702972722,3.5543067856734525,83.9,0.3315261037170214
1306893645.62,1.3549279,7.0103572,542.7821696,2.9,9.3,45.1,799397.1056332,-15687.0411844,-1.0,284.8008340856497,8441.48103230571,8441.48103230571,305.53257055939525,0.08087158603966607,3.5325119958313356,82.80000000000001,0.3320214011798386
1306893646.04,1.3553995,7.0107263,560.8924064,3.2,9.3,45.3,799511.8037996,-15545.932255999998,-1.0,291.1348610903845,8824.466234643949,8824.466234643949,305.7469821137032,0.07844821090686838,3.5568636250390333,83.50000000000001,0.33251126338456305
1306893646.47,1.3558906,7.0111109,578.740176,3.5,9.1,45.4,799631.2263756,-15398.9178156,-1.0,296.12215819352394,9308.673659006374,9308.673659006374,303.1920825326818,0.0752211136970811,3.4260510061198337,83.20000000000002,0.33299247510809765
1306893646.89,1.3563866,7.0114993,596.29267,3.8,9.3,45.5,799751.7972456,-15250.4598056,-1.0,306.2339364285638,9841.882420004706,9841.882420004706,302.017743452141,0.07531926639713797,3.4209134847629383,84.00000000000001,0.3334636583976864
1306893647.31,1.3568788,7.0118846,613.7467388,4.1,9.5,45.6,799871.5150971999,-15103.182898,-1.0,303.8737653444564,10389.781418513436,10389.781418513436,300.57275802375403,0.07609966096352558,3.5278497102868047,84.1,0.33392374151229703
1306893647.73,1.3573849,7.0122803,632.1522512,4.3,9.7,45.7,799994.5794056,-14951.903365600001,-1.0,312.44991698549666,11501.730775160177,11501.730775160177,299.8906788069179,0.07883100382172961,3.570138378136697,82.3,0.33437540380451053
1306893648.15,1.3578957,7.0126784,651.3779736,4.6,9.9,45.9,800118.7920080001,-14799.672389599998,-1.0,314.95696006404097,12012.955521222353,12012.955521222353,300.1042575801515,0.07669526878632166,3.535832407582211,82.8,0.33482094186225325
1306893648.58,1.3584342,7.0130957,672.4737748,4.7,10.1,46.0,800249.8287576,-14640.092332,-1.0,323.62140773402564,13199.050637027529,13199.050637027529,302.8077105134156,0.07573150958024245,3.621373840238601,83.4,0.33526540817896366
1306893649.0,1.3589568,7.0134981,693.7664264,4.8,10.1,46.2,800377.0269244,-14486.155319200001,-1.0,320.5524892055308,14269.602987484779,14269.602987484779,304.09563860223324,0.075409235687823,3.5305300375878566,82.9,0.3357113290013609
1306893649.44,1.3595232,7.0139315,717.6509416,4.9,10.1,46.3,800514.9206296,-14320.276048799999,-1.0,330.87458907740125,15806.27306534077,15806.27306534077,303.9877621457605,0.07733224998986603,3.623761189291326,84.10000000000001,0.3361653644344318
1306893649.86,1.3600731,7.0143498,741.5026484,4.9,10.1,46.5,800648.8773267999,-14160.2038652,-1.0,335.6545790854057,16961.964257331147,16961.964257331147,303.06431297649954,0.07348427827828759,3.694225998639631,85.5,0.33662904553679396
1306893650.29,1.3606576,7.0147917,767.388476,4.9,10.1,46.6,800791.2657828,-13990.978137999999,-1.0,347.6993840912568,18130.08096424238,18130.08096424238,302.0427023212725,0.07419286998859093,3.7592153502356878,85.1,0.33711086968377557
1306893650.71,1.3612262,7.015219,792.979028,4.8,10.1,46.6,800929.8812728,-13827.329838799998,-1.0,345.29090985798126,18775.342780277595,18775.342780277595,302.09577534055575,0.07544945065451496,3.780707150842955,84.80000000000001,0.33761076032244575
1306893651.15,1.3618296,7.0156701,821.194252,8.5,13.3,47.0,801076.96133,-13654.527995999999,-1.0,349.0318607031667,19328.98822423375,19328.98822423375,303.5134615989072,0.07430047693088696,3.756559210107568,83.7,0.3381355306636531
1306893651.58,1.3624252,7.0161078,853.3136755999999,28.7,14.7,47.8,801222.3353504,-13486.647413199998,-1.0,350.58384382155504,20406.592820245816,20406.592820245816,302.3252707645266,0.07361037408154425,3.7486507870829437,83.80000000000001,0.33869452016496543
1306893652.0,1.3630285,7.016531,889.4685324000001,40.8,15.6,49.5,801369.9731504,-13323.983366,-1.0,356.45512254584594,22006.677936368003,22006.677936368003,304.15513066715016,0.07156435263301551,3.757673998713129,83.50000000000001,0.3392949248018858
1306893652.43,1.3636695,7.0169521,930.0197148000001,43.3,15.4,51.3,801527.420662,-13161.6145944,-1.0,359.7376570720147,24501.09137167426,24501.09137167426,302.20729127569217,0.07299249222459994,3.8222363649850677,80.60000000000001,0.3399450888438805
1306893652.85,1.364326,7.0173561,972.3753591999999,48.5,16.1,53.2,801689.1332656,-13005.1841432,-1.0,367.3991838387783,26965.416923057102,26965.416923057102,301.82026304783153,0.07095143991767977,3.814923084332194,80.9,0.3406448591850879
1306893653.28,1.3650138,7.0177485,1017.2900588,53.6,16.8,55.5,801859.2448196,-12852.5594664,-1.0,365.4575393459499,29290.083716566347,29290.083716566347,302.06505396349115,0.07030784469169658,3.917551520508994,82.0,0.3413997476365315
1306893653.72,1.3657552,7.018136,1065.7152572,55.3,16.5,57.9,802043.2671352,-12701.0174668,-1.0,373.54629649043443,31537.357476249435,31537.357476249435,299.5089020036398,0.0685212316309013,3.814536105445851,82.2,0.34221189768027604
1306893654.14,1.3664818,7.0184841,1112.6312692,56.8,16.6,60.1,802224.2382696,-12563.976779999999,-1.0,373.3437227148995,33316.21858899748,33316.21858899748,299.67828479517715,0.07196142486697403,3.711686867328567,84.0,0.3430778644344318
1306893654.56,1.3672361,7.0188148,1160.6299583999999,58.5,16.9,62.4,802412.7225276,-12432.9400304,-1.0,378.2065657291155,34360.26145562939,34360.26145562939,298.20361091048244,0.06987979294683959,3.6321686053242943,84.8,0.3439954278640031
1306893654.99,1.3680217,7.0191273,1209.9081752,59.3,16.7,64.7,802609.6385444,-12308.07126,-1.0,375.84477502831834,35511.48847015077,35511.48847015077,299.5032797716078,0.0709567005268739,3.6533433576334673,85.3,0.34496826250967233
1306893655.41,1.3688268,7.0194165,1259.4816676,59.8,16.7,67.1,802812.0663723999,-12191.4045896,-1.0,386.1570041110239,36318.906877701615,36318.906877701615,297.62808578236013,0.0738935007339875,3.6207594768632205,88.0,0.34599093311334683
1306893655.84,1.3696479,7.0196817,1309.1863936,60.3,16.7,69.3,803019.054568,-12083.3009116,-1.0,377.46107681670924,36424.207226012535,36424.207226012535,297.9621783571329,0.07517768238125377,3.536707808863257,87.6,0.347054636087975
1306893656.26,1.3704896,7.0199238,1359.3176288,60.7,16.5,71.6,803231.8498504,-11983.3009084,-1.0,389.6309012595083,37375.5570596102,37375.5570596102,295.4333993096811,0.07526581676517738,3.5594357143041373,90.30000000000001,0.3481509506111597
1306893656.68,1.3713529,7.0201427,1409.9081816,60.9,16.5,73.9,803450.7146867999,-11891.437388400002,-1.0,393.8146434624471,37997.23951613578,37997.23951613578,295.8673059297205,0.07595577522030256,3.5703945591368234,89.80000000000001,0.34927069033119473
1306893656.89,1.3717936,7.0202436,1435.4331167999999,60.9,16.5,75.0,803562.6569476001,-11848.5240012,-1.0,398.14706558708167,38462.3881791154,38462.3881791154,294.26721676306687,0.07576477387385096,3.589692823433621,91.90000000000002,0.3503511583976864
1306893657.32,1.3726946,7.0204277,1487.1063468,61.1,16.5,77.3,803791.9220467999,-11768.8323976,-1.0,394.0275807261981,39737.05445236822,39737.05445236822,292.02152806293265,0.07638269044343451,3.5016665372997022,88.89999999999999,0.3514473963679401
1306893657.74,1.3736103,7.0205855,1539.0092356,61.1,16.5,79.6,804025.452238,-11698.491188,-1.0,405.8033268015761,41540.97241475635,41540.97241475635,293.93786205359305,0.07985781927664004,3.605580776812556,89.2,0.3525517489488674
1306893658.18,1.3745721,7.0207209,1592.9134368,61.1,16.5,81.9,804271.4168128,-11635.6959104,-1.0,403.62186523084733,43061.13265640178,43061.13265640178,294.802875731281,0.07656663242800997,3.6210939003354228,89.5,0.353672407304073
1306893658.61,1.3755108,7.020824,1645.0459844000002,61.1,16.5,84.1,804512.0664268,-11584.974124,-1.0,403.0858541208936,46722.18260079124,46722.18260079124,297.18039974676174,0.08002431956645338,3.5962841658448417,88.3,0.3548027113285699
1306893659.05,1.3765047,7.0209031,1699.8688208,61.1,15.9,86.5,804767.3813956,-11542.2575872,-1.0,415.4316610277192,53198.388368298496,53198.388368298496,297.11000259491817,0.0787604630483811,3.663258323660053,91.4,0.3559459527983862
1306893659.48,1.3774808,7.0209512,1753.4121296,61.1,15.8,88.7,805018.726548,-11511.0567988,-1.0,416.8372381740864,58182.94444800694,58182.94444800694,297.8265082675274,0.07870222789280895,3.6622463861962435,92.10000000000001,0.3570984571728394
1306893659.9,1.378455,7.0209709,1806.6273543999998,61.1,15.8,90.9,805270.1701256,-11490.2234648,-1.0,425.86656354714785,65415.51365547845,65415.51365547845,298.23720862944106,0.07974040442944494,3.6641241126907227,93.0,0.3582591527108972
1306893660.33,1.3794511,7.0209623,1860.9908732000001,61.1,15.8,93.1,805527.8472992,-11479.4623096,-1.0,426.09855609192715,71546.262768115,71546.262768115,300.33072470202205,0.07947143123384588,3.650675262850348,93.30000000000001,0.35942972357703895
1306893660.75,1.3804212,7.0209263,1913.8452056,60.4,15.2,95.2,805779.3236852,-11478.9701836,-1.0,426.2073474825479,76843.37565985307,76843.37565985307,299.41468488880366,0.07824261037888473,3.6600884457794227,93.20000000000002,0.3606055765954116
1306893661.17,1.3814048,7.020866,1966.9948135999998,54.9,13.6,96.7,806034.7370792,-11487.172283599999,-1.0,433.4961872485981,81921.45972178632,81921.45972178632,300.6130256276125,0.07978494181206418,3.592699262587694,89.9,0.36184588718158833
1306893661.6,1.3824228,7.020787,2020.3740804,46.5,12.7,97.8,806299.4352504,-11501.7064048,-1.0,439.04176286005514,88067.07496331417,88067.07496331417,302.8237820800055,0.07818464966796915,3.5960432980810735,91.2,0.36309017852017095
1306893662.03,1.3834527,7.0206945,2072.7690952,40.1,12.7,98.6,806567.5126868,-11520.997744,-1.0,444.814898667599,92662.43224121674,92662.43224121674,300.7899647406446,0.07599715549877578,3.4817106324823928,91.3,0.36433561815271687
1306893662.5,1.3845883,7.0205787,2129.6588608,33.2,12.7,99.5,806863.2804128,-11547.244464,-1.0,449.55701849684095,97298.18808749762,97298.18808749762,298.65524782863184,0.07806956078181723,3.48568001664449,91.0,0.36558802410197333
1306893662.94,1.3856585,7.0204583,2183.1365527999997,26.5,12.7,100.2,807142.3158548,-11576.1486644,-1.0,453.80631652657246,101079.76838749407,101079.76838749407,298.7872295243999,0.07550125333228333,3.5194468391581606,91.10000000000001,0.3668435687213958
1306893663.36,1.386686,7.0203342,2234.7113576,20.8,12.7,100.8,807410.3604828,-11606.955752,-1.0,457.43344603882605,103328.37661000715,103328.37661000715,299.35154347462594,0.07763972786196158,3.45819197968371,87.6,0.3680915346006609
1306893663.79,1.3877494,7.0201992,2288.5171336,16.0,12.7,101.2,807687.9195468,-11641.2733384,-1.0,463.2558690011712,106609.73253431467,106609.73253431467,298.1372796758943,0.07758841615459558,3.4233333943445503,84.5,0.3693401129033731
1306893664.22,1.3888148,7.0200587,2343.0446944,11.4,12.7,101.5,807966.069162,-11677.5266204,-1.0,464.89347102651317,109298.16417934833,109298.16417934833,297.20841931632924,0.07634871603152087,3.5184283259452283,84.80000000000001,0.37059175332332067
1306893664.65,1.3899,7.0199122,2399.2454835999997,7.7,12.7,101.5,808249.5009296,-11715.6499812,-1.0,474.0029925936443,113185.9877877141,113185.9877877141,296.3071140572283,0.07553577391636698,3.468113358179434,82.7,0.3718476807073976
1306893665.07,1.3909889,7.0197662,2456.2664827999997,5.0,12.7,101.4,808533.8513324,-11753.6093,-1.0,486.64294234039625,116702.89952434739,116702.89952434739,296.8177515597316,0.07725409624064311,3.376273087175997,84.00000000000001,0.37311333031369676
1306893665.49,1.3920687,7.019623,2513.3530988,3.5,12.7,101.4,808815.8395304,-11790.617175200001,-1.0,482.6913352711103,118257.24356204561,118257.24356204561,296.5116914386245,0.07933596422989474,3.404412938399221,86.60000000000001,0.37438816627170207
1306893665.91,1.3931493,7.0194802,2570.866224,2.7,12.7,101.4,809097.9917704,-11827.461008400001,-1.0,483.0365479242308,121252.0264263559,121252.0264263559,296.4966758984296,0.0808369530504676,3.4138892845774524,88.50000000000001,0.3756726478989987
1306893666.35,1.3943071,7.0193274,2632.710058,1.9,12.7,101.4,809400.2883680001,-11866.9295136,-1.0,493.78849132202805,124461.73799832727,124461.73799832727,296.81821823232235,0.08034981588937658,3.4655558255511223,89.7,0.3769791767703897
1306893666.77,1.3954217,7.0191802,2692.4541544,1.3,12.7,101.4,809691.3316844,-11904.8888324,-1.0,497.9927307650305,127160.84610023453,127160.84610023453,296.3775719914714,0.0819680127894844,3.523682873565305,88.00000000000001,0.3782923657467677
1306893667.21,1.3965883,7.0190264,2755.0525816,1.0,13.0,101.4,809995.92487,-11944.554188,-1.0,497.5058583681242,132197.63998614275,132197.63998614275,294.5109569614843,0.08365175336124672,3.5684169497205827,88.20000000000002,0.3796268364379313
1306893667.65,1.397777,7.0188698,2818.8321112,0.7,13.0,101.4,810306.2595256,-11984.908519999999,-1.0,506.63931716059176,137930.29872254588,137930.29872254588,292.49437302440424,0.0839062649152636,3.6565583251889646,91.60000000000002,0.38098978481938367
1306893708.34,1.5205378,7.0035516,8818.241752,0.7,13.0,101.6,842351.56895,-15817.3233408,-1.0,553.2488421937435,140619.61840621947,140619.61840621947,294.31477173656424,0.08147471818439295,3.680540364518392,92.00000000000001,0.39622580844143085
1306893715.61,1.5429107,7.0007658,9890.1249884,0.7,13.5,101.6,848193.3998456,-16508.399478400002,-1.0,563.9904199227093,145495.38879936276,145495.38879936276,296.54343544638033,0.08019732644284445,3.690868352161694,90.9,0.4138356618972489
1306893722.22,1.5632535,6.9982253,10865.1250196,0.7,13.5,101.6,853505.8672071999,-17138.123907999998,-1.0,564.0998379985087,151748.2324155177,151748.2324155177,296.5350629429837,0.08191284711870121,3.699237886970377,90.10000000000001,0.4335893801824633
1306893726.26,1.5756419,6.9966743,11459.317952000001,0.7,13.6,101.6,856741.33319,-17522.3430804,-1.0,562.1388234669811,156686.5628687915,156686.5628687915,296.6754807585193,0.07979089715354112,3.7613084306174547,89.2,0.4545964996050354
1306893732.4,1.5944976,6.994307,12365.3875348,0.7,13.6,101.7,861666.3989643999,-18108.6619968,-1.0,563.0542397431033,163544.96870241026,163544.96870241026,296.26706288372503,0.07604875027045192,3.729536675164394,87.3,0.4775845792200835
1306893736.44,1.606818,6.9927545,12959.5476588,0.7,13.7,101.7,864884.8045792,-18493.2092532,-1.0,559.3059935702662,170372.10451994883,170372.10451994883,295.97373732477024,0.07472142415265352,3.787260186881194,84.0,0.5018248351255954
1306893745.84,1.6352359,6.989147,14344.4230312,0.7,13.8,101.7,872309.3454992,-19387.9927464,-1.0,554.7840837496796,173117.62625171966,173117.62625171966,295.9749232424709,0.0749879746487779,3.8482182868694306,82.0,0.5291521645219209
1306893747.38,1.639828,6.9885592,14571.227500400002,0.7,13.7,101.7,873509.3127292,-19534.088551599998,-1.0,547.6384160375604,172550.1372856763,172550.1372856763,297.5070832744086,0.07146876971530433,3.7903622503488315,81.6,0.5568693014423058
1306893748.46,1.6430404,6.988147,14730.5122824,0.7,12.8,101.7,874348.78126,-19636.64761,-1.0,546.3831815228577,170037.49944275155,170037.49944275155,298.81341106803734,0.072627824591558,3.706885421209838,83.2,0.5848120398500049
1306893748.89,1.6443125,6.9879835,14791.6999484,0.7,11.3,101.7,874681.1631604,-19677.330026,-1.0,542.8519607915487,164335.35128225942,164335.35128225942,299.6487527521331,0.07159592212130522,3.6717404780808693,80.4,0.6127487305761641
1306893749.33,1.6456131,6.9878162,14849.8692416,0.7,10.3,101.7,875021.0581844,-19718.996694,-1.0,541.3342441439327,158648.93006860773,158648.93006860773,299.3581135957805,0.07074940583551219,3.6183587565921593,79.60000000000001,0.626822527601536
1306893749.76,1.6469069,6.9876495,14902.9204244,0.7,9.5,101.7,875359.1815547999,-19760.532128400002,-1.0,549.7091250204171,153437.88570480747,153437.88570480747,299.90727581870254,0.0719104952383819,3.567257844817392,80.7,0.6385190499112471
1306893750.2,1.6481967,6.9874831,14951.2143892,0.7,8.8,101.7,875696.2878648,-19802.001946,-1.0,534.7139686417972,147293.1851907921,147293.1851907921,298.4795319790193,0.07037038738644162,3.546605991119485,82.49999999999999,0.6480532581352191
1306893750.63,1.6494913,6.9873159,14995.374495600001,0.7,8.2,101.7,876034.6080856001,-19843.668614000002,-1.0,548.0417953103483,144810.3125439132,144810.3125439132,297.46051682599455,0.0711893545596985,3.4690157166078004,82.1,0.6563040564729269
1306893751.06,1.6507846,6.9871488,15035.433552,0.7,7.6,101.7,876372.5346056,-19885.368090400003,-1.0,546.6301109069732,140166.82174822368,140166.82174822368,296.1706829163288,0.07371567432769535,3.545257861507741,82.00000000000001,0.6625341636470301
1306893751.49,1.6520554,6.9869843,15071.161899599998,0.7,7.1,101.7,876704.7196556,-19926.3785904,-1.0,536.8044149924008,136517.1163071161,136517.1163071161,295.7458553334005,0.07233806991843252,3.5956025655102457,82.30000000000001,0.667461263384563
1306893751.91,1.6533063,6.9868224,15103.1172812,0.7,6.7,101.7,877031.68817,-19966.7985392,-1.0,540.3835987061747,137090.26205618132,137090.26205618132,296.06124391054493,0.07338575822950627,3.5911966453975555,84.6,0.6692315499112472
1306893752.34,1.6545941,6.9866555,15132.8745,0.7,6.2,101.7,877368.1711204,-20008.4652072,-1.0,542.6925193827209,136530.1914842534,136530.1914842534,297.1369350427351,0.07422092944280191,3.668623235503419,84.0,0.6705420595350442
1306893752.77,1.6558856,6.986488,15159.8101964,0.7,5.8,101.7,877705.8023647999,-20050.263108799998,-1.0,544.1399336422039,135873.53419178023,135873.53419178023,295.56215498169325,0.07060025910154197,3.7473837073106067,85.20000000000002,0.6715437546356565
1306893753.2,1.6571716,6.9863212,15183.924370400002,0.7,5.4,101.7,878041.8916144,-20091.9297768,-1.0,541.3649008386138,138082.0589292665,138082.0589292665,296.3025888032577,0.07126234723509955,3.777271354191083,87.20000000000002,0.6724589449243704
1306893753.63,1.6584639,6.9861534,15205.709148,0.7,5.1,101.7,878379.5884756001,-20133.8261036,-1.0,543.6662964968073,138689.8328212747,138689.8328212747,296.64166769537115,0.07418273109670248,3.7926912471531744,90.3,0.6732892380127347
1306893754.06,1.6597533,6.9859859,15225.1973376,0.7,4.8,101.7,878716.6947856001,-20175.6568136,-1.0,542.5108242179516,136136.23243884204,136136.23243884204,295.8152961395762,0.07561471667248233,3.852880199289697,89.1,0.6740412174528045
1306893754.48,1.6610368,6.9858191,15242.5529812,0.7,4.5,101.7,879052.1606756,-20217.3234816,-1.0,552.4347708999366,137972.43382622369,137972.43382622369,296.45166730825486,0.07686418674873517,3.9484426152448804,88.2,0.6747210074790512
1306893754.91,1.6623172,6.9856526,15258.0057376,0.7,4.2,101.7,879386.8063556001,-20258.8917244,-1.0,538.2795556741783,135863.93981652646,135863.93981652646,296.9563636856178,0.07680849941697032,3.9538766379309807,91.3,0.6753338136907747
1306893755.34,1.6635974,6.9854861,15271.7852656,0.7,4.0,101.7,879721.4520356001,-20300.4927756,-1.0,538.1664554286989,136782.10968156677,136782.10968156677,297.8574392520092,0.0771560144237211,3.849277025539165,91.7,0.6758853010048606
1306893755.76,1.6648745,6.9853199,15283.989990400001,0.7,3.8,101.7,880055.1790804,-20341.995401599997,-1.0,549.2458733367044,139308.19245179108,139308.19245179108,298.86813397920037,0.07690882955886406,3.80142226894584,95.0,0.6763818998675027
1306893756.19,1.6661363,6.9851557,15294.685528799999,0.7,3.6,101.7,880385.0019256001,-20383.03871,-1.0,530.3332681362252,138830.17257681914,138830.17257681914,300.8436679528114,0.07457140862101864,3.695817686851928,92.89999999999999,0.6768288924309322
1306893757.03,1.6686772,6.9848248,15312.6317236,0.7,3.3,101.7,881049.1751752001,-20465.6830696,-1.0,546.414694335728,143080.68837516333,143080.68837516333,300.89504434188217,0.07497905813532717,3.669659640313062,95.3,0.6772483259392438
1306893759.98,1.6774995,6.9836747,15348.064795600001,0.7,2.6,101.7,883355.3104196,-20752.9862284,-1.0,540.1746589844665,144306.36013939866,144306.36013939866,300.55000171984847,0.07539281925164594,3.580356545523155,92.2,0.6776875866566541
1306893761.68,1.6825924,6.98301,15356.594979599999,0.7,2.4,101.7,884686.6096748,-20919.0295408,-1.0,541.0650909479492,143374.61555293726,143374.61555293726,298.9623393571051,0.07372995765852458,3.502491072346133,92.1,0.6780904847318946
1306893762.95,1.686386,6.9825146,15359.8102028,0.7,2.3,101.7,885678.34199,-21042.7500172,-1.0,539.5367526971779,144266.72464393367,144266.72464393367,298.1003023126137,0.07197999077495644,3.61856428608569,90.6,0.6784500538482551
1306893765.91,1.695266,6.9813538,15361.647473199999,0.7,2.2,101.7,887999.8315656001,-21332.5794228,-1.0,541.8548685385716,144037.39444983544,144037.39444983544,298.1776392194056,0.0697000780152023,3.516221945283136,92.7,0.6787684374878
1306893776.5,1.7269454,6.9772026,15356.004428400001,0.7,2.2,101.7,896282.6402296,-22368.176568799998,-1.0,540.3861609824742,139841.9656903351,139841.9656903351,299.8555286182861,0.07074028049762512,3.4299380207963663,93.80000000000001,0.6790331575227957
1306893831.46,1.8914021,6.955387,15356.004428400001,0.7,2.2,101.7,939305.7387192,-27789.141309199997,-1.0,540.8550321514484,140079.61931241702,140079.61931241702,302.1918018371808,0.07185358466996689,3.5202915755653152,93.9,0.6792618211273452
1306893852.64,1.9547107,6.9468673,15354.396816800001,1.1,2.7,101.7,955879.0004043999,-29897.146625999998,-1.0,540.6543527690044,140094.35634192658,140094.35634192658,303.2275366577509,0.07190266625247177,3.621397395653655,94.70000000000002,0.6794545814073102
1306893853.29,1.9566406,6.9466029,15356.8574468,28.7,4.0,102.6,956384.4466147999,-29962.894659600002,-1.0,537.3529595879247,137856.27446159243,137856.27446159243,302.8940150745356,0.07413329418866728,3.644273422936029,92.30000000000001,0.6796246054668028
1306893853.93,1.9585609,6.9463148,15363.714402399999,40.5,4.8,104.1,956887.8587043999,-30037.4353444,-1.0,543.8396385249836,139629.74380815277,139629.74380815277,302.7276757773755,0.07480530451688419,3.7663097229712608,93.30000000000003,0.679785672833382
1306893854.14,1.9591867,6.9462124,15366.7655836,42.1,5.0,104.7,957052.0975547999,-30064.830358400002,-1.0,541.2983085523737,139002.8808206364,139002.8808206364,301.56003562008686,0.07395166676719914,3.719385963882388,91.90000000000002,0.6799119851693399
1306893854.79,1.9610906,6.945871,15378.1829068,51.0,5.6,106.7,957552.52408,-30159.056083199997,-1.0,533.7190050064659,139918.4344750435,139918.4344750435,302.45230193695414,0.076644134393296,3.7885073868869785,93.70000000000002,0.679982260759891
1306893855.86,1.9642136,6.9451887,15402.2970808,55.8,6.5,110.9,958376.1133452001,-30358.1374544,-1.0,536.603708419025,141657.27853028945,141657.27853028945,302.9300971611507,0.0764853155138299,3.7832882216390753,93.40000000000002,0.680088898992612
1306893856.07,1.9648107,6.9450382,15407.64485,56.7,6.6,111.7,958534.0201744,-30403.5114716,-1.0,527.7683177241108,142780.67967236065,142780.67967236065,303.57542785280884,0.07788828884075165,3.7174200923957468,93.4,0.6802005131658404
1306893856.51,1.9660545,6.9447017,15419.5214908,57.8,6.9,113.6,958863.4165104,-30506.3658056,-1.0,527.7864523366208,148858.41610339895,148858.41610339895,304.3277211416755,0.08036203035644902,3.7268657696467566,91.2,0.680335552535919
1306893856.72,1.9666494,6.9445292,15425.5582364,58.1,7.0,114.6,959021.3233396,-30559.810689199996,-1.0,532.9509309240437,154013.73268591106,154013.73268591106,304.91305991195816,0.08076953329378661,3.709548432321276,91.7,0.6804978447493925
1306893857.39,1.9685114,6.9439379,15445.9322528,59.0,7.0,117.6,959516.5333292,-30745.7030836,-1.0,528.1696316510131,155268.1984503754,155268.1984503754,304.11212267937213,0.07891889087205102,3.7303012880490245,90.0,0.6807076763329445
1306893857.81,1.9696584,6.9435325,15459.646164000002,59.4,7.4,119.5,959822.4716592,-30875.230646800002,-1.0,526.924087531074,156160.78511958942,156160.78511958942,302.0633276899139,0.07602848275989098,3.6970496000279782,90.30000000000001,0.6809532581352192
1306893858.24,1.9708098,6.9430916,15474.3443272,59.6,7.5,121.5,960130.3456848,-31017.6191028,-1.0,523.6545545270192,153502.49366986245,153502.49366986245,302.2431278298078,0.07471601360976016,3.6201555632595928,92.7,0.6812273941807137
1306893858.87,1.9724647,6.942394,15497.1461652,59.6,7.5,124.3,960574.2761452001,-31245.506249199996,-1.0,523.5997126876118,146057.59239025647,146057.59239025647,302.6176977918263,0.07482088400486792,3.551785013570937,93.8,0.6815387349506173
1306893859.08,1.9729898,6.942156,15504.856139200001,58.4,7.5,125.3,960715.5491156001,-31323.9183252,-1.0,506.46335518041286,141337.12555081287,141337.12555081287,302.8248329499465,0.07439455549752763,3.5537317374921558,93.9,0.6818609462367066
1306893859.73,1.974628,6.9413618,15530.67635,48.1,7.1,127.8,961157.4454552,-31587.271351999996,-1.0,519.7849860298209,145036.45056860024,145036.45056860024,301.7564996329877,0.0712007620130001,3.61972233220109,94.2,0.6822167642594537
1306893860.15,1.9756514,6.9408315,15548.6225448,40.0,6.7,129.0,961434.1843092,-31764.3054784,-1.0,511.92799922805085,145180.77432754583,145180.77432754583,301.976406807665,0.0734556643663928,3.584167597924514,93.4,0.6825581903311947
1306893860.57,1.976679,6.9402789,15568.0123092,32.3,6.5,129.9,961712.6292,-31949.3448544,-1.0,520.4827265520925,149496.04703261313,149496.04703261313,300.5376216436819,0.07193488869295687,3.557766061529994,93.4,0.6829323810573539
1306893861.43,1.9787383,6.9391297,15609.8758276,18.1,6.2,131.0,962271.3890604,-32335.3684888,-1.0,515.3523148182182,150922.61742517634,150922.61742517634,297.89557464584914,0.06817444287585751,3.623052484777607,95.9,0.6833765411623409
1306893861.85,1.9797394,6.9385578,15631.2669044,12.7,6.2,131.3,962543.4035047999,-32527.8553716,-1.0,517.3694152728018,143383.30864829864,143383.30864829864,295.75642626101467,0.06645641461255253,3.5944457961063234,93.10000000000001,0.6838565280389812
1306893862.28,1.9807502,6.9379748,15653.3141492,8.1,6.2,131.5,962818.0754296,-32724.246454,-1.0,511.6070736323674,130121.66251572437,130121.66251572437,295.79222691431016,0.06591735233723557,3.4854553732321496,92.2,0.6843404191150967
1306893862.49,1.9812624,6.9376779,15664.633047199999,6.3,6.2,131.6,962957.3142792,-32824.2792656,-1.0,532.7054168029969,117771.80046666853,117771.80046666853,297.9639163124637,0.06616180873927635,3.451589336313562,92.80000000000001,0.6848187218272577
1306893862.7,1.9817626,6.9373872,15675.7222864,4.5,6.2,131.6,963093.3379056001,-32922.245148,-1.0,520.2851666474864,100473.85238798129,100473.85238798129,297.2207445064374,0.06727172764378123,3.494799868118962,90.1,0.6852886037170214
1306893863.12,1.9827561,6.9368083,15697.933573199998,1.7,6.2,131.6,963363.5150796,-33117.3895112,-1.0,517.030247999507,87894.32671892813,87894.32671892813,295.6175514135928,0.06754852662257335,3.5297330517319074,86.6,0.6857571076540293
1306893863.96,1.9847343,6.9356526,15742.6842308,-2.0,6.2,131.6,963901.5728396,-33507.054878,-1.0,515.1880559180156,83173.32358548821,83173.32358548821,295.40841945757,0.06809656993395576,3.6104854708643708,86.39999999999999,0.6863120398500048
1306893864.38,1.985739,6.9350656,15765.5516856,-3.1,6.2,131.6,964174.8011948,-33704.9879552,-1.0,523.6496801803338,77502.24613665788,77502.24613665788,295.4628447221435,0.07070748847842928,3.5680659685530376,85.3,0.6868600822822007
1306893864.8,1.9867434,6.9344792,15788.550374,-3.8,6.2,131.6,964448.02955,-33902.691373600006,-1.0,523.4771215108518,77866.11752321511,77866.11752321511,295.73221421714874,0.0691663894056578,3.562160458279248,87.3,0.687419913865753
1306893865.01,1.9872476,6.9341851,15800.098930799999,-4.1,6.2,131.5,964585.1030452001,-34001.838358400004,-1.0,525.2550785224131,80147.54340508637,80147.54340508637,296.3746681701336,0.0689997421293058,3.5651388786445986,88.6,0.6879614492988237
1306893865.23,1.9877691,6.9338811,15812.1068052,-4.2,6.2,131.5,964726.9993752001,-34104.2989916,-1.0,518.4903057600274,79133.54868892314,79133.54868892314,298.78424733218543,0.07041419531645253,3.4780455469145752,89.7,0.6884333215647905
1306893865.65,1.9887805,6.9332922,15835.4007692,-4.4,6.2,131.4,965002.0978092001,-34302.7570032,-1.0,526.7418603319575,79649.63499833544,79649.63499833544,300.9352068830467,0.07206199948569451,3.5737362412090454,91.5,0.6889096339007486
1306893866.08,1.9898015,6.9326988,15858.9900088,-4.3,6.2,131.3,965279.72249,-34502.7242012,-1.0,518.6533335220522,81111.84494222466,81111.84494222466,300.9482204497795,0.07355074626764069,3.612692229725403,90.6,0.6893895442244581
1306893866.93,1.9918529,6.9315092,15906.562188799999,-3.8,6.2,131.3,965837.5637152,-34903.544424,-1.0,527.1922693615967,79265.59275175865,79265.59275175865,300.0572875998487,0.07564221224266904,3.5996614412612296,87.6,0.689954045536794
1306893867.36,1.9928953,6.930906,15930.840404800001,-3.4,6.2,131.1,966120.9626744,-35106.759653600006,-1.0,529.209067295492,80901.08892243961,80901.08892243961,299.87128766702796,0.07746902993586705,3.592113579466965,89.2,0.6905493211273452
1306893867.78,1.993913,6.9303175,15954.6264948,-2.9,6.2,131.1,966397.66872,-35304.955198,-1.0,528.8353842001762,81651.15929233714,81651.15929233714,299.17746958424004,0.07821925093438692,3.5986490644005418,92.5,0.6911482712585787
1306893867.99,1.9944372,6.9300146,15966.864028,-2.7,6.2,131.1,966540.1884096,-35406.9565136,-1.0,545.3074526300031,82059.28071459931,82059.28071459931,298.40111161404207,0.08023858883651776,3.5980213992726804,94.60000000000002,0.6916713574353066
1306893868.2,1.99494,6.9297242,15978.6422436,-2.5,6.2,131.0,966676.9666292,-35504.791162400004,-1.0,522.3456819367623,77177.66056537816,77177.66056537816,300.97172745725624,0.08115129016384089,3.5351017741649358,95.20000000000003,0.692168568721396
1306893868.62,1.9959638,6.9291329,16002.657992399998,-2.0,6.2,131.0,966955.3130947999,-35703.905342,-1.0,531.9066850476547,78202.69199431331,78202.69199431331,300.959144552845,0.08249200651845072,3.596602395160424,94.10000000000002,0.6926681531483425
1306893869.26,1.997516,6.9282367,16039.1737416,-1.3,6.2,131.0,967377.2947356001,-36005.742622,-1.0,529.0705926551543,78354.3892712364,78354.3892712364,302.08069662866126,0.08463701245471741,3.6692777942804176,91.5,0.6932259943556915
1306893869.68,1.9985534,6.9276375,16063.648808,-0.9,6.2,131.0,967659.3485504,-36207.514282,-1.0,539.3124766252507,80472.95237404766,80472.95237404766,300.82008681889977,0.08670645191660192,3.734808948223251,91.10000000000002,0.6938129256767764
1306893870.12,1.9996092,6.9270274,16088.616000400001,-0.5,6.2,131.0,967946.5204756,-36413.0260996,-1.0,523.5729659042005,84551.0282167767,84551.0282167767,299.9318459491894,0.08669888217473362,3.665017563148033,91.9,0.6944037611973364
1306893870.76,2.0011756,6.9261212,16125.7879176,0.0,6.2,131.0,968372.4391243999,-36718.2098364,-1.0,534.524741158465,89735.58367458447,89735.58367458447,299.06994547014403,0.0843492345224494,3.6994978486310073,95.20000000000002,0.6950262896312822
1306893871.18,2.0022269,6.9255123,16150.8207268,0.3,6.2,131.0,968658.3643304,-36923.3279532,-1.0,547.5235549709134,88312.17849378401,88312.17849378401,300.6419571868679,0.0822108145488806,3.6796757869133176,97.4,0.6955962262017108
1306893871.6,2.0032571,6.9249148,16175.3942184,0.5,6.2,131.0,968938.5808747999,-37124.574678799996,-1.0,536.3267411928873,86141.86910755408,86141.86910755408,300.58525716941193,0.08111288130744658,3.685078981856171,96.60000000000002,0.6961668517485176
1306893872.44,2.0053124,6.9237203,16224.606818400001,0.9,6.2,131.0,969497.6688192,-37527.0353216,-1.0,535.3768784501885,86761.55494673233,86761.55494673233,302.81727428930037,0.08202500607799783,3.6872023269391025,95.30000000000001,0.6967968058167591
1306893872.87,2.0063597,6.9231102,16249.7708612,1.1,6.2,131.0,969782.5769647999,-37732.579947599996,-1.0,533.2303429421511,82445.05585488692,82445.05585488692,302.26475943829865,0.08075813643500357,3.6396505588575834,95.0,0.6974569217397686
1306893873.29,2.0073928,6.9225074,16274.672436800001,1.2,6.2,131.0,970063.7121443999,-37935.7623688,-1.0,539.2337719625142,83611.19538800018,83611.19538800018,299.5762688813989,0.08009892522265925,3.6798282246420113,96.4,0.6981476588351317
1306893873.93,2.0089755,6.9215817,16312.9270312,1.4,6.2,131.0,970494.4208196,-38247.7702528,-1.0,542.6677276371109,85187.13855270282,85187.13855270282,300.62256401187267,0.07936214559913393,3.722730271457862,96.69999999999999,0.6988716199024982
1306893874.56,2.0105201,6.9206758,16350.394224000001,1.5,6.2,131.0,970914.7620404,-38553.1836484,-1.0,538.3288423756038,86670.62139512456,86670.62139512456,301.08932946707785,0.07638017138200312,3.6828154875479777,98.1,0.6995978010048606
1306893875.64,2.013183,6.9191079,16415.2564308,1.5,6.2,131.0,971639.63083,-39081.9238228,-1.0,542.3406513074552,85583.86651700427,85583.86651700427,299.7287797214529,0.07286564368220967,3.701367921340014,96.40000000000002,0.7004182187651405
1306893876.08,2.0142662,6.9184678,16441.765617999998,1.5,6.2,131.2,971934.6111543999,-39297.8359032,-1.0,542.2995737263634,85865.89128363556,85865.89128363556,297.69068361022704,0.07157109365663135,3.7227007363863103,95.30000000000001,0.7012422345131719
1306893878.0,2.0190077,6.9156496,16558.8587976,1.8,6.2,131.2,973226.1138204,-40248.852994,-1.0,545.2615813260601,85780.64623259974,85780.64623259974,298.4881505697635,0.07544486582479197,3.6632716244457697,94.10000000000001,0.702252733200836
1306893878.84,2.0210838,6.9144071,16610.6304528,1.8,6.4,131.4,973791.86187,-40668.308388000005,-1.0,547.2095521689974,85095.71511051105,85095.71511051105,295.7795965810141,0.07672346964238871,3.715702368437741,91.80000000000001,0.7033256225271702
1306893879.48,2.0226787,6.9134492,16650.295808400002,1.7,6.4,131.4,974226.57317,-40991.8320204,-1.0,552.7294705778612,85779.84720086257,85779.84720086257,295.04325798861095,0.07583625742683499,3.7706155314158427,91.80000000000001,0.7044337262017109
1306893880.12,2.024249,6.912503,16689.4034212,1.7,6.4,131.4,974654.6243647999,-41311.4186448,-1.0,544.4668351068859,85972.633724418,85972.633724418,295.12447263096857,0.0733319960763144,3.658352601016839,91.60000000000001,0.7055182515735393
1306893880.54,2.0252811,6.9118796,16715.190823599998,1.7,6.2,131.4,974935.9563947999,-41522.0485728,-1.0,545.8286792763937,87172.28188727354,87172.28188727354,295.05791182887486,0.07522246818790494,3.5793136981150124,89.3,0.7066042314510547
1306893883.71,2.0327899,6.9073094,16905.873244399998,1.7,6.4,131.4,976984.2176152001,-43066.8648952,-1.0,526.9916056589143,87375.75658186998,87375.75658186998,296.96164799106754,0.07329603044801182,3.645178606762318,89.4,0.708077033288325
1306893884.56,2.0347038,6.9061344,16954.7905688,1.7,6.4,131.4,977506.4945348,-43464.3058528,-1.0,501.46917215681935,87231.5634168115,87231.5634168115,297.02313133765074,0.07129887068893245,3.562468700554457,89.00000000000001,0.7095747148281325
1306893884.77,2.0351753,6.9058442,16966.86406,1.7,6.5,131.8,977635.2675047999,-43562.4357772,-1.0,500.6445751229326,88404.16386225585,88404.16386225585,295.28865219502393,0.07299894491216337,3.6090827065560678,88.9,0.7110131443994361
1306893886.03,2.0379379,6.9041385,17037.9598628,1.7,6.5,131.9,978389.4341956001,-44139.60115,-1.0,488.81736331660755,88218.02363619008,88218.02363619008,296.8022320048161,0.07535083149458405,3.5202387766263654,89.60000000000001,0.7124661190276076
1306893887.09,2.0401758,6.9027489,17095.965114000002,1.7,6.5,131.9,979000.6218792,-44609.9751808,-1.0,470.9172872520021,86798.11832799469,86798.11832799469,298.3437834392384,0.07685312285672469,3.5854225206454173,88.4,0.7139925844694274
1306893887.3,2.0406202,6.902472,17107.5136708,1.8,6.5,132.0,979122.0129592,-44703.7087796,-1.0,472.7036156240304,84993.44197758098,84993.44197758098,296.99525454790484,0.07609006532010787,3.677994726205895,88.60000000000001,0.7152727791325943
1306893890.06,2.0464123,6.8988343,17259.613413199997,2.4,6.5,132.0,980704.8870256001,-45936.057900399996,-1.0,470.1362647054021,80746.81241876917,80746.81241876917,297.8214560308354,0.07797570151653589,3.6257590902931525,88.7,0.7167870726584039
1306893890.27,2.0468485,6.898558,17271.16197,3.1,6.5,132.0,980824.2439848,-46029.693074,-1.0,466.94286627030556,74610.12550449137,74610.12550449137,299.03548170596423,0.07765960892136564,3.5926282463069303,88.30000000000001,0.7182357603224457
1306893890.9,2.0481789,6.8977126,17306.4638084,3.8,6.5,132.0,981187.9907156001,-46316.340064799995,-1.0,475.48033206337476,70173.83556992954,70173.83556992954,298.691526557136,0.07976221838138708,3.7014927450403023,87.4,0.7196755678465052
1306893891.76,2.0499643,6.8965709,17354.068796800002,3.6,6.5,132.5,981676.5406,-46703.57761,-1.0,468.39032932951176,64824.55371219782,64824.55371219782,298.756620550977,0.07948235265344636,3.774153687588506,89.9,0.7211662830696024
1306893892.39,2.0512841,6.8957219,17389.436252,3.3,6.5,132.5,982037.6298504,-46991.6681704,-1.0,473.9026710012655,60707.08427297653,60707.08427297653,297.8852981806961,0.07861084722413303,3.66689675059666,88.2,0.7222945967178964
1306893893.03,2.0526106,6.8948642,17425.1317912,2.9,6.5,132.5,982400.78603,-47282.809912,-1.0,469.7347934052635,58766.114393302836,58766.114393302836,297.8060778440124,0.08032056939433697,3.7270296823048064,88.60000000000001,0.7233920595350444
1306893893.25,2.0530651,6.8945695,17437.4021328,2.8,6.5,132.7,982525.2610996,-47382.9083404,-1.0,468.83061380397817,56931.526868422625,56931.526868422625,297.8959637145865,0.08056829677460935,3.6840333459679853,88.30000000000001,0.7244899816697774
1306893893.68,2.0539602,6.8939876,17461.5819236,2.6,6.5,132.7,982770.4054644,-47580.5133336,-1.0,472.9939273372731,55699.95881703612,55699.95881703612,298.3867080745251,0.07926384405925256,3.797175236493645,87.2,0.725478433113347
1306893894.1,2.0548392,6.8934145,17485.400822,2.4,6.5,132.8,983011.1206952,-47775.132762400004,-1.0,476.1652322929534,55073.384712923595,55073.384712923595,297.5202867126836,0.07906572281562634,3.6816140192153677,88.39999999999999,0.7263871164029356
1306893894.31,2.0552585,6.8931406,17496.8181452,2.3,6.5,132.8,983126.0485204,-47868.1773848,-1.0,453.7838610923214,53952.18288271384,53952.18288271384,297.78226654134426,0.07770787107217716,3.583295072152109,88.1,0.727295493480801
1306893894.94,2.0565636,6.8922859,17532.3496424,2.0,6.5,132.8,983483.5616552001,-48158.5973416,-1.0,472.0418265369472,57242.600009673064,57242.600009673064,299.6999324574677,0.075120303858228,3.559488611619481,88.5,0.7279318779952366
1306893895.57,2.0578592,6.8914342,17567.749905999997,1.8,6.5,132.8,983838.61416,-48448.0330464,-1.0,469.2278823659108,59829.99128472037,59829.99128472037,300.2624207738933,0.07396249992310074,3.5679153884106074,90.8,0.7286239164904248
1306893895.78,2.0582904,6.8911501,17579.56093,1.7,6.5,132.8,983956.8228252,-48544.5881676,-1.0,468.98158294974684,62314.42685919877,62314.42685919877,298.848563046453,0.07474780519410254,3.5673906683710688,93.19999999999999,0.7292611430871002
1306893896.42,2.0596027,6.8902835,17615.5845532,1.7,6.5,133.0,984316.5013143999,-48839.1747912,-1.0,468.66100419064423,66111.19376484642,66111.19376484642,298.7756943261079,0.07350935410283008,3.5604795631183497,92.4,0.7298713464991738
1306893897.92,2.062662,6.8882522,17699.7052908,1.7,6.5,133.1,985155.3464856001,-49529.9556532,-1.0,467.1654402656714,64888.99192515239,64888.99192515239,299.0501588500685,0.07588523298761406,3.602125688280662,93.7,0.7305953075665402
1306893898.76,2.0643795,6.8871054,17747.0806204,1.2,6.5,133.1,985626.4751096,-49920.113145999996,-1.0,469.59603615430296,60502.95291453235,60502.95291453235,298.0861477847204,0.07644270993308998,3.532230737381951,94.0,0.7313465214773014
1306893899.18,2.0652257,6.8865387,17770.505817999998,1.1,6.5,133.1,985858.6929647999,-50112.9281128,-1.0,463.02419700437576,57532.69242815931,57532.69242815931,299.1103475934078,0.07733006130863705,3.4564033902658844,95.1,0.732123763384563
1306893900.02,2.0669401,6.8853874,17818.012381200002,0.9,6.5,133.2,986329.0669956001,-50504.7260256,-1.0,469.8350995384633,54551.80648718277,54551.80648718277,297.5412456059306,0.07983128366818802,3.3635930743609928,94.50000000000001,0.7329554344256829
1306893900.24,2.0673845,6.8850884,17830.381148,0.9,6.5,133.2,986451.0814352001,-50606.5304908,-1.0,465.40013002050966,50998.756216177564,50998.756216177564,297.91207700115893,0.07705974316963173,3.427389083561856,96.40000000000002,0.7337603884939244
1306893900.67,2.0682529,6.884504,17854.2328548,-0.4,5.4,133.0,986689.3688443999,-50805.4150116,-1.0,465.0163912080417,52663.325641069394,52663.325641069394,297.9353297829233,0.07746669950321407,3.4638957769969734,95.30000000000003,0.7345943561229705
1306893900.88,2.0686944,6.8842085,17865.5189444,-3.8,4.8,132.9,986810.5302656001,-50905.9727576,-1.0,483.97762820311556,53156.76982860161,53156.76982860161,295.17458961295375,0.08017484479988272,3.5391740893168495,97.80000000000001,0.7353717511360941
1306893901.52,2.0699897,6.8833447,17893.4717012,-5.6,4.2,132.9,987165.9108543999,-51199.7391712,-1.0,463.7423028755649,49219.36466108,49219.36466108,293.07480276784133,0.07986659898027007,3.5669054807585043,96.40000000000002,0.736131768633907
1306893901.73,2.0704156,6.8830597,17901.280100400003,-5.7,4.2,133.0,987282.7743752,-51296.7208016,-1.0,465.22380260174083,46460.45094616462,46460.45094616462,292.7371227338191,0.07734827859808921,3.488792490143854,95.70000000000002,0.7368824466741518
1306893902.15,2.0712754,6.8824805,17915.650179599998,-6.1,4.4,133.2,987518.6995796,-51493.8664772,-1.0,470.9519399405552,43302.936925195696,43302.936925195696,293.7220017585382,0.07823688882514579,3.4731033274927476,95.20000000000002,0.7375825997800136
1306893902.37,2.0717131,6.8821835,17922.605560400003,-6.5,4.5,133.3,987638.9423656,-51595.0147744,-1.0,458.6354308968131,39736.46640999209,39736.46640999209,294.33996257403004,0.07634316252344873,3.4052193404580593,93.40000000000002,0.7381027003924372
1306893903.0,2.0729859,6.8813111,17942.5202592,-7.5,5.0,133.7,987988.6799096,-51892.2916868,-1.0,468.10500045981405,41221.42041365115,41221.42041365115,295.2405093339878,0.07528621108494314,3.492747987131986,93.7,0.738558726201711
1306893903.42,2.073834,6.8807252,17956.3982124,-8.1,5.3,133.8,988221.8164,-52092.0620344,-1.0,469.5817839587619,45385.52318276414,45385.52318276414,293.74897487444196,0.07381102923683867,3.5393302688779515,93.6,0.7389924751080976
1306893904.06,2.0751153,6.8798364,17979.1016252,-8.7,5.7,133.8,988574.1129992,-52395.178841999994,-1.0,466.2924730682432,48824.289057732785,48824.289057732785,294.5289240973031,0.07207602780009216,3.5562969920431513,95.9,0.7393683499987361
1306893904.27,2.0755323,6.8795472,17987.008449599998,-8.8,5.7,133.8,988688.7127404,-52493.8337008,-1.0,462.226042576094,53942.08053314322,53942.08053314322,293.5696713536538,0.07489328811124073,3.5437988620598855,94.6,0.7397338136907747
1306893904.71,2.0764227,6.8789333,18004.5609436,-8.7,5.7,133.4,988933.5618296,-52703.1184844,-1.0,470.6074029776514,57879.881634849604,57879.881634849604,292.5499913284568,0.07658802769585125,3.535789727889003,96.3,0.7400845792200836
1306893905.13,2.077282,6.8783485,18022.0150124,-8.4,5.7,133.1,989169.5854592,-52902.2982808,-1.0,473.2087647946785,54581.10963867948,54581.10963867948,295.25170703579613,0.07585127958909416,3.578436284322754,96.89999999999999,0.7404497367003985
1306893905.34,2.077706,6.8780622,18030.67643,-7.8,5.6,132.9,989285.9240456001,-52999.7392288,-1.0,464.7993890626256,52398.835415357666,52398.835415357666,296.7434321011415,0.0777061377670632,3.544714659611815,95.6,0.7407698810573539
1306893905.99,2.0790182,6.8771787,18057.2840424,-6.7,5.2,132.9,989646.2258943999,-53300.3954064,-1.0,464.4121577314259,51020.59541443665,51020.59541443665,296.7213058677228,0.07714627162403045,3.586655725268836,95.19999999999999,0.7411338902437056
1306893906.63,2.0803145,6.8763008,18082.3824684,-6.9,5.2,132.9,990002.1970344,-53599.3127388,-1.0,467.12819313655154,48261.904949368676,48261.904949368676,296.86231417181136,0.0770365916497286,3.6252439043851106,93.5,0.7415229322384562
1306893906.84,2.0807331,6.8760162,18090.0924424,-7.1,4.8,132.9,990117.1248596,-53696.195944,-1.0,459.82043990172843,48306.22199826472,48306.22199826472,295.7009038790269,0.07832725021022703,3.699394298022791,95.0,0.7419137349506173
1306893907.47,2.0820149,6.8751445,18112.8942804,-3.8,5.2,132.9,990469.1918,-53993.0791556,-1.0,470.09749169379074,51155.0884662169,51155.0884662169,295.5032663545726,0.07927052920983832,3.711069217707987,93.70000000000002,0.742311274320696
1306893908.1,2.0832823,6.8742797,18135.597693199998,9.8,5.2,133.3,990817.4857744,-54287.6329708,-1.0,465.30459006572255,52447.628309501946,52447.628309501946,297.6366833575907,0.0783308983059132,3.6951535867186607,93.10000000000002,0.7427294064291824
1306893908.31,2.0837123,6.8739838,18143.4389008,14.1,6.2,133.5,990935.6944396,-54388.5188008,-1.0,475.95084636963765,52935.25775901046,52935.25775901046,296.817987586706,0.07874792482741987,3.781275842169347,94.00000000000001,0.7431128600599786
1306893908.95,2.0849894,6.8730906,18174.6396892,16.1,8.2,134.2,991287.0395952001,-54693.24322,-1.0,466.9986943838841,52676.556824321284,52676.556824321284,298.5944613369348,0.077849460179528,3.8206346650543517,94.20000000000002,0.7435506662717021
1306893909.58,2.0862228,6.8722054,18213.780110400003,5.1,9.4,134.6,991627.0330443999,-54995.802284800004,-1.0,464.2094951553824,50999.76876487465,50999.76876487465,300.30957223130247,0.07654266523849686,3.8633451230237608,94.00000000000001,0.7440388443119471
1306893909.79,2.0866304,6.8719115,18228.675124,4.6,12.4,134.5,991739.3033892,-55096.294413999996,-1.0,461.33643477462516,48911.549526700364,48911.549526700364,298.02107701014546,0.07572649420699921,3.7757360873040433,92.80000000000001,0.7445210512235831
1306893910.21,2.0874564,6.8713204,18267.7827368,2.3,17.9,134.1,991966.89526,-55298.2629244,-1.0,468.071768790592,49072.42541311809,49072.42541311809,297.80555418481475,0.07565244204523244,3.7990298628012926,92.39999999999999,0.7450742992550792
1306893910.43,2.0878795,6.8710206,18294.2591156,1.1,20.3,133.9,992083.4635052001,-55400.657940799996,-1.0,458.3587337878402,49221.32499942524,49221.32499942524,298.2581710017682,0.07815592186733611,3.74860528897224,92.6,0.7456272410748517
1306893911.07,2.0891129,6.8701635,18400.59114,-3.8,26.4,132.8,992422.7351696,-55692.915168,-1.0,461.780592497123,50717.23810014991,50717.23810014991,297.7988828467356,0.07694629621137282,3.6857830508389418,95.30000000000001,0.746369727951492
1306893911.29,2.0895256,6.8698834,18446.457283199998,-4.7,28.3,132.4,992536.121,-55788.32199519999,-1.0,453.4260231317597,52356.25770216448,52356.25770216448,297.45968595020435,0.07783361641586851,3.6140494358641537,94.8,0.7472012458867502
1306893911.72,2.090325,6.8693482,18550.919228799998,-2.4,32.0,131.8,992755.5435792,-55970.342998399996,-1.0,454.9954162673027,54817.58253773745,54817.58253773745,296.6801227117543,0.07514617308657191,3.55861561451238,94.7,0.7482233040669776
1306893912.14,2.0910807,6.8688483,18670.1449544,-1.1,35.5,131.4,992962.8270504,-56140.2248936,-1.0,450.8769145422377,59364.50061011173,59364.50061011173,296.5404800452497,0.07653202221246384,3.549103458226081,94.80000000000001,0.7494705809698646
1306893912.35,2.0914354,6.8686148,18733.5635916,-0.4,37.5,131.3,993060.1367648,-56219.5556048,-1.0,432.3069978952379,62782.153962032346,62782.153962032346,298.13637580679995,0.07755227751655701,3.473133393184497,93.30000000000001,0.750847538537669
1306893912.98,2.0924651,6.8679329,18949.0163544,2.0,42.8,131.4,993342.5842804,-56451.3141424,-1.0,435.5233445852837,70553.78053938977,70553.78053938977,298.8012162704096,0.0768592346198503,3.4398492035216632,91.0,0.7526544173653152
1306893913.61,2.0934083,6.8672861,19197.5399844,4.3,47.8,132.2,993601.8690656001,-56671.6553568,-1.0,433.55460656351363,75467.169465703,75467.169465703,297.22318926578976,0.07546634451669348,3.463978025581672,91.7,0.7549498569978614
1306893913.82,2.0936931,6.8670831,19285.039987199998,5.2,49.5,132.6,993680.4123752001,-56740.979506,-1.0,421.4108037550659,78148.91534282574,78148.91534282574,298.9999810572616,0.07614587843422493,3.4910868330973823,91.70000000000002,0.7574147082664529
1306893914.46,2.0944907,6.866485,19571.03081,7.9,54.4,134.0,993900.7535896,-56945.999197599995,-1.0,421.0718471174485,82739.57000247671,82739.57000247671,297.17595645814794,0.07421603800315221,3.42929518412303,91.9,0.7604556203399436
1306893915.09,2.0951525,6.8659364,19873.7211084,11.0,59.0,136.0,994084.8743304,-57135.10681519999,-1.0,414.30036037683425,82873.55951357959,82873.55951357959,296.8133017576168,0.07452734331302333,3.5228870924901763,90.60000000000002,0.7641410315385438
1306893915.3,2.0953424,6.8657648,19977.1659936,12.2,60.6,136.8,994138.0895552001,-57194.5884444,-1.0,404.5176579129839,77823.86161754832,77823.86161754832,297.8320657102963,0.07402099390816826,3.5817854092133503,90.80000000000001,0.7678197060792261
1306893915.94,2.0958322,6.865271,20299.6725656,16.2,65.1,139.8,994276.3113443999,-57366.570077200005,-1.0,397.18645961197535,77573.84822421132,77573.84822421132,297.759325302046,0.07243434207362416,3.6847063317037376,90.80000000000001,0.7721438749331194
1306893916.58,2.0961948,6.8648128,20635.2040724,21.3,69.3,143.7,994380.77329,-57527.626512799994,-1.0,393.5498342452884,71142.57167701646,71142.57167701646,298.7108303070179,0.07489803124049196,3.6295965452433134,88.7,0.7770072060792262
1306893916.79,2.0962868,6.8646683,20748.917986800003,23.1,70.5,145.2,994407.9386452001,-57578.807616800004,-1.0,396.5830116662733,61586.679904822966,61586.679904822966,296.0007623974289,0.07337019230606322,3.6556327271772013,89.2,0.7818576763329443
1306893917.22,2.0964269,6.8643925,20977.198834000003,27.2,73.4,148.9,994450.5895652,-57677.0359664,-1.0,382.53160570694524,57767.27198838549,57767.27198838549,296.722179572236,0.07063047464714615,3.607492721931654,87.70000000000002,0.7870928250643532
1306893917.65,2.0965114,6.8641295,21209.5807312,31.7,75.7,153.2,994478.5751304,-57771.49135,-1.0,383.4125989647863,51904.70157596493,51904.70157596493,294.79218844189893,0.06983621187464474,3.6043611733340137,90.80000000000001,0.7923674751080977
1306893917.86,2.0965318,6.864009,21321.2277164,34.4,76.8,155.7,994486.5803799999,-57815.0937136,-1.0,373.67018685538164,46173.47994663835,46173.47994663835,296.55580493498593,0.06948233078399185,3.537730001242544,89.1,0.7973227463241958
1306893918.5,2.096515,6.8636604,21663.9114544,43.6,79.6,164.4,994490.2877292,-57942.455922400004,-1.0,373.60634391654287,46528.49501123107,46528.49501123107,295.4504468051084,0.06691648926336102,3.510810190904496,89.8,0.8028734462367066
1306893918.93,2.0964397,6.8634468,21889.4035876,50.7,81.1,171.3,994475.6223743999,-58021.5241664,-1.0,364.3761180239487,49996.98538126135,49996.98538126135,298.0420125508089,0.06794851892501406,3.543594269510118,92.5,0.8082829825446681
1306893919.56,2.0962364,6.8631527,22221.3261704,63.2,82.5,183.4,994429.6906144,-58131.9900492,-1.0,367.112168577134,56531.68811678875,56531.68811678875,298.4875218694471,0.06761005366492023,3.554581885825619,91.39999999999999,0.8137607275140469
1306893919.77,2.0961493,6.8630647,22325.919349599997,67.3,82.7,187.5,994409.0869392001,-58165.520233999996,-1.0,348.69972022272816,62290.23389706131,62290.23389706131,297.28376133722765,0.06935425807863027,3.593304455559363,90.80000000000001,0.8192411518360064
1306893920.19,2.0959344,6.8628898,22541.3064956,76.3,82.7,196.2,994357.4137092,-58232.7446456,-1.0,361.7750803986861,71788.14820556669,71788.14820556669,297.8785503576887,0.07096992040391523,3.4996321343793033,92.20000000000002,0.8244716308386313
1306893920.4,2.0958119,6.8628076,22646.293375600002,80.9,82.7,200.8,994327.5580652001,-58264.70002720001,-1.0,355.60993240286706,77086.8747237819,77086.8747237819,296.581391975318,0.0707009106156067,3.6267806102395843,94.00000000000001,0.8291641723959364
1306893921.03,2.0953867,6.8625787,22951.8051964,93.4,81.6,212.9,994222.5711852001,-58355.05436079999,-1.0,349.786176865253,80596.82749893579,80596.82749893579,298.1106033123704,0.07040071417232233,3.624495484192353,94.40000000000002,0.8343042423871876
1306893921.24,2.0952285,6.8625088,23049.2461444,97.4,81.0,216.9,994183.2011052001,-58383.105542799996,-1.0,340.35833356983295,84997.98128939398,84997.98128939398,296.42752284767215,0.07324401508757171,3.6868340382898186,96.5,0.8391390192900746
1306893921.66,2.0948814,6.8623745,23242.1923448,104.4,79.6,223.7,994096.2588452001,-58437.731528799995,-1.0,342.2030911746857,86775.67780620436,86775.67780620436,297.72526016144735,0.07293350937818742,3.65432774995227,96.7,0.8438817795700397
1306893921.88,2.0946832,6.8623071,23342.028306,107.7,78.7,226.9,994046.4228856001,-58465.5202436,-1.0,343.97717129913,86515.1262484352,86515.1262484352,296.8380234169373,0.07475874485171238,3.6500329095851063,97.80000000000001,0.8485969807948868
1306893922.54,2.0940366,6.8621205,23629.0361892,116.1,75.6,235.1,993883.1026703999,-58544.0635532,-1.0,338.5895656087869,85836.79250248741,85836.79250248741,297.27756603184685,0.07716296040548035,3.7329227865123213,98.1,0.8531822716960241
1306893922.76,2.093803,6.8620628,23721.129367999998,118.5,74.4,237.4,993823.8507,-58568.899511999996,-1.0,336.2378515123728,83643.57008098954,83643.57008098954,296.94230036429275,0.07611823428323033,3.7564798761667153,95.4,0.8574562983801886
1306893923.19,2.0933186,6.8619556,23896.7199248,122.6,72.1,241.3,993700.8192,-58615.848332400004,-1.0,336.44458714509545,79478.35731110648,79478.35731110648,298.20392064564055,0.07509466048621938,3.755569751970618,97.8,0.8613655503486924
1306893923.4,2.0930666,6.8619058,23981.0703212,124.9,70.8,243.3,993636.6459696,-58638.12523600001,-1.0,340.2629754561483,77388.98150875306,77388.98150875306,298.3682989024255,0.07233287156748651,3.6514509361262535,95.60000000000002,0.8652275691588411
