timestamp,longitude,latitude,altitude,roll,pitch,yaw,u,v,heading,air_speed,engine_0,engine_1,temperature_in,humidity_in,pressure_in,heart_rate,oxygen_mask
1306893619.68,1.9873293,6.9620843,-3.28084,-1.0,0.0,-1.0,963979.4927896,-23832.4154608,-1.0,65.73793555851795,2648.2295676863946,2648.2295676863946,293.4292683677838,0.0712928482462416,3.722452993157939,84.30000000000001,0.2573809944265697
1306893621.59,1.9878503,6.9624803,-3.28084,-1.0,-0.1,-1.0,964105.3786204,-23679.7579756,-1.0,65.73793555851795,2509.800170241965,2509.800170241965,296.23542358021297,0.07164269003547497,3.7789938687588127,84.20000000000002,0.25720561166191525
1306893622.87,1.9882671,6.9627971,-3.28084,-1.0,-0.2,-1.0,964206.0676,-23557.6779192,-1.0,79.26673861330622,1898.0177112720787,1898.0177112720787,296.2228975556011,0.072081439634623,3.809380898225647,83.50000000000001,0.25703022889726085
1306893623.95,1.9886582,6.9630943,-3.28084,-1.0,-0.3,-1.0,964300.5886004,-23443.1109864,-1.0,88.6737540042431,1351.5529492133342,1351.5529492133342,294.2731904666971,0.07487289091220248,3.7910071546562247,84.70000000000002,0.25685484613260645
1306893624.82,1.9890043,6.9633573,71.7847792,-1.0,-0.4,-1.0,964384.2500204,-23341.700222,-1.0,114.20286399333368,897.2523926538213,897.2523926538213,295.3888167462588,0.07658167750022966,3.7967830475344027,81.9,0.2568546930267447
1306893625.46,1.9892703,6.9635595,71.8175876,-1.0,-0.5,-1.0,964448.5544844,-23263.780272,-1.0,102.46164674411722,897.2523926538213,897.2523926538213,295.3888167462588,0.07658167750022965,3.7967830475344013,81.9,0.2568546930267447
1306893626.1,1.9895512,6.963773,71.85039599999999,-1.0,-0.6,-1.0,964516.4022556001,-23181.4968048,-1.0,108.4184279917594,1351.5529492133342,1351.5529492133342,294.2731904666971,0.07487289091220249,3.7910071546562234,84.7,0.2568548461326065
1306893626.55,1.9897601,6.9639317,71.8832044,-1.0,-0.7,-1.0,964566.8615747999,-23120.3091388,-1.0,114.94250395749805,1898.0177112720787,1898.0177112720787,296.2228975556011,0.07208143963462299,3.809380898225647,83.50000000000001,0.25703022889726085
1306893627.62,1.9902777,6.9643251,71.8832044,-1.0,-0.8,-1.0,964691.9271956001,-22968.668714,-1.0,120.00930272897743,2509.800170241965,2509.800170241965,296.23542358021297,0.07164269003547498,3.7789938687588123,84.20000000000002,0.2572056116619153
1306893628.7,1.9908326,6.9647468,71.8832044,-1.0,-0.9,-1.0,964826.0479347999,-22806.103092,-1.0,127.78419119708964,2648.2295676863946,2648.2295676863946,293.4292683677838,0.07129284824624159,3.722452993157939,84.30000000000001,0.2573809944265697
1306893629.57,1.9913132,6.965112,71.8832044,-1.0,-1.0,-1.0,964942.2224792,-22665.3222476,-1.0,137.7528431299484,2393.5527084072855,2393.5527084072855,294.94615203238135,0.07174595691135068,3.6945204584109037,85.30000000000001,0.2575563771912241
1306893630.44,1.9918176,6.9654953,71.8832044,-1.0,-1.1,-1.0,965064.00726,-22517.5860224,-1.0,144.73265207115875,2187.661280043117,2187.661280043117,293.0264373892706,0.07220558558884355,3.643210410011826,88.70000000000002,0.2577317599558785
1306893631.32,1.9923479,6.9658983,71.8832044,-1.0,-1.2,-1.0,965192.1568704,-22362.2710568,-1.0,150.68644256232056,1971.893343876287,1971.893343876287,294.9089536385487,0.07387049775008135,3.5667277748076742,92.10000000000002,0.2579071427205329
1306893632.16,1.9928836,6.9663053,72.17848,-1.0,-0.4,-1.0,965321.6516252001,-22205.348479599998,-1.0,159.79898096198394,1778.7215432797955,1778.7215432797955,295.9848441657237,0.07135144248495473,3.6020934939978293,91.00000000000001,0.25808321446156524
1306893632.58,1.9931545,6.9665112,72.6377976,-1.0,3.2,-1.0,965387.0715748,-22125.98496,-1.0,161.61617302617123,1779.6669444705567,1779.6669444705567,294.62433714995404,0.07041207436410171,3.6335461104312308,94.20000000000002,0.25808520483776826
1306893633.01,1.9934417,6.9667294,72.96588159999999,-1.0,5.6,-1.0,965456.4941492,-22041.8642224,-1.0,167.58475592043135,1626.4128758249472,1626.4128758249472,294.9723003667911,0.07106913973108756,3.535221175383638,91.6,0.25808788419034917
1306893634.5,1.9944861,6.967523,73.55643280000001,-1.0,9.0,-1.0,965708.8891704,-21735.9258924,-1.0,176.11592663643526,1541.0833653340287,1541.0833653340287,296.731800919669,0.07016839005849973,3.5674360758705475,90.60000000000001,0.2580918649427551
1306893634.92,1.9947897,6.9677537,73.6220496,-1.0,9.5,-1.0,965782.2159443999,-21647.015128400002,-1.0,181.70688874089817,1505.599296393814,1505.599296393814,295.4990352540018,0.07235578296364703,3.4924335387032692,90.7,0.2580959222480919
1306893635.36,1.9951176,6.9680029,74.08136719999999,-1.0,9.9,-1.0,965861.4482304,-21550.952133199997,-1.0,187.56893956585384,1495.179529280928,1495.179529280928,296.3694774956298,0.07309760896022455,3.5096200626877883,90.00000000000001,0.25810105129446115
1306893635.79,1.9954441,6.968251,75.2296612,-1.0,10.4,-1.0,965940.2868156001,-21455.3156472,-1.0,191.13705029302744,1602.2262467147614,1602.2262467147614,299.2448166959743,0.07397582462594336,3.5961772085389105,91.9,0.2581088596934113
1306893636.22,1.9957748,6.9685024,77.3293988,-1.0,10.7,-1.0,966020.1752696,-21358.3996336,-1.0,193.7775761093327,1709.5512813478144,1709.5512813478144,297.48536051206645,0.07653501282407531,3.5851142604857604,92.70000000000002,0.258121567479938
1306893636.66,1.9961213,6.9687659,80.708664,-1.0,10.9,-1.0,966103.9351147999,-21256.7920188,-1.0,198.71142919604063,1684.8127704037952,1684.8127704037952,299.07903745832925,0.07546211659017221,3.5429853732686856,90.00000000000001,0.25814216021834574
1306893637.09,1.9964649,6.9690274,85.3346484,-1.0,11.0,-1.0,966186.9731752,-21156.004614,-1.0,201.78329578840018,1639.5671636460202,1639.5671636460202,299.4259266930896,0.07457256510803054,3.5843557875248098,89.60000000000001,0.258173546920008
1306893638.38,1.9975247,6.9698364,108.00525280000001,-1.0,11.3,-1.0,966442.8786952001,-20844.2591972,-1.0,208.07996141183798,1374.4545309796672,1374.4545309796672,299.7692629978205,0.07555662694664253,3.5917017188913394,89.80000000000001,0.2582571427205329
1306893640.95,1.999775,6.9715756,195.5052556,0.3,11.3,-1.0,966985.8577152,-20174.377286,-1.0,224.45182527929836,826.6033555709499,826.6033555709499,300.1908436248759,0.07624429957148761,3.637403809395521,88.7,0.2585438334466922
1306893641.37,2.0001591,6.9718767,215.22310399999998,0.4,11.1,-1.0,967078.44302,-20058.4652088,-1.0,237.3914720677979,475.8721324943428,475.8721324943428,301.77369814684187,0.07701467553823023,3.600245860564347,89.10000000000001,0.25887576695500364
1306893641.79,2.0005541,6.9721883,236.7454144,0.5,11.1,43.2,967173.6858052001,-19938.583315199998,-1.0,245.41875815820538,608.6735092912887,608.6735092912887,299.5636485471017,0.07891999897059364,3.6836233345322236,88.80000000000001,0.2592565412332189
1306893642.22,2.0009563,6.9725077,259.9409532,0.6,11.0,43.2,967270.4705852001,-19815.781474,-1.0,245.02376436204773,993.2427099796979,993.2427099796979,298.47724571390245,0.07981572770447302,3.789100648890837,88.4,0.259691285327707
1306893643.06,2.0017593,6.9731508,309.6784876,0.9,10.9,43.2,967463.7448696,-19568.5373716,-1.0,252.25611225515266,1361.2128318231287,1361.2128318231287,299.8547487663396,0.08113940562670414,3.7703627885982733,91.60000000000001,0.2602410119243824
1306893643.48,2.0021643,6.9734783,336.2204832,1.1,10.8,43.2,967561.1530092,-19442.6843492,-1.0,256.22930894384353,1811.327929766428,1811.327929766428,299.45661939765233,0.08210397686114018,3.7237498386165164,91.5,0.26084999048956187
1306893643.9,2.0025765,6.9738136,363.6483056,1.3,10.5,43.2,967660.1687604,-19313.8785708,-1.0,261.7478836719407,1946.6879595830976,1946.6879595830976,299.2839949485361,0.0806728571167877,3.7519108003201773,90.4,0.2615180679173833
1306893644.33,2.0029981,6.9741588,391.56825399999997,1.6,10.2,43.4,967761.4810996,-19181.3326348,-1.0,262.4542997137518,2125.699079502785,2125.699079502785,298.43639433300154,0.08284467652205524,3.8507764788528602,90.1,0.26224340693750575
1306893644.75,2.0034207,6.974507,418.8648428,1.8,9.9,43.4,967862.9902892,-19047.6712132,-1.0,270.2472615194745,2824.296167759109,2824.296167759109,296.3226236232472,0.08257711390403183,3.7534334486047207,90.0,0.2630216440328688
1306893645.18,2.0038608,6.9748717,446.1614316,2.1,9.5,43.5,967968.5677203999,-18907.710578799997,-1.0,275.49559875459806,3419.0980819652973,3419.0980819652973,294.50619000236134,0.08326275973372578,3.6519350329929354,89.4,0.2638106750914866
1306893645.62,2.0043101,6.9752461,472.44096,2.5,9.2,43.5,968076.4417396,-18764.0754036,-1.0,275.4517249307659,3993.546928027695,3993.546928027695,294.7842976227265,0.08218933908548866,3.613346321684507,88.80000000000001,0.26445685838107535
1306893646.04,2.0047471,6.9756119,496.19424160000005,2.8,9.0,43.6,968181.2317692001,-18623.7538768,-1.0,281.0007236478125,4408.018659567101,4408.018659567101,294.02386606261,0.08377776281013738,3.6688755921595337,90.2,0.26511245768116287
1306893646.47,2.0052015,6.9759935,518.7992292,3.2,8.8,43.6,968290.0900404,-18477.362795999998,-1.0,285.5376247880353,4434.104859050109,4434.104859050109,294.97537199648025,0.08557725475760038,3.6084922706103515,91.2,0.26577058322796954
1306893646.89,2.0056601,6.9763798,539.370096,3.6,8.6,43.6,968399.9981804,-18329.2656784,-1.0,295.2852898248254,4640.784541193433,4640.784541193433,296.6904622675473,0.08482411539702378,3.551941432204568,90.60000000000001,0.2664225845403055
1306893647.31,2.0061155,6.976764,557.5459496,4.1,8.6,43.8,968509.1845356001,-18181.9559624,-1.0,293.15001151247094,4774.626823823517,4774.626823823517,297.17858004674594,0.08360228078148887,3.4467425789737436,87.7,0.2670009419331314
1306893647.73,2.0065848,6.9771593,574.4094672,4.4,8.7,43.9,968621.6845392,-18030.348346,-1.0,301.7150533268615,5066.460370967786,5066.460370967786,295.55916304816503,0.08200833287507357,3.43981199017951,88.30000000000001,0.26755671621134663
1306893648.15,2.00706,6.9775576,590.1903076,4.4,8.9,44.0,968735.5624956001,-17877.5596272,-1.0,304.4432850382768,4873.959366265339,4873.959366265339,295.4956394143489,0.08068605538405184,3.4886245568719594,87.0,0.26808531419909815
1306893648.58,2.007562,6.9779761,606.13519,4.7,9.2,44.1,968856.0349403999,-17716.9953176,-1.0,313.3544216320882,5098.029935854895,5098.029935854895,294.5838885531325,0.07746377457183935,3.395066782907572,88.60000000000001,0.2685859703670771
1306893649.0,2.0080502,6.9783805,621.4239044,4.8,9.5,44.1,968973.12812,-17561.7787772,-1.0,310.69558193867397,5277.784966435127,5277.784966435127,295.7246074987552,0.07815249990219776,3.4494009842954374,85.9,0.26905860816235266
1306893649.44,2.0085801,6.9788168,638.287422,4.8,9.8,44.4,969100.3590952001,-17394.2590868,-1.0,321.1306453688218,5988.465469488619,5988.465469488619,298.34223301973236,0.07992369346069202,3.5441549536393033,86.60000000000001,0.26950690212560724
1306893649.86,2.0090954,6.9792385,655.2821732,4.8,10.0,44.4,969224.11238,-17232.3496328,-1.0,326.1197392068438,6535.395965758474,6535.395965758474,298.9957010926955,0.08198691928073867,3.5154167824179656,85.0,0.2699335316094218
1306893650.29,2.0096437,6.9796843,674.21262,4.8,10.0,44.7,969355.9693396,-17061.0569764,-1.0,338.2464115624141,7228.085552201389,7228.085552201389,299.75420604005194,0.08026282563588935,3.4759722410280607,86.60000000000001,0.2703489078123964
1306893650.71,2.0101775,6.9801156,693.8320431999999,7.7,14.4,44.9,969484.2173752001,-16895.341748,-1.0,335.8659926871076,7508.911516426745,7508.911516426745,299.49699949035335,0.07947423896204726,3.4443787727610906,83.7,0.2707573176986607
1306893651.15,2.0107464,6.9805664,719.5538288,31.5,18.6,46.0,969621.1924452,-16721.883737199998,-1.0,339.1195782263977,7753.893093813287,7753.893093813287,299.6957158246712,0.07729859572648207,3.463232757234433,86.10000000000001,0.27117774639507364
1306893651.58,2.0113206,6.9809914,750.9514676,50.0,21.7,48.7,969760.1360192,-16557.808928799997,-1.0,339.213616181612,8670.927898348227,8670.927898348227,296.9896446532971,0.07750229478017098,3.5519208479054662,87.4,0.27162902592263266
1306893652.0,2.0119157,6.9813877,786.3517312,53.7,20.4,51.7,969905.1819556,-16403.8391076,-1.0,343.41230650326213,10726.10256106625,10726.10256106625,297.2853434344787,0.07717544608192921,3.606366018434262,87.29999999999998,0.27212355785614095
1306893652.43,2.0125559,6.9817709,825.4921524,59.9,23.1,54.8,970062.0717243999,-16253.9047196,-1.0,345.45638430914676,14609.003662101208,14609.003662101208,298.9563443277029,0.07892950526419035,3.634989410517662,86.7,0.27267259547643846
1306893652.85,2.0132216,6.9821183,866.8307364,66.9,27.3,59.1,970226.409,-16116.6015656,-1.0,350.5830233313234,19328.33605022187,19328.33605022187,299.1747116525486,0.0822394126830924,3.7603630615754033,87.60000000000002,0.27328088506523984
1306893653.28,2.0139279,6.982425,910.7283755999999,69.7,26.5,64.1,970402.2292156001,-15993.504448799998,-1.0,344.8302602332043,25144.097129588998,25144.097129588998,299.9877645195517,0.08103537354495023,3.7091482553740946,89.30000000000001,0.27395592880977176
1306893653.72,2.0146927,6.9826954,957.3819204,71.7,27.6,68.9,970593.86308,-15882.6776736,-1.0,348.9976485590593,31170.516389388053,31170.516389388053,297.92726067945716,0.07946030253068483,3.6879484153478037,87.40000000000002,0.2747004826155461
1306893654.14,2.0154409,6.9829014,1002.0997696,74.2,30.7,74.3,970782.7082304,-15795.5713716,-1.0,344.7871692246179,36113.25481210369,36113.25481210369,296.7383387031728,0.07968054706841174,3.77577538686822,88.2,0.275509723647917
1306893654.56,2.0162087,6.9830504,1047.2769363999998,75.6,30.4,80.1,970978.0166356001,-15728.9703196,-1.0,343.5491669004807,39032.19746953402,39032.19746953402,295.03641446912076,0.07944449831911203,3.761628285485176,86.8,0.27638020702499483
1306893654.99,2.0169928,6.9831416,1092.51972,76.2,30.4,85.6,971178.7712352001,-15683.136984800001,-1.0,336.093961329306,40256.724254515844,40256.724254515844,296.14713153460576,0.07760364412004439,3.7254095914539795,88.3,0.27731047824109284
1306893655.41,2.0177746,6.9831743,1136.7782516,77.0,31.0,91.5,971380.2476196,-15658.694726800002,-1.0,340.14237772016224,38381.92892323711,38381.92892323711,296.36070164343556,0.08121365340455096,3.7416351596448783,86.4,0.2782840018631401
1306893655.84,2.0185425,6.9831475,1179.8556808,77.5,31.0,97.4,971579.4602243999,-15656.102863199998,-1.0,327.28561822304084,34564.18724901155,34564.18724901155,296.3120746988012,0.08210701963180207,3.7226539660308657,84.80000000000001,0.2792847783285819
1306893656.26,2.0192937,6.9830629,1221.7848159999999,77.5,30.4,103.1,971775.6872648,-15674.9020764,-1.0,332.35620647430875,30030.527367866325,30030.527367866325,295.1330375902664,0.08383873151175356,3.7180126199728507,85.80000000000001,0.2803007888272696
1306893656.68,2.0200231,6.9829228,1262.5000404,77.5,30.6,108.8,971967.5179796,-15714.239348,-1.0,330.91447504320354,26654.23509186778,26654.23509186778,294.0468338423563,0.08283040745852295,3.660209404322481,85.89999999999999,0.2813204738666396
1306893656.89,2.0203783,6.9828322,1282.480356,77.8,30.8,111.5,972061.4156204,-15741.568745199998,-1.0,331.03241017467326,26758.483189248447,26758.483189248447,294.2095341796698,0.07966480761356054,3.6635994064954933,86.2,0.2822903229480045
1306893657.32,2.0210646,6.9826097,1321.6535855999998,77.7,30.8,117.6,972244.0271747999,-15811.6146792,-1.0,323.9570816113345,32702.452645144946,32702.452645144946,292.6911109110087,0.08076792125389101,3.6697937552129765,86.50000000000001,0.28324914840732207
1306893657.74,2.0217049,6.9823377,1359.3504372,77.4,29.9,123.4,972415.7463404,-15900.4598264,-1.0,328.31952921299154,40916.12423711528,40916.12423711528,292.48431217541327,0.07963304239082877,3.6173821990320136,86.30000000000001,0.2841870749165084
1306893658.18,2.0223184,6.9820103,1396.9160551999998,69.0,24.6,128.5,972581.8552696,-16009.9414572,-1.0,323.0040909811674,49195.606171803585,49195.606171803585,292.093981424266,0.07684916697418552,3.614745930445865,85.7,0.28510831288676214
1306893658.61,2.0228751,6.9816622,1432.9724867999998,49.4,18.7,131.6,972733.79097,-16127.8548468,-1.0,320.01053367088815,57699.88815513511,57699.88815513511,293.1564063220224,0.07633271645562295,3.634691358792523,86.5,0.2860082691422302
1306893659.05,2.0234426,6.9812781,1471.3255064,29.5,14.1,132.9,972889.2371692,-16258.727554399999,-1.0,330.400022986268,63932.156047838325,63932.156047838325,293.65376080664936,0.0753864377558452,3.699879007890256,86.40000000000002,0.28689214928221274
1306893659.48,2.0239928,6.9808937,1508.4318068,16.1,14.5,133.5,973040.2542343999,-16389.9611544,-1.0,332.6953187582201,65018.40538439041,65018.40538439041,292.8532668946468,0.07492509107503037,3.648146461658783,85.70000000000002,0.2877593408832626
1306893659.9,2.0245389,6.9805057,1545.7349576,5.4,15.0,133.8,973190.3526643999,-16522.638324,-1.0,340.89273413209213,63581.497665951196,63581.497665951196,294.20987932490675,0.07228308794630188,3.6934256666401635,86.60000000000002,0.28861305916847696
1306893660.33,2.0250976,6.9801062,1585.0066124,-3.4,15.4,133.8,973343.8303596,-16659.219693199997,-1.0,341.7623082080147,57456.19840580197,57456.19840580197,296.86980003789233,0.06923013040299812,3.6457244080788054,85.80000000000001,0.2894605766662897
1306893660.75,2.0256452,6.9797164,1624.6063512,-9.2,15.4,133.6,973494.3224903999,-16792.487414000003,-1.0,353.8460076341507,48363.259602008024,48363.259602008024,298.5595272758936,0.06973214557722228,3.6057875534482196,87.5,0.2903054913644525
1306893661.17,2.0262056,6.9793217,1666.010552,-12.6,15.4,133.3,973648.2266948,-16927.329938,-1.0,360.07442074663163,39489.69677487682,39489.69677487682,298.95388563366635,0.07227540233803675,3.4918855441038503,87.00000000000001,0.2912003951264822
1306893661.6,2.0267913,6.9789152,1709.8097659999999,-14.6,15.4,132.9,973808.9878548,-17066.043853199997,-1.0,364.841441212235,31512.97557531635,31512.97557531635,300.084492910025,0.07028189223418488,3.613901256062228,87.50000000000001,0.29210609285176653
1306893662.03,2.0273898,6.9785067,1754.8556992,-15.1,15.2,132.5,973973.0298547999,-17205.315511200002,-1.0,369.57657944599043,25421.61053385543,25421.61053385543,301.5142775232292,0.07038273247096766,3.630154953948447,87.80000000000001,0.2930289384335688
1306893662.5,2.0280572,6.978059,1805.0853596000002,-14.4,15.0,132.0,974155.8382596,-17357.7433376,-1.0,373.7608238670497,21637.13799992744,21637.13799992744,302.3022177325907,0.07055814552601071,3.579124171688136,87.6,0.2939813334466922
1306893662.94,2.0286931,6.9776392,1852.8215816,-13.1,15.0,131.7,974329.8212047999,-17500.492685999998,-1.0,377.2670509196892,19664.988316149895,19664.988316149895,301.1153901116034,0.072618774063587,3.6190614755823223,86.6,0.29496098130321013
1306893663.36,2.0293095,6.9772379,1898.9173835999998,-11.6,14.7,131.4,974498.3579556001,-17636.8443964,-1.0,380.4878263228095,18741.743160751532,18741.743160751532,298.6620240955605,0.07489927314088318,3.6529580697001798,85.8,0.2959586956514165
1306893663.79,2.0299528,6.976824,1946.8176475999999,-9.8,14.6,131.1,974674.2109796,-17777.362773599998,-1.0,385.5365350968295,18247.496466887595,18247.496466887595,299.3060042893688,0.07382676354385516,3.7175454674952104,88.4,0.2969815959138838
1306893664.22,2.0306031,6.9764114,1994.8819535999999,-8.0,14.6,130.7,974851.7700404,-17917.290599599997,-1.0,387.0170131234212,18296.402899196328,18296.402899196328,300.52978716457267,0.0766238748289844,3.6663079561881,90.6,0.2980296055376808
1306893664.65,2.0312707,6.975993,2043.8977032,-6.0,14.6,130.5,975033.9550856,-18059.0228876,-1.0,394.6299281303557,18564.747383597052,18564.747383597052,299.86987286338723,0.07806896503447301,3.710874839510797,88.30000000000001,0.2991003513819503
1306893665.07,2.0319428,6.9755739,2093.17592,-4.1,14.3,130.5,975217.2884247999,-18200.952026,-1.0,405.22561689155964,19066.41383430886,19066.41383430886,297.78225744179366,0.07840434330051904,3.764488062333032,86.50000000000001,0.3001936803408304
1306893665.49,2.0326103,6.9751582,2142.1588612,-2.9,14.3,130.5,975399.47347,-18341.6672536,-1.0,402.4916262084009,19911.113969873673,19911.113969873673,298.3811567187641,0.07792996957404046,3.8739776724263053,86.9,0.3013046930267447
1306893665.91,2.0332794,6.9747423,2191.2074192,-2.2,14.3,130.5,975581.9865992,-18482.5137148,-1.0,403.0484164062817,21011.19945894955,21011.19945894955,296.61028268333337,0.0796983915008441,3.836398245176914,87.0,0.3024279541816003
1306893666.35,2.0339973,6.9742967,2243.766476,-1.5,14.1,130.5,975777.7871304,-18633.333929599998,-1.0,411.95318550639524,22360.29747945087,22360.29747945087,296.09553095435183,0.08129750558469036,3.78843958864765,87.2,0.3035687459576283
1306893666.77,2.0346897,6.9738679,2294.4226456,-1.1,14.1,130.5,975966.6650892,-18778.4454828,-1.0,415.69957764073484,23933.740491123324,23933.740491123324,296.2473039555585,0.08342391540172236,3.860381377663866,87.0,0.30471053292175776
1306893667.21,2.0354157,6.9734193,2347.4082116,-0.8,14.1,130.5,976164.6309747999,-18930.282757999998,-1.0,415.6071217299984,25642.713953653794,25642.713953653794,295.48550974610214,0.08361619699334152,3.8254508506993465,88.60000000000001,0.3058645683548286
1306893667.65,2.0361579,6.9729618,2401.4436464,-0.6,13.9,130.5,976367.0259943999,-19085.0727892,-1.0,423.97739799520616,27296.516332542727,27296.516332542727,295.51900883458103,0.08111988341881511,3.8315252210132127,90.8,0.3070371295971734
1306893707.26,2.128124,6.9233428,8143.7994732,-0.6,13.4,130.5,1001305.4126192,-35673.655997199996,-1.0,502.3048838683212,28440.31231649765,28440.31231649765,293.9010365948544,0.08131306632274259,3.8147365212277147,90.7,0.3214967533941987
1306893714.11,2.1449224,6.9145611,9153.2483244,-0.6,13.5,130.7,1005858.4967544,-38598.098348,-1.0,525.970644496387,30246.242443435305,30246.242443435305,291.92611331756154,0.08009382782334017,3.836538832971918,91.0,0.33819960772490737
1306893720.95,2.1616884,6.9057863,10161.3192228,-0.6,13.6,130.7,1010404.2974247999,-41519.6535596,-1.0,525.9782312809602,33206.229257921834,33206.229257921834,290.27223673555557,0.08031730954775704,3.814804430284632,91.5,0.3571402573312066
1306893727.33,2.1772853,6.897612,11099.9675468,-0.6,13.7,130.7,1014634.5140956001,-44240.8806808,-1.0,524.8388887267902,37419.75205897916,37419.75205897916,290.48080494840576,0.08011145588270657,3.774717193264532,93.5,0.3781561037878995
1306893731.35,2.1871304,6.8924431,11693.3402692,0.8,13.7,130.7,1017305.5443647999,-45961.4187936,-1.0,526.1784019699259,43969.92118967164,43969.92118967164,288.7481429202832,0.08097056222985635,3.7639330283374672,91.10000000000001,0.4004421930267446
1306893731.56,2.1876237,6.8921838,11723.097488,4.2,13.7,130.7,1017439.4354452001,-46047.7705024,-1.0,504.29166118960904,51784.13564698716,51784.13564698716,290.4258233532818,0.07792922378261277,3.7656539474612942,89.1,0.42268326914223026
1306893731.77,2.1881413,6.8919113,11754.3310848,9.4,13.7,130.8,1017579.8882056001,-46138.4857284,-1.0,530.1530210550497,64106.10333343804,64106.10333343804,289.9185304999487,0.0758173842409241,3.7744305965919778,90.60000000000001,0.44487458585264145
1306893731.98,2.1886588,6.891638,11785.564681599999,15.4,13.7,130.9,1017720.3737743999,-46229.49623,-1.0,530.6760351830268,66544.7512233628,66544.7512233628,291.3531749042975,0.07357928612964201,3.68606807009732,93.70000000000002,0.4670205832279696
1306893732.19,2.1891782,6.8913624,11816.9623204,23.1,13.8,131.1,1017861.3514692,-46321.3269416,-1.0,533.3711474494991,67156.13205153737,67156.13205153737,293.97083650380443,0.07267729062094762,3.685119118690193,93.00000000000001,0.4891162087747762
1306893732.4,2.1896919,6.8910877,11848.0646836,33.0,14.0,131.3,1018000.8855943999,-46412.9279944,-1.0,528.7690496714754,64904.551657894845,64904.551657894845,294.45392589200145,0.07339697428397216,3.6870874544211243,92.80000000000001,0.5111583238228952
1306893732.61,2.1901824,6.8908226,11877.789094,40.1,14.3,131.7,1018134.1533152001,-46501.3794408,-1.0,505.56574779381856,58143.76497335849,58143.76497335849,295.0403285026299,0.07298817074139842,3.6622068093175395,90.1,0.5198709659926238
1306893732.82,2.1906905,6.8905443,11908.6617984,45.7,14.6,132.1,1018272.2766792,-46594.358446399994,-1.0,526.7098586194913,60028.3799853164,60028.3799853164,294.4991760101554,0.07107857667645555,3.6214217597431855,88.30000000000001,0.5263002638928864
1306893733.03,2.1911986,6.8902615,11939.632927999999,50.1,15.0,132.6,1018410.46566,-46688.977871999996,-1.0,529.4500816429921,64214.0167021817,64214.0167021817,295.4008224931542,0.07058100787515209,3.641946290257932,88.8,0.5304496624055722
1306893733.24,2.1917035,6.8899749,11970.538440799999,54.3,15.4,133.3,1018547.9656643999,-46785.0736756,-1.0,529.7750293273474,68911.42623576875,68911.42623576875,297.33011689341356,0.06916368637072512,3.7445666442856167,89.60000000000001,0.5324809944265696
1306893733.45,2.1922071,6.8896827,12001.5751872,57.8,15.8,134.0,1018685.3344352001,-46883.2036,-1.0,532.7021336291782,73207.70752958441,73207.70752958441,298.59633432317634,0.06583710008318674,3.6875313263615337,89.00000000000001,0.5332002092122213
1306893733.66,2.192692,6.8893941,12031.693298400001,61.2,16.4,134.8,1018817.7163292,-46980.2836556,-1.0,516.7202612749917,75481.8580480821,75481.8580480821,299.2845275249569,0.06576225684668732,3.688607710778491,88.60000000000001,0.5339202660801129
1306893733.87,2.1931995,6.8890834,12063.484638,64.1,16.9,135.7,1018956.4302443999,-47085.106493600004,-1.0,547.8008958845647,74650.09282909134,74650.09282909134,300.96515720663257,0.06843487170044665,3.6674078116073927,89.9,0.5346416243478295
1306893734.08,2.1936751,6.8887827,12093.668366,67.0,17.6,136.7,1019086.6139756001,-47186.8125336,-1.0,518.4935983759362,73677.03040556631,73677.03040556631,299.60308946995605,0.07051902275768882,3.698841440997217,89.50000000000001,0.5353605329217577
1306893734.29,2.1941433,6.888476,12123.7536688,69.5,18.4,137.8,1019215.09167,-47290.815161599996,-1.0,517.8532267678606,79055.06926408174,79055.06926408174,299.65309368965023,0.07043226172045419,3.7456447480110224,88.1,0.5360763793784507
1306893734.51,2.1946446,6.8881336,12156.5292604,72.0,19.4,139.2,1019352.9853752,-47407.252173199995,-1.0,539.6978033973097,86247.98570301806,86247.98570301806,301.8024483245921,0.07254607947841404,3.629381589625748,87.2,0.5367961300346187
1306893734.72,2.1950906,6.887814,12186.2864792,74.4,20.6,140.8,1019476.0168752001,-47516.3401032,-1.0,512.6544217704015,92695.5558128996,92695.5558128996,301.98088288693634,0.07293311636991885,3.5561366866792024,90.20000000000002,0.5375159572437176
1306893734.93,2.195541,6.887474,12217.0935668,76.5,22.0,142.4,1019600.6887952001,-47632.744306399996,-1.0,531.5276254184815,101818.56477294212,101818.56477294212,303.6309123794458,0.07443619407713724,3.5200733563476043,91.39999999999999,0.5382356313469546
1306893735.14,2.1959651,6.8871333,12247.0148276,78.6,24.0,144.5,1019718.5037596,-47749.870294399996,-1.0,515.3863722230903,108883.97437055579,108883.97437055579,302.99050370577436,0.07576119856915302,3.539491317180645,89.89999999999999,0.5389528557564034
1306893735.35,2.1963648,6.8867888,12276.2799204,80.5,26.4,146.7,1019830.1507447999,-47868.800744399996,-1.0,503.8197900935752,113806.26140697258,113806.26140697258,302.8752460125604,0.07699909448966258,3.461350748707303,88.10000000000001,0.5396662525193081
1306893735.56,2.1967469,6.8864301,12305.61063,82.6,29.5,149.6,1019937.5982548,-47993.177388799995,-1.0,505.8981541541576,123271.25800621728,123271.25800621728,302.3894986535143,0.07874619485497415,3.4265261083768817,88.80000000000001,0.5403756685298068
1306893735.78,2.1971276,6.8860325,12336.77861,84.6,32.2,153.0,1020045.4394656001,-48131.727262,-1.0,514.1754989588379,136116.8524726963,136116.8524726963,302.3498287169884,0.07908261193445447,3.393605362711976,92.30000000000001,0.5410875342340937
1306893735.99,2.1974361,6.885668,12363.9439652,85.4,32.3,156.3,1020133.9237204,-48259.4503632,-1.0,471.4483050455565,143877.56787270773,143877.56787270773,302.7496059906395,0.07877238839981128,3.51307724210766,92.30000000000001,0.5417886059751261
1306893736.21,2.1977354,6.8852646,12392.5200816,84.5,31.2,159.8,1020220.9644056001,-48401.4779268,-1.0,480.8216154676822,157414.72261957877,157414.72261957877,302.0315173211612,0.07814888385540435,3.443304044916595,91.00000000000001,0.5424859266225451
1306893736.44,2.1980071,6.8848413,12421.1946232,82.4,30.8,163.4,1020301.2465604,-48551.2482728,-1.0,465.7629285663027,168240.10676625412,168240.10676625412,300.46703522982097,0.07891671876219523,3.454880296157842,93.30000000000001,0.5431799554939363
1306893736.66,2.1982334,6.8844291,12448.2615532,81.0,29.3,166.6,1020369.5536492,-48697.7377788,-1.0,460.86933999393386,172482.25233695825,172482.25233695825,299.3296023363824,0.07690753384189047,3.5597671719042028,92.3,0.5438606641553537
1306893736.87,2.1984227,6.8840255,12474.1473808,80.6,27.1,169.2,1020427.9854096,-48841.6682296,-1.0,462.64284282991616,175317.7586730905,175317.7586730905,301.11180208399696,0.07563164165777499,3.553440590635256,91.80000000000001,0.5445323395709267
1306893737.08,2.1985772,6.8836404,12498.35998,80.7,24.6,171.7,1020477.0995844,-48979.4307012,-1.0,431.4360749133132,171032.6029868956,171032.6029868956,299.7783396917026,0.07573029223239212,3.565457752928526,91.7,0.5451886278473921
1306893737.3,2.198723,6.8832138,12524.508274799999,80.9,23.7,174.1,1020524.8686147999,-49132.481887199996,-1.0,452.4330050953959,158313.59744471207,158313.59744471207,301.91933711031777,0.0740542860406017,3.4836783417251267,94.7,0.545836112536806
1306893737.51,2.1988344,6.8828237,12547.8350472,80.5,23.2,176.1,1020562.7951252001,-49272.8362224,-1.0,426.0938398584786,145191.57405738955,145191.57405738955,301.4496665795756,0.07305062773263322,3.5337291866321205,96.90000000000002,0.5464697411457298
1306893737.72,2.1989273,6.882425,12571.129011199999,78.6,21.6,178.2,1020596.2268847999,-49416.5698228,-1.0,432.2280673223117,125912.90663439293,125912.90663439293,300.52841740405347,0.0715176843801149,3.6247925304995787,97.80000000000001,0.547089284015371
1306893737.93,2.1990042,6.8820104,12594.8822928,74.6,19.3,179.9,1020625.85287,-49566.4057856,-1.0,448.29477361894254,107243.06273043733,107243.06273043733,299.96938027880327,0.07130383874800499,3.6417061507701374,97.00000000000003,0.5476915259226325
1306893738.14,2.1990617,6.881616,12617.1591964,67.7,16.3,181.3,1020649.9342356,-49709.1879424,-1.0,421.56447736237124,96314.9256195188,96314.9256195188,298.4241474750529,0.07193136424573307,3.55896718198577,97.30000000000003,0.5482823614431925
1306893738.35,2.1991083,6.8812188,12639.3704832,60.1,13.4,182.2,1020671.3909292,-49853.18401,-1.0,423.7056615546031,83870.05501711386,83870.05501711386,300.32962493806895,0.07226396131452946,3.624701091191223,95.89999999999999,0.548858345695161
1306893738.57,2.1991509,6.8807877,12663.058148,51.7,10.0,182.7,1020692.4867304,-50009.5816528,-1.0,439.86013175529547,73144.57756695106,73144.57756695106,300.93559823995935,0.07223151484876024,3.5953222588058558,94.7,0.5494226939016352
1306893738.78,2.1991866,6.8803896,12684.1211408,44.5,6.5,182.8,1020711.0562847999,-50154.069846399994,-1.0,423.04444565715323,73979.59917209031,73979.59917209031,301.34992521252565,0.07446971545120272,3.6327540250815322,97.0,0.5499730329217577
1306893739.0,2.199225,6.8799585,12705.380984,38.9,4.1,182.7,1020731.0366004,-50310.5659144,-1.0,438.4074757508235,65604.44090128386,65604.44090128386,299.66629852681535,0.07449230923218575,3.765903317417485,94.60000000000001,0.5505125779786257
1306893739.22,2.1992645,6.8795289,12724.377047599999,34.5,2.7,182.5,1020751.345,-50466.4386228,-1.0,435.6802948644139,57624.778115081586,57624.778115081586,301.94900837034714,0.07273938683287542,3.8519856498768985,93.2,0.5510399511194831
1306893739.44,2.1993063,6.8790951,12741.174948400001,31.1,1.7,182.3,1020772.3751843999,-50623.886134399996,-1.0,439.95627340402064,65104.98996290769,65104.98996290769,301.504180937717,0.07259073924097686,3.881830931643309,90.8,0.5515455066750387
1306893739.65,2.1993471,6.8786865,12754.7248176,28.5,1.1,182.1,1020792.4539252,-50772.1144856,-1.0,432.5079309779872,61668.71541459207,61668.71541459207,300.6705343215409,0.07501025666757066,3.8322187466743136,87.89999999999999,0.5520282494571908
1306893739.86,2.1993913,6.878258,12766.6342668,26.0,0.6,182.0,1020813.9762356001,-50927.560684799995,-1.0,455.79831604615384,59405.97826610978,59405.97826610978,303.19558948701433,0.07602358716088639,3.839658440432683,89.5,0.5524844283723265
1306893740.08,2.199437,6.8778253,12776.3783616,24.1,0.2,181.9,1020835.9250552001,-51084.483261999994,-1.0,436.78719789215194,74244.35984887072,74244.35984887072,303.78840646889205,0.07641181142059136,3.767075323222052,88.80000000000001,0.5529079191859748
1306893740.29,2.1994818,6.8774065,12783.825868400001,22.8,-0.1,181.8,1020857.3489403999,-51236.386154,-1.0,443.4247798207857,69450.61938034826,69450.61938034826,302.98443161148674,0.07381974987971772,3.8243461516265302,87.1,0.5532968080748636
1306893740.5,2.1995281,6.8769777,12789.53453,21.6,-0.3,181.7,1020879.3961852001,-51391.89797,-1.0,455.0337121218958,67365.8411875596,67365.8411875596,303.4606713738163,0.07196205410185436,3.813771260109655,90.4,0.5536471908395181
1306893740.71,2.1995747,6.8765468,12793.504346400001,20.7,-0.6,181.7,1020901.5418552001,-51548.164379199996,-1.0,457.30615501023544,76899.62652328171,76899.62652328171,303.29169220374814,0.06928057616729355,3.8626134028361734,89.2,0.5539515652927115
1306893740.92,2.1996207,6.876122,12795.8337428,19.9,-0.8,181.7,1020923.3922496,-51702.2326256,-1.0,449.99268353045954,75066.97292898838,75066.97292898838,301.4878440668236,0.06887554481739713,3.840749007992293,89.5,0.5542122280223701
1306893741.13,2.199666,6.8757014,12796.7195696,19.2,-1.0,181.7,1020944.91456,-51854.7588772,-1.0,444.82299310505397,73445.32299507529,73445.32299507529,302.0539379160669,0.06859398110781866,3.7865296186053925,89.1,0.5544253513819501
1306893741.34,2.1997126,6.8752645,12796.2274436,18.4,-1.1,181.7,1020967.2570804,-52013.2234492,-1.0,464.26847747187986,73184.53408682923,73184.53408682923,299.34903727621014,0.06903428485716702,3.801571436192115,89.3,0.5545930023005855
1306893741.56,2.1997593,6.8748214,12794.488598400001,17.8,-1.3,181.7,1020989.7308343999,-52173.9189924,-1.0,447.57346692554347,75298.80447177382,75298.80447177382,298.11659925999896,0.0717696283175924,3.7253213109516277,90.3,0.5547174008132714
1306893741.78,2.1998073,6.8743596,12791.4046088,17.2,-1.5,181.8,1021012.99199,-52341.4386828,-1.0,468.8952632332441,62812.919654302495,62812.919654302495,298.1561811811269,0.06985708384315173,3.7931274339010206,91.5,0.5548029869899992
1306893741.99,2.1998513,6.873929,12787.5004092,16.6,-1.6,181.8,1021034.4158752001,-52497.639475200005,-1.0,456.69166110440176,69709.9252165828,69709.9252165828,296.04268081634984,0.07173689507438548,3.726591500009059,90.4,0.5548516746540412
1306893742.2,2.1998961,6.8734817,12782.480724,16.0,-1.7,181.9,1021056.5615452001,-52659.94263,-1.0,476.72126269449086,69993.23111316995,69993.23111316995,294.37740584459397,0.07151392266332952,3.842810552906754,90.1,0.5548659134991856
1306893742.41,2.1999403,6.8730323,12776.5424036,15.4,-1.9,181.9,1021078.5103647999,-52822.967569600005,-1.0,479.0371265386901,75444.33916327707,75444.33916327707,296.30178557743005,0.07080070151991363,3.7429950166927437,91.1,0.5548489187485294
1306893742.62,2.1999817,6.8726019,12770.079148800001,14.8,-2.0,182.0,1021099.3108904,-52979.135553600005,-1.0,456.55860597723927,85215.70812449006,85215.70812449006,294.7137136593284,0.07334372954282987,3.683188080303167,91.6,0.5548035228605154
1306893742.83,2.2000235,6.8721568,12762.6972588,14.2,-2.1,182.1,1021120.5379252001,-53140.6513068,-1.0,474.04028831127295,85076.46481299256,85076.46481299256,295.73396913475017,0.07556458618424958,3.663195066659068,92.0,0.5547316396584157
1306893743.05,2.2000672,6.8716798,12754.0686496,13.6,-2.2,182.1,1021143.1101044,-53313.781233600006,-1.0,486.33772466578955,85820.11022788515,85820.11022788515,298.31894875027467,0.0745788299923543,3.6734726132468025,88.8,0.5546341877774007
1306893743.26,2.2001062,6.8712433,12745.5384656,13.0,-2.3,182.2,1021163.3856956001,-53472.2129972,-1.0,463.88469486066333,86091.8989413577,86091.8989413577,297.5596084591687,0.07405746696484214,3.681436045225702,89.2,0.5545147652052225
1306893743.47,2.2001455,6.8707919,12736.1880716,12.4,-2.4,182.3,1021184.1206043999,-53636.0909552,-1.0,481.71394864276164,75602.03038377094,75602.03038377094,299.0876872130037,0.07494402472635464,3.677349902685183,87.9,0.5543746733417053
1306893743.69,2.2001863,6.8703103,12725.6565752,11.7,-2.5,182.3,1021205.9381904,-53810.926918799996,-1.0,491.54682645956865,74043.97533149582,74043.97533149582,299.5685276880897,0.07508457952748863,3.683378564259519,89.10000000000001,0.5542140652927114
1306893743.91,2.2002258,6.8698305,12714.6657612,11.1,-2.6,182.4,1021227.4933092,-53985.1067144,-1.0,489.5150711269368,86800.28509191165,86800.28509191165,299.7582274620104,0.07641240535451024,3.680742028628456,89.7,0.5540350079873746
1306893744.13,2.2002642,6.8693507,12703.2156296,10.4,-2.7,182.5,1021248.5891104,-54159.384935199996,-1.0,489.70447109362544,81856.91774877597,81856.91774877597,299.91843669215456,0.07565941959104372,3.692195060108667,88.10000000000001,0.5538383435079345
1306893744.35,2.2003013,6.868875,12691.4046056,9.8,-2.8,182.6,1021269.3240192,-54332.1211612,-1.0,484.90932102885427,89449.42557202654,89449.42557202654,300.2591487940423,0.07774624350086308,3.6257677667466126,87.7,0.5536258325718015
1306893744.57,2.2003376,6.8683948,12679.134264,9.2,-2.9,182.6,1021290.0261196,-54506.5306156,-1.0,490.1175913664391,97988.44359188156,97988.44359188156,298.2042800080603,0.08126467202415945,3.7589229495341887,85.7,0.5533985469200079
1306893744.78,2.2003726,6.8679189,12666.634263599999,8.6,-3.0,182.7,1021310.2032856001,-54679.3980752,-1.0,510.9661956128297,88117.62620131088,88117.62620131088,298.74372130776743,0.07811628351907415,3.8793836705413103,82.8,0.553157175528932
1306893745.0,2.200407,6.8674385,12653.707754,8.0,-3.0,182.7,1021330.41326,-54853.9059548,-1.0,490.3614037375561,91409.76946473181,91409.76946473181,296.5248921393761,0.07811206134274644,3.910810927279389,81.2,0.5529028666925364
1306893745.21,2.2004408,6.8669535,12640.3547352,7.5,-3.1,182.8,1021350.5248092,-55030.0870628,-1.0,521.7780148024165,91972.65222397407,91972.65222397407,294.6285275913455,0.08007678560111399,3.915418899693804,84.0,0.5526375342340937
1306893745.42,2.2004716,6.8664999,12627.625076,6.9,-3.2,182.8,1021369.0615552001,-55194.9164644,-1.0,484.52955518410874,99783.1067495906,99783.1067495906,295.2253729765309,0.08169973259198429,3.946339577389837,86.9,0.5523624030004979
1306893745.63,2.2005033,6.8660217,12614.00959,6.4,-3.2,182.9,1021388.4513196,-55368.6697508,-1.0,513.7485970864897,99196.46404615373,99196.46404615373,294.90772936086734,0.08209477495249443,3.931185419429777,88.80000000000001,0.5520773198858872
1306893745.84,2.2005342,6.8655434,12600.1316368,5.9,-3.3,182.9,1021407.7098504,-55542.4558456,-1.0,513.8705555342922,104253.91621447683,104253.91621447683,295.2303674192393,0.07843394373771793,3.969365674977977,88.8,0.5517844283723264
1306893746.06,2.2005659,6.8650401,12585.3350484,5.4,-3.4,183.0,1021427.7229743999,-55725.39548399999,-1.0,516.558472109552,107705.34695869141,107705.34695869141,297.0296001065152,0.07803302806215327,3.9971608280159576,87.4,0.551482656718783
1306893746.28,2.2005968,6.8645365,12570.3416096,5.0,-3.4,183.0,1021447.5064396,-55908.400739200006,-1.0,516.7190999307284,106525.53490194444,106525.53490194444,296.8386996132976,0.075955451597137,4.014432519689979,86.9,0.5511726173487044
1306893746.5,2.2006272,6.8640305,12555.0857036,4.5,-3.5,183.0,1021467.1914796,-56092.32462959999,-1.0,519.5631156660852,104780.41197352545,104780.41197352545,295.698435258881,0.07720682547744384,4.056440310619182,86.7,0.5508545399208828
1306893746.72,2.2006569,6.8635243,12539.665755600001,4.1,-3.5,183.1,1021486.7780944,-56276.3141368,-1.0,519.7705446560034,109142.51666485936,109142.51666485936,295.7057094713489,0.0735640391207884,4.010167691799744,86.30000000000001,0.5505291134116965
1306893746.94,2.2006861,6.8630156,12524.016148800001,3.7,-3.6,183.1,1021506.2334756,-56461.2222792,-1.0,522.5944335803055,109930.92255179129,109930.92255179129,294.63203530797415,0.07710367879992228,3.987104648832956,86.50000000000001,0.5501963378211453
1306893747.16,2.2007149,6.8625021,12508.1040748,3.3,-3.6,183.1,1021525.7216652001,-56647.8692668,-1.0,528.0042476283273,102144.5725667234,102144.5725667234,295.28851632718073,0.07454944282019584,3.9985258850124366,90.20000000000002,0.5498565959138837
1306893747.38,2.2007434,6.8619838,12491.863916799999,3.0,-3.7,183.2,1021545.2098547999,-56836.3207164,-1.0,533.6220127810656,109841.98752654399,109841.98752654399,296.39936569447093,0.07135848779389996,3.9158673316207167,87.9,0.5495101173487044
1306893747.6,2.2007716,6.8614605,12475.3941,2.7,-3.7,183.2,1021564.7964696,-57026.543819599996,-1.0,539.1506567621518,102976.2503272688,102976.2503272688,296.0751014367634,0.07252647297993742,3.825518984595082,86.1,0.5491549117494043
1306893748.04,2.2008266,6.860411,12441.9951488,2.1,-3.8,183.2,1021603.54319,-57408.13832,-1.0,540.8926663084865,110384.23794662283,110384.23794662283,297.6283150899733,0.07267286515775076,3.8067578080070663,86.2,0.5487535447327814
1306893748.46,2.2008773,6.8594091,12409.7773,1.6,-3.8,183.2,1021640.1573643999,-57772.475602,-1.0,541.0119507512989,117257.21147205321,117257.21147205321,297.5173301813526,0.0746978148093871,3.8595699138335333,84.0,0.5483093846277945
1306893748.89,2.2009283,6.8583712,12376.115881599999,1.2,-3.8,183.3,1021677.6573656001,-58149.870627200005,-1.0,547.9838160462904,121956.67391832003,121956.67391832003,297.22079967192616,0.07349304690082308,3.7881811400606678,85.20000000000002,0.5478212065875495
1306893749.33,2.2009793,6.8573018,12341.1749356,0.8,-4.0,183.3,1021715.9119599999,-58538.7814008,-1.0,552.2305451666952,123671.63102808435,123671.63102808435,296.83880351134616,0.0761626592862604,3.80288547150647,88.4,0.5472864843653273
1306893749.76,2.2010293,6.8562329,12306.0371392,0.5,-4.0,183.3,1021753.9368956,-58927.5281324,-1.0,566.0956462003555,122700.71059679969,122700.71059679969,297.5516791009396,0.07469891106223293,3.7794770568858524,90.60000000000001,0.5467053710669897
1306893750.2,2.2010789,6.8551648,12270.7024924,0.2,-4.0,183.3,1021791.6665556001,-59315.94678,-1.0,551.4398828362308,122490.50923328745,122490.50923328745,297.5188325588396,0.07724909067357863,3.8240307768467034,90.90000000000002,0.5460777901396056
1306893750.63,2.2011285,6.8540928,12235.105378400001,-0.1,-4.0,183.3,1021829.7242996,-59705.8418056,-1.0,567.9727962551536,119613.43791447581,119613.43791447581,296.64771131113713,0.07550925371637021,3.7727320555149317,92.80000000000001,0.5454036650302442
1306893751.49,2.2012278,6.8519772,12164.4688932,-0.4,-4.0,183.3,1021904.8555356001,-60475.1987856,-1.0,559.6645690358747,121577.27859960179,121577.27859960179,298.28436610274963,0.07706911058829097,3.741388527827715,89.8,0.5446018496321691
1306893751.91,2.201277,6.8509522,12130.08569,-0.5,-4.0,183.3,1021941.6665603999,-60847.967826399996,-1.0,554.9170802628618,122294.76638155125,122294.76638155125,296.54780257735445,0.08040222917106286,3.748550181531862,92.0,0.5437577004633151
1306893752.34,2.2013285,6.8499035,12094.81666,-0.5,-4.0,183.3,1021979.4946456001,-61229.332668,-1.0,554.5171168649307,119388.57345639591,119388.57345639591,295.25242007943797,0.07854263281040584,3.850645572713943,92.80000000000001,0.5428696864650648
1306893753.2,2.2014341,6.8478241,12024.672300799999,-0.5,-4.0,183.2,1022055.5773252001,-61985.4350544,-1.0,549.3381868165269,116173.95012072436,116173.95012072436,294.723213032952,0.07676766107185991,3.823106849324957,92.1,0.541895933184225
1306893754.48,2.201599,6.8447548,11920.7352896,-0.5,-3.9,183.2,1022170.2098747999,-63101.3143552,-1.0,544.4191008424842,110965.86114906867,110965.86114906867,294.1112025351377,0.0765652350488221,3.760446773270929,91.5,0.5407548351964734
1306893756.19,2.2018288,6.8407933,11786.122424399999,-0.5,-3.8,183.2,1022322.4736592,-64541.2750312,-1.0,524.223314025253,103059.11514941206,103059.11514941206,292.7681995471448,0.07755512390896717,3.817977296146491,91.9,0.5393781838403929
1306893757.45,2.202007,6.8379213,11688.1893504,-0.2,-3.8,183.2,1022435.8594896,-65585.0414688,-1.0,515.0296405185417,96100.3876884457,96100.3876884457,295.0616980565106,0.07798876305330306,3.7536124072084465,89.0,0.5378545508570158
1306893759.13,2.202254,6.8341711,11560.006931599999,-0.2,-3.6,183.2,1022587.5983396,-66947.7055544,-1.0,503.3504899849595,92279.4024521314,92279.4024521314,295.9937585691106,0.07934361951140113,3.6830376538625784,85.6,0.5361138137616528
1306893763.79,2.2029807,6.8242576,11221.1617764,-0.2,-3.2,183.2,1023008.0379856001,-70548.6571132,-1.0,477.32308571197456,84013.52582122585,84013.52582122585,296.104170883962,0.079431553707944,3.6393671134889742,87.1,0.5336648855026852
1306893765.07,2.2031906,6.8216424,11131.857311599999,-0.2,-3.1,183.2,1023123.6875956,-71498.2962512,-1.0,456.4488767326843,79111.63312274059,79111.63312274059,298.868429100096,0.08055350229859606,3.6347312262342713,86.0,0.531090640095861
1306893766.33,2.2034013,6.8191092,11045.3743692,-0.2,-3.0,183.2,1023237.5983604,-72418.0141284,-1.0,448.3513959348772,72333.48512575566,72333.48512575566,298.0906298431669,0.08147733793220159,3.667224735867003,88.9,0.52847941962342
1306893766.76,2.2034736,6.8182589,11016.3717436,-0.1,-3.0,183.2,1023276.2466556,-72726.70836399999,-1.0,440.14477224271434,65082.20338095542,65082.20338095542,299.9593403362853,0.08122625130244458,3.6273296691745855,89.8,0.525880753831644
1306893767.18,2.203546,6.8174172,10987.6643936,-0.1,-2.9,183.2,1023314.6981004,-73032.2529932,-1.0,446.81175414458664,57259.34865205521,57259.34865205521,302.0858320251026,0.0819605571092056,3.6078842163267284,88.8,0.5232973986260447
1306893768.02,2.2036892,6.8157808,10931.955730399999,-0.2,-2.9,183.1,1023390.1574204,-73626.314692,-1.0,432.9092952414507,51716.1521768752,51716.1521768752,300.4572557504027,0.08462681511664578,3.5840174252778048,87.89999999999999,0.5207477267100341
1306893768.44,2.203762,6.8149623,10904.101398800001,-0.2,-3.0,183.1,1023428.2151643999,-73923.394754,-1.0,433.071898304963,47454.07985211102,47454.07985211102,301.95491748454464,0.0836957456545273,3.569179796823185,91.0,0.5183755810407429
1306893768.86,2.203835,6.8141482,10875.8533664,-3.7,-4.6,183.1,1023466.1416747998,-74218.8672044,-1.0,430.54383168798256,45137.24716624968,45137.24716624968,303.051948211706,0.08245555718816652,3.477061479977433,91.3,0.5162516199733763
1306893769.28,2.2039057,6.8133312,10845.308746,-5.7,-5.4,183.5,1023503.5760592,-74515.45514040001,-1.0,432.60650310541604,44903.205482998615,44903.205482998615,301.0806589305784,0.07927728480749532,3.4715785798238774,93.80000000000001,0.5142848986260448
1306893769.7,2.2039687,6.8125421,10813.2877476,-5.2,-5.7,183.8,1023538.4185799999,-74802.003706,-1.0,416.2591263884494,45650.407480272435,45650.407480272435,300.2189468222196,0.07922012265851677,3.570263516520794,96.2,0.5125425539191332
1306893770.12,2.2040263,6.8117406,10778.37961,-4.9,-5.9,184.2,1023572.04719,-75093.178256,-1.0,423.9341093020858,43383.80879989576,43383.80879989576,301.13603037921075,0.07743878215154366,3.506683999888439,96.5,0.5115093955639275
1306893770.54,2.2040773,6.8109455,10741.7326272,-4.9,-5.9,184.5,1023603.9369547999,-75382.08902639999,-1.0,420.31756019279857,42676.40221716062,42676.40221716062,299.3146918477494,0.07508253107088411,3.5450474861398864,97.1,0.5105991046627902
1306893770.97,2.2041234,6.8101398,10702.92029,-4.9,-5.9,184.8,1023634.6784256,-75674.9696132,-1.0,415.67982621862495,41376.92505829178,41376.92505829178,297.27246000681345,0.07519298883582252,3.491489197723706,96.5,0.5098000451702266
1306893771.39,2.2041641,6.8093476,10663.4845932,-4.7,-5.8,185.1,1023663.8122847999,-75962.9945568,-1.0,418.9718473072438,37830.63247147951,37830.63247147951,297.6551118983901,0.07422277246150816,3.4774109239500324,95.30000000000001,0.5089766418456422
1306893771.81,2.2042,6.8085761,10624.18013,-4.6,-5.8,185.3,1023691.1744904,-76243.604802,-1.0,406.77910135404977,38934.372626151686,38934.372626151686,296.7464994042196,0.07313860308981228,3.4148698360986467,93.90000000000002,0.5081285119243825
1306893772.24,2.2042341,6.8077694,10582.2838032,-4.4,-5.9,185.5,1023718.86478,-76537.0103232,-1.0,416.62713111901144,38212.64725985333,38212.64725985333,297.2135695060543,0.07082538017685934,3.4511261557381316,96.0,0.5073126107870246
1306893772.66,2.2042632,6.8069924,10541.306111599999,-4.0,-6.0,185.7,1023744.7177992,-76819.720306,-1.0,410.2499282408042,38558.145061414805,38558.145061414805,296.97667945488206,0.07248792868538317,3.5053395056654195,96.0,0.5064660884773133
1306893773.08,2.2042876,6.8062278,10500.361228400001,-3.4,-6.2,186.0,1023768.89759,-77097.9683464,-1.0,402.82779276035365,38851.89264390986,38851.89264390986,295.436755875445,0.07487770534581052,3.4951581443921946,95.40000000000002,0.50558994018335
1306893773.5,2.2043063,6.8054695,10458.989836,-3.4,-6.6,186.4,1023791.4697692,-77374.018224,-1.0,399.15446389738435,38498.46564130704,38498.46564130704,296.3505923834159,0.0770791561079495,3.4590002457203535,93.1,0.5046885294221952
1306893773.93,2.2043206,6.8046788,10414.698496,-4.6,-7.0,186.4,1023813.6154392,-77661.9775508,-1.0,407.80453702748883,36032.41686277149,36032.41686277149,297.27304206869053,0.0754465214059532,3.453849628407269,90.7,0.5037584878648899
1306893774.35,2.2043348,6.803917,10370.6368148,-5.3,-7.0,186.4,1023835.1377496,-77939.3725728,-1.0,401.8668021057677,36887.75445194525,36887.75445194525,296.05932971375995,0.07580029658300136,3.516786753329856,90.5,0.5028070880398681
1306893774.79,2.2043532,6.8031198,10323.1958684,-5.3,-7.0,186.2,1023858.5957556,-78229.5956792,-1.0,401.79707313002484,35390.79543693162,35390.79543693162,297.7324346201076,0.07504069088126018,3.46359688522576,90.2,0.5018305023005855
1306893775.21,2.2043742,6.8023572,10276.7719824,-5.4,-7.0,186.0,1023881.8897196,-78507.22036,-1.0,403.2406053441041,35401.40274546071,35401.40274546071,299.1566566290164,0.07585401773971136,3.5019770151398975,89.9,0.5008361562813378
1306893775.64,2.2044023,6.8015808,10228.740484799999,-4.9,-7.1,185.6,1023907.3162296,-78789.700684,-1.0,400.963920931806,38275.411545643496,38275.411545643496,298.33137446993175,0.07467686057774457,3.5988419719319085,88.10000000000001,0.49982175339419876
1306893776.07,2.2044366,6.8007923,10179.4294596,-4.8,-7.0,185.6,1023934.6784352001,-79076.5117168,-1.0,408.4115415774467,37787.24147783338,37787.24147783338,299.7597796523104,0.0768587176828138,3.6148423847327575,91.00000000000003,0.4987840018631401
1306893776.5,2.2044707,6.8000137,10130.6433688,-4.8,-6.7,185.5,1023961.7453652001,-79359.7138256,-1.0,402.6221954400631,39959.43724775041,39959.43724775041,299.0615926624549,0.07629437772054938,3.5921484999561453,90.4,0.4977301742165959
1306893776.92,2.2045006,6.7992342,10082.2181704,-5.7,-6.4,185.8,1023987.6968096,-79643.3096352,-1.0,413.8034664805146,41368.907026859204,41368.907026859204,297.5932014748161,0.07384113305143358,3.644160759032265,90.30000000000001,0.49665896905474116
1306893777.34,2.2045262,6.7984756,10035.8599012,-7.1,-5.9,185.8,1024012.1062592,-79919.35951279999,-1.0,400.9324625510576,43617.63237500078,43617.63237500078,299.24338404136205,0.07204592731115216,3.632054416546216,91.00000000000001,0.49557513265929054
1306893777.77,2.2045531,6.7976792,9988.3861464,-7.8,-5.3,185.8,1024037.7296196,-80209.15611,-1.0,412.1529415691671,43431.181296516246,43431.181296516246,300.1913410231272,0.06999396558040603,3.6756353044281362,93.10000000000002,0.4944770574186956
1306893778.2,2.2045826,6.7969012,9944.22604,-7.9,-2.7,185.5,1024063.5498304,-80492.2269852,-1.0,400.8328249625142,46108.16118433854,46108.16118433854,300.5467994074349,0.07063622885521668,3.585934317141841,96.4,0.4933792883898242
1306893778.63,2.204618,6.7961047,9903.4451988,-7.1,-1.6,185.2,1024091.3385452001,-80781.9251572,-1.0,410.6071643688463,45657.86887018999,45657.86887018999,302.418542178152,0.072058671208379,3.5656984853902687,93.80000000000001,0.4922891746540412
1306893779.05,2.2046571,6.7953287,9868.4714444,-6.1,-0.8,185.0,1024119.7506196,-81064.0773972,-1.0,408.41250605289457,45842.513995153095,45842.513995153095,302.1583091916601,0.07504644489042887,3.654077167346262,93.8,0.491228151031994
1306893779.47,2.2046996,6.7945645,9838.3861416,-5.0,-0.1,184.8,1024148.5563947998,-81341.86612,-1.0,400.5003032181196,46051.20741597735,46051.20741597735,303.1929866586702,0.07192114965228333,3.626535254138943,94.8,0.4902052507695268
1306893779.9,2.2047479,6.7937555,9811.0895528,-3.7,1.0,184.6,1024180.0196504,-81635.9278092,-1.0,415.3716702334245,44583.12910774082,44583.12910774082,303.95311077957734,0.07290521625627744,3.5803043080491936,94.1,0.48923073195937805
1306893780.32,2.2047963,6.7929908,9789.9609432,-2.6,3.0,184.5,1024210.4658456001,-81913.8477656,-1.0,399.56621074875653,46989.709193245086,46989.709193245086,303.9567809360943,0.07065036742232182,3.565811387948799,93.6,0.48832197211685846
1306893780.53,2.2048218,6.7925993,9781.2667172,-2.0,5.2,184.5,1024226.2794943999,-82056.0721796,-1.0,409.82840229516813,45722.42638915699,45722.42638915699,304.1416021247665,0.07063298143086154,3.587033149529653,92.3,0.48750675995587855
1306893780.96,2.2048746,6.7918126,9771.457005600001,2.2,15.9,184.5,1024258.3661096,-82341.9317688,-1.0,400.6763110538747,48703.698141201116,48703.698141201116,305.06938422737807,0.07240797500878728,3.4568260983569146,91.39999999999999,0.4867816505945487
1306893781.38,2.2049271,6.7910405,9780.4793156,2.7,24.6,184.5,1024290.0262156001,-82622.4435888,-1.0,402.8042139271903,49491.549241092835,49491.549241092835,303.94456724037417,0.07219921223589183,3.4860006917803434,90.69999999999999,0.4861857625805504
1306893781.8,2.204979,6.7902818,9813.845458400001,4.6,31.3,184.8,1024321.3254292,-82898.0997656,-1.0,398.3541043052086,51097.21537746578,51097.21537746578,304.2432308159492,0.07528253751078677,3.455349028474709,88.0,0.48577850098824954
1306893782.22,2.2050232,6.7895516,9871.686667599999,6.5,37.1,185.6,1024349.8031203999,-83163.4869132,-1.0,389.00087819305537,49160.6834379851,49160.6834379851,302.6753389389024,0.07401156059291188,3.455077402550379,87.0,0.48560924245806575
1306893782.65,2.2050548,6.7888464,9953.4780088,7.8,42.1,186.7,1024374.5078456,-83419.9829844,-1.0,375.7366625603246,44873.14127442388,44873.14127442388,301.26537240115084,0.07300989370166047,3.5237756046493667,89.0,0.48572598567766334
1306893783.07,2.2050715,6.7882022,10052.690610399999,8.9,47.2,188.0,1024393.89761,-83654.46461920001,-1.0,363.46739584262406,34121.83071375911,34121.83071375911,300.51698340955124,0.07190187966906544,3.45720616378915,89.80000000000001,0.486155830384575
1306893783.5,2.2050751,6.7875797,10173.4583308,10.3,52.3,189.6,1024409.3831747998,-83881.26908839999,-1.0,359.4289818316971,20617.11806047093,20617.11806047093,300.33083729256714,0.0716371305669804,3.487286043859743,87.39999999999999,0.4869376654676896
1306893783.92,2.2050655,6.787012,10308.071196,11.7,57.0,191.3,1024420.2427552001,-84088.3557092,-1.0,355.3144005575555,16567.30163783183,16567.30163783183,299.39177855305115,0.06928102306300599,3.565208206529141,88.80000000000001,0.488097289264715
1306893784.34,2.2050443,6.7865013,10452.7890484,13.3,61.5,193.2,1024426.70601,-84274.8386548,-1.0,340.3470186986606,27491.443520634413,27491.443520634413,298.8515810355917,0.06951995447665277,3.6152179739554464,88.70000000000002,0.48964388812735704
1306893784.76,2.2050118,6.7860302,10610.433410399999,15.2,65.7,195.5,1024429.2650652,-84447.08275480001,-1.0,339.31346346723365,38213.828540339644,38213.828540339644,300.51978462455054,0.07105072614424994,3.6309397405329986,90.10000000000001,0.49157861034957934
1306893785.18,2.2049708,6.785622,10770.505594,17.5,69.8,198.1,1024428.1495796,-84596.5250168,-1.0,319.32054217527576,45873.171750209396,45873.171750209396,299.76689454839857,0.07091948493196028,3.7384736045948825,90.30000000000001,0.4939097236479171
1306893785.61,2.2049184,6.7852417,10945.1118988,20.3,73.7,201.2,1024423.42517,-84736.0263336,-1.0,321.84156256601386,48600.92011068169,48600.92011068169,300.1673605462061,0.0709494928404143,3.783919022689963,88.0,0.49662719958842444
1306893786.03,2.2048592,6.7849192,11119.258886,23.5,77.3,204.9,1024415.6495792,-84854.5302744,-1.0,313.4594139687144,48218.94806736791,48218.94806736791,298.9770698977975,0.07017429439495029,3.9001114255397997,90.0,0.49967316415535357
1306893786.45,2.2047938,6.7846457,11293.5371068,27.5,80.7,209.3,1024405.0852744,-84955.3176792,-1.0,302.480909207063,45596.17662453507,45596.17662453507,300.0074926211996,0.07229880629213083,3.9357471646509428,90.70000000000002,0.5029908150739888
1306893786.87,2.2047217,6.7844139,11469.7838316,32.4,83.8,214.6,1024391.7322556,-85040.9804116,-1.0,297.9901428342748,42410.86612162088,42410.86612162088,300.09470399848874,0.0718869925894081,3.943790215225289,90.3,0.506528861880638
1306893787.3,2.2046439,6.7842237,11645.7680892,38.6,86.6,221.3,1024375.9514152001,-85111.58408839999,-1.0,284.9604838451048,39613.23157386869,39613.23157386869,301.4743261880493,0.07264272903207855,3.9350499308261937,87.60000000000001,0.5102460425455548
1306893787.72,2.204561,6.7840732,11820.341585600001,45.7,88.9,228.9,1024358.0052203999,-85167.81768600001,-1.0,286.3160165211171,37275.36973204572,37275.36973204572,300.29693322002294,0.0737472568686255,3.837975272808441,88.60000000000001,0.5140887700171208
1306893788.15,2.2044728,6.7839592,11994.915082000001,54.1,90.6,237.8,1024337.8280543999,-85210.8294984,-1.0,278.1618819445051,36482.783112710946,36482.783112710946,301.18355854170176,0.07372613155779514,3.823159682857559,89.9,0.5180247389585033
1306893788.57,2.2043829,6.7838831,12163.2549824,63.5,91.8,247.8,1024316.1745104,-85240.0617828,-1.0,274.9015506976634,37672.58349520566,37672.58349520566,300.9439631403062,0.07279960286063497,3.7254315950553174,89.0,0.5220158260101218
1306893788.99,2.2042927,6.7838414,12324.0489508,73.5,92.3,258.4,1024293.83199,-85256.76125839999,-1.0,264.37898959494237,38824.790658936836,38824.790658936836,300.2678407368985,0.07204289198231355,3.7729773034872958,90.1,0.5260142621431051
1306893789.41,2.2042013,6.7838302,12480.3481684,83.7,92.0,269.1,1024270.3411756001,-85262.4043032,-1.0,260.0994701225796,41655.232085088406,41655.232085088406,300.1170487768046,0.07348371821826422,3.6864248710506295,90.1,0.5300038946890369
1306893789.83,2.2041068,6.7838483,12634.3179896,93.0,91.1,279.1,1024245.3411748,-85257.384618,-1.0,260.50957599193316,43548.94249647912,43548.94249647912,299.58897810021,0.0733327773242728,3.683521795027098,92.4,0.5339453754414427
1306893790.26,2.2040118,6.7838945,12782.480724,101.6,89.5,288.6,1024219.6193892,-85242.0959036,-1.0,250.907596176056,45273.82612208094,45273.82612208094,299.71572752834004,0.07187542391137662,3.6738365216455047,93.4,0.5378262262725889
1306893790.69,2.2039167,6.7839677,12925.7550068,108.5,87.6,296.4,1024193.2414356001,-85216.9974776,-1.0,249.43285265261534,47341.99252626863,47341.99252626863,300.0088058676311,0.07246816632863819,3.6654238420749308,93.10000000000001,0.54163473458405
1306893791.12,2.2038245,6.784065,13061.2208904,114.6,85.3,303.5,1024166.9947156,-85183.073592,-1.0,244.20901935253892,47973.85290135629,47973.85290135629,299.78442539688507,0.0719883456032909,3.5927059330614335,92.90000000000002,0.5453480876024226
1306893791.54,2.2037375,6.7841822,13187.1067212,119.4,82.8,309.3,1024141.6994392,-85141.8334332,-1.0,241.4877871802125,48301.65281918486,48301.65281918486,296.86781926402585,0.07179325843820843,3.606583305612529,93.50000000000001,0.5489445442953361
1306893791.96,2.2036555,6.7843184,13305.348194799999,123.3,80.1,314.4,1024117.1915643999,-85093.53946839999,-1.0,237.2446856557243,47756.50458437829,47756.50458437829,296.434772548991,0.07061117035409309,3.5958246753934566,93.60000000000002,0.5524095596059222
