timestamp,longitude,latitude,altitude,roll,pitch,yaw,u,v,heading,air_speed,engine_0,engine_1,temperature_in,humidity_in,pressure_in,heart_rate,oxygen_mask
1306893631.32,6.4752918,4.1768605,155.7414748,-1.0,4.0,-1.0,2242033.9956296,-935127.8842547999,-1.0,161.03081458591575,3064.291732113353,3064.291732113353,294.2193549374288,0.07485994712291738,3.5546412680097026,84.49999999999999,0.30635995055001525
1306893631.74,6.475647,4.1769052,155.8399,-1.0,5.8,-1.0,2242128.51663,-935100.8173248,-1.0,161.03081458591575,3111.3684292160838,3111.3684292160838,295.5070703010648,0.07302671255262788,3.4634752746665285,81.99999999999999,0.3062194759218438
1306893632.16,6.4760197,4.1769521,155.9383252,-1.0,6.9,-1.0,2242227.76204,-935072.3068252001,-1.0,169.02040226871742,3267.0748501443018,3267.0748501443018,294.63747654313676,0.07336604746987642,3.543513687341398,81.29999999999998,0.3061879361143197
1306893632.58,6.4763879,4.1769985,155.9711336,-1.0,7.7,-1.0,2242325.7935392,-935044.2228347999,-1.0,166.9484099148005,3193.4259245284566,3193.4259245284566,295.7427593233797,0.07111497733453453,3.5897707885759047,81.9,0.3061682620110826
1306893633.01,6.4767784,4.1770476,155.9711336,-1.0,8.2,-1.0,2242429.7305504,-935014.4984243999,-1.0,172.80861031403637,3443.355840735891,3443.355840735891,296.53200983739947,0.07127645267719662,3.624943850492015,81.8,0.30615746804782806
1306893634.5,6.4781979,4.1772264,158.2021048,-1.0,9.7,-1.0,2242807.4536595996,-934906.1322792,-1.0,181.18971502558833,3443.3558407358923,3443.3558407358923,296.53200983739947,0.07127645267719662,3.624943850492015,81.8,0.30615746804782806
1306893634.92,6.4786099,4.1772783,160.597118,-1.0,9.9,-1.0,2242917.1649492,-934874.6362152001,-1.0,186.69430186524684,3193.4259245284557,3193.4259245284557,295.7427593233797,0.07111497733453455,3.5897707885759043,81.89999999999999,0.30616826201108266
1306893635.36,6.4790541,4.1773343,164.40289239999998,-1.0,10.1,-1.0,2243035.2751892,-934840.7123296,-1.0,191.8589727311729,3267.074850144303,3267.074850144303,294.63747654313676,0.07336604746987643,3.5435136873413975,81.3,0.3061879361143197
1306893635.79,6.4794954,4.1773901,169.455386,-1.0,10.3,-1.0,2243152.7620695997,-934806.8868692,-1.0,195.35475884990876,3111.3684292160833,3111.3684292160833,295.5070703010648,0.0730267125526279,3.463475274666528,82.0,0.3062194759218438
1306893637.95,6.4818114,4.1776862,216.04331399999998,0.1,10.3,-1.0,2243768.93663,-934628.47479,-1.0,204.32060098468077,3064.291732113353,3064.291732113353,294.2193549374288,0.07485994712291738,3.554641268009702,84.49999999999999,0.30635995055001525
1306893639.24,6.4833337,4.1778852,263.45145199999996,0.1,10.5,-1.0,2244173.9235195997,-934509.54434,-1.0,225.7161178437133,3422.140827142619,3422.140827142619,295.57365761617876,0.07641213958409049,3.5132305467780185,84.6,0.30661127382210623
1306893640.09,6.4844059,4.1780283,304.69161080000003,0.3,10.4,-1.0,2244458.9300904004,-934424.6690092001,-1.0,241.9767730098737,3945.730851043502,3945.730851043502,296.45477990671577,0.07816831551751278,3.612931242295771,86.00000000000001,0.3069585944695253
1306893640.51,6.4849556,4.1781027,328.0511916,0.3,10.4,-1.0,2244604.9274704,-934380.8697952001,-1.0,251.45547462613632,4419.532978900504,4419.532978900504,296.9735257871788,0.07891768028643827,3.5489609773729236,86.90000000000002,0.3073601911449409
1306893640.95,6.4855435,4.1781833,354.5275704,0.3,10.3,-1.0,2244761.1938795997,-934333.4944656001,-1.0,257.41887090741943,5141.89718286595,5141.89718286595,297.10791548049195,0.08045503755022887,3.5910332530149645,85.7,0.3078234894826487
1306893641.37,6.4861146,4.1782624,381.4960752,0.3,10.2,-1.0,2244912.9327296,-934287.26743,-1.0,262.2633904636833,5812.161261140746,5812.161261140746,297.0480519987173,0.08186184184933111,3.5547834768972617,87.5,0.30834971432954283
1306893641.79,6.4867081,4.1783456,410.13780840000004,0.3,10.0,-1.0,2245070.6099,-934238.87504,-1.0,272.7887335141105,6753.481716229675,6753.481716229675,297.83678265669107,0.08478317904828142,3.437826724344287,85.30000000000001,0.30893756428579827
1306893642.22,6.4873195,4.1784323,439.5341348,0.8,9.6,-1.0,2245232.8146296,-934188.6453796,-1.0,274.2487010212896,7611.893357042005,7611.893357042005,299.97542761167034,0.08623908800474751,3.493706546246902,86.80000000000001,0.309588417304171
1306893642.64,6.4879335,4.1785203,468.33991,0.9,9.2,-1.0,2245395.8395692,-934137.8907847999,-1.0,282.0726459027381,9095.72821434238,9095.72821434238,301.1401245367538,0.08479181110880879,3.584467710402382,87.00000000000001,0.31029760365587705
1306893643.06,6.4885637,4.1786115,496.4895172,1.1,8.8,-1.0,2245563.1624092,-934085.3973448,-1.0,289.2723946531708,10601.325887078707,10601.325887078707,302.8111727680362,0.08430231991291846,3.677647496484129,85.10000000000001,0.3110606832709252
1306893643.48,6.4892046,4.1787051,523.29398,1.3,8.4,80.7,2245733.1427296,-934031.7884192,-1.0,293.5210470269512,11993.362542826837,11993.362542826837,304.307456321914,0.08280255142048626,3.5643611740638166,83.89999999999999,0.31177760146865047
1306893643.9,6.4898662,4.1788024,548.72049,1.5,8.1,80.7,2245908.6676696,-933976.1125644,-1.0,302.67342233599254,13615.72256103937,13615.72256103937,304.08481308459335,0.08080557216963351,3.6577877620947117,83.8,0.3124432292026837
1306893644.33,6.4905527,4.178904,572.6050052,1.7,7.9,80.7,2246090.7542895996,-933918.17293,-1.0,306.2342528660674,14868.476022668157,14868.476022668157,301.3377310934035,0.07995852790628138,3.5456602420010945,84.5,0.3130683604362795
1306893644.75,6.4912504,4.1790077,594.2585492,2.0,7.7,80.7,2246275.6952404003,-933859.11781,-1.0,317.99110857529087,15983.07970692955,15983.07970692955,303.039548895624,0.0781014945487529,3.6721267089614256,84.70000000000002,0.3136895109174693
1306893645.18,6.491987,4.1791175,614.4029068,2.3,7.7,80.8,2246471.1348792,-933796.5849996,-1.0,327.7954061247394,17015.41265223309,17015.41265223309,303.52807362378496,0.0785934639563845,3.5493636365178234,85.00000000000001,0.3142958866829986
1306893645.62,6.4927483,4.179231,632.9396528,2.6,7.9,80.8,2246672.9065392,-933731.98526,-1.0,330.40935273520176,17994.99744203231,17994.99744203231,303.91646484408943,0.07653605582426087,3.664002121180976,84.10000000000001,0.3148825883452908
1306893646.04,6.4934965,4.1793424,650.0000208,2.9,8.2,80.9,2246871.3973592,-933668.6322396,-1.0,340.23574215015924,19305.01048261259,19305.01048261259,304.35275304407367,0.0758514934254598,3.726364055504153,87.0,0.31544226682298115
1306893646.47,6.494281,4.179458,667.7165568,3.1,8.6,81.0,2247079.5010404,-933602.4905052001,-1.0,348.2506538100005,20892.284276477185,20892.284276477185,304.96324262042725,0.07445135109724667,3.7691997451327555,84.8,0.31597469245727683
1306893646.89,6.4950781,4.1795742,686.2861112,3.4,9.0,81.1,2247290.91837,-933535.8566447999,-1.0,362.00739478023513,22705.517475170425,22705.517475170425,302.7191975488749,0.07409452265224091,3.742751391773544,86.89999999999999,0.31648323357713687
1306893647.31,6.4958737,4.1796888,705.9055344,3.5,9.3,81.2,2247502.1388492,-933469.8133356001,-1.0,361.5900576827767,24737.506260047932,24737.506260047932,300.0499794831429,0.07455104722551986,3.6954982460995613,87.7,0.3169718709349671
1306893647.73,6.4966956,4.1798056,727.5918868,3.5,9.5,81.3,2247720.3147092,-933402.1624147999,-1.0,373.42597377231624,27674.256634485737,27674.256634485737,299.3677000145977,0.07618847231088295,3.799041111222366,88.80000000000001,0.3174485660355796
1306893648.15,6.4975283,4.1799223,751.0498928,3.5,9.7,81.4,2247941.3449,-933334.1834099999,-1.0,378.2932247321351,30011.470051145247,30011.470051145247,297.2368613281307,0.07485236007501399,3.7465537290620965,86.80000000000001,0.31792066796033897
1306893648.58,6.4984081,4.1800441,777.3294212000001,3.5,9.7,81.5,2248175.10475,-933263.0219904,-1.0,390.67548001563523,33301.7910422347,33301.7910422347,299.46143735877774,0.07680457427379041,3.819246831579504,86.1,0.31839835824905294
1306893649.0,6.4992633,4.1801609,804.1666924,3.5,9.7,81.6,2248402.30292,-933194.3540092,-1.0,388.7758352821662,36474.23543248024,36474.23543248024,297.9379941368739,0.07553210977450543,3.733004868884461,86.5,0.3188881439008464
1306893649.44,6.5001866,4.1802856,834.8425464000001,3.3,12.8,81.7,2248647.7425604,-933120.6335343999,-1.0,400.97926356189987,40274.1708146527,40274.1708146527,295.4333626605917,0.07623844993467925,3.732722881277278,86.60000000000001,0.31940250304345363
1306893649.86,6.5010667,4.1804032,868.2414976,2.1,9.8,81.7,2248881.7320692,-933051.0141096,-1.0,401.0581372633478,43769.26520899318,43769.26520899318,296.22581372798726,0.07763967784050992,3.6337719492886396,85.2,0.3199515406637511
1306893650.29,6.5019877,4.1805257,902.1981916,-3.6,8.7,81.7,2249126.54835,-932978.21227,-1.0,409.6055063074067,47966.38611877345,47966.38611877345,295.8942727403674,0.07750745475667598,3.645452240748266,84.60000000000001,0.3205400030434536
1306893650.71,6.5028745,4.1806455,933.4317884,-24.9,12.3,81.4,2249362.1454704003,-932907.4773596,-1.0,403.5633950000233,52070.10627270035,52070.10627270035,293.5285841278579,0.07724180908792365,3.6220322950109676,85.5,0.32116000523068017
1306893651.15,6.5038057,4.180784,969.9475375999999,-37.7,14.1,79.9,2249609.0286804,-932828.5403492,-1.0,406.43615324089893,56255.04882788818,56255.04882788818,295.6333587765184,0.0768825190899665,3.6029098489302465,84.8,0.32182188187110006
1306893651.58,6.5047129,4.1809395,1009.7441267999999,-41.5,14.3,78.3,2249848.9565096,-932744.1571444,-1.0,408.6811959607754,60976.123619827136,60976.123619827136,298.03338320720525,0.07485596039218544,3.6462195190494424,85.19999999999999,0.3225308385640135
1306893652.0,6.5056092,4.1811144,1052.2638132,-47.9,15.3,76.5,2250084.7504804004,-932653.0154092,-1.0,416.291468058168,65269.06127416294,65269.06127416294,298.3915351174701,0.07419075495641712,3.6648790577037884,82.9,0.32328840636803796
1306893652.43,6.5065295,4.18132,1099.0814,-52.5,15.7,74.4,2250326.1218792,-932549.9642247999,-1.0,422.4649833560735,68984.44366341212,68984.44366341212,300.4383770113446,0.07577021846280477,3.678283571778388,85.2,0.32410047985885165
1306893652.85,6.5074404,4.1815519,1147.9331075999999,-54.3,15.5,72.4,2250563.7531204,-932437.5954548,-1.0,433.3420038626676,71205.94443542804,71205.94443542804,299.24849278767556,0.0723805374609345,3.6188408679747024,86.10000000000002,0.3249652217661133
1306893653.28,6.5083609,4.1818147,1199.2454452,-56.3,15.8,70.3,2250802.6638892,-932313.6453196,-1.0,433.35694522167034,72371.3547776991,72371.3547776991,300.33529617286473,0.07253603946177381,3.618854202991784,84.20000000000002,0.325887072159814
1306893653.72,6.5093152,4.1821189,1254.3635571999998,-58.0,15.8,68.1,2251049.12059,-932173.58626,-1.0,445.9608402885215,72742.80136418843,72742.80136418843,299.99695159981474,0.07188810945089656,3.6176859215276105,87.60000000000002,0.32686595448702316
1306893654.14,6.5102158,4.1824368,1308.0052912,-58.8,15.7,66.0,2251280.2229596,-932030.04951,-1.0,448.1738291302565,72845.8672094376,72845.8672094376,298.7109789489795,0.06904389537389612,3.6678750734267385,87.50000000000001,0.32789206997258746
1306893654.56,6.5111175,4.1827856,1363.1562116,-59.5,15.7,64.0,2251510.7019696,-931875.3250956001,-1.0,457.0886916712125,72954.22054374764,72954.22054374764,298.2755187874276,0.06857167859921025,3.641909756088946,87.80000000000001,0.3289676386515026
1306893654.99,6.5120231,4.1831676,1419.9803604,-60.0,15.7,62.0,2251740.55762,-931708.4287648,-1.0,456.56158945570485,73808.88369756893,73808.88369756893,299.2656481547056,0.07039897718137851,3.5738085364244347,90.5,0.3301029186165069
1306893655.41,6.5129188,4.1835774,1477.4934856,-58.8,14.9,60.0,2251966.7387296,-931531.5586804,-1.0,472.20971449511364,74704.30874370967,74704.30874370967,299.4407012112685,0.06989378208339966,3.5146923343914485,89.2,0.3312871924572769
1306893655.84,6.5138047,4.1840098,1534.9738024,-53.0,13.5,58.6,2252189.4093404002,-931346.81458,-1.0,464.26291832797256,74720.84778430876,74720.84778430876,299.1839045550231,0.07281154283809316,3.542042173600537,91.5,0.33251272832779305
1306893656.26,6.5146923,4.1844616,1591.8963764,-46.0,12.9,57.7,2252411.6862504003,-931154.88544,-1.0,481.9220471444685,74840.54841080365,74840.54841080365,297.60846660819624,0.07253929570314271,3.469060833923559,92.1,0.33377187093496713
1306893656.68,6.5155857,4.184931,1648.458058,-40.1,12.9,56.9,2252634.58652,-930956.39462,-1.0,485.3059020525561,73077.65757577833,73077.65757577833,296.3621293387794,0.07100441742952163,3.4299894757355585,90.30000000000001,0.33505374976261365
1306893656.89,6.5160354,4.1851726,1676.837324,-37.4,12.7,56.5,2252746.7584396,-930854.5901547999,-1.0,492.312568464278,70046.85504602821,70046.85504602821,295.9482364131934,0.0735410221900583,3.4088680188615585,91.39999999999999,0.33628785956138885
1306893657.32,6.5169408,4.1856687,1734.1535988,-31.0,12.6,55.8,2252971.8896804,-930645.9615392,-1.0,486.8023405822285,67039.97229002946,67039.97229002946,294.6261613740456,0.07383841425461582,3.4271945207554064,91.20000000000002,0.3375359785465157
1306893657.74,6.5178384,4.1861722,1791.4370652,-25.3,12.6,55.2,2253194.78995,-930434.8394852001,-1.0,498.44652816481175,64080.21203550916,64080.21203550916,297.2674104404334,0.07260248798400436,3.5491096132521482,90.30000000000001,0.33878915002508087
1306893658.18,6.5187593,4.1866989,1850.9186943999998,-20.1,12.6,54.7,2253423.0051804003,-930214.6295044,-1.0,491.24649453715006,61613.538484234894,61613.538484234894,297.5321163634203,0.07401167516290517,3.526633215333759,90.2,0.3400559479253434
1306893658.61,6.51964,4.1872103,1908.5630532,-15.6,12.6,54.4,2253640.7873396,-930001.1452456,-1.0,483.20941188816636,61704.56124656859,61704.56124656859,297.8926582577526,0.07165048688455297,3.603865346029419,88.1,0.341328563848353
1306893659.05,6.5205566,4.1877484,1969.4554435999999,-11.5,12.6,54.1,2253867.36215,-929776.93264,-1.0,493.8493111230285,64572.96028312717,64572.96028312717,298.1428444115327,0.07134983125375305,3.572686096387134,86.1,0.34261067233479214
1306893659.48,6.5214433,4.1882731,2029.1667316,-8.1,12.6,53.9,2254086.35822,-929558.4615043999,-1.0,490.4353081310985,66095.2400166039,66095.2400166039,296.6967616539545,0.07177482733518199,3.6611975721231347,88.20000000000002,0.34389790986760055
1306893659.9,6.5223187,4.1887913,2088.7795944,-5.6,12.6,54.0,2254302.4999592,-929342.7462743999,-1.0,495.9705591533306,69141.63834707547,69141.63834707547,297.1979298952434,0.06963406272698155,3.569142447906095,86.50000000000003,0.34519012334091637
1306893660.33,6.5232066,4.1893153,2149.8032184,-3.9,12.6,54.0,2254521.88973,-929124.4719892,-1.0,491.0887267950625,70251.28172499327,70251.28172499327,298.76611732510196,0.07019647350316344,3.5325160342554396,85.9,0.34649190593059265
1306893660.75,6.5240655,4.1898211,2209.2520392,-2.9,13.3,54.0,2254734.1272695996,-928913.6780192,-1.0,486.05185559600244,69826.79669984116,69826.79669984116,298.28312909997965,0.07063135202345197,3.643361092912178,88.10000000000001,0.3478004251781867
1306893661.17,6.5249307,4.1903296,2269.4226448,-2.1,13.3,54.0,2254947.7755704,-928701.7357552,-1.0,489.17513820240316,68977.19448659883,68977.19448659883,299.5280583991,0.068198073988761,3.725473556152297,87.10000000000001,0.349183124215807
1306893661.6,6.5258191,4.1908508,2331.4633292,-1.4,13.3,54.0,2255167.395,-928484.4785304,-1.0,490.6135599229607,69072.28642467872,69072.28642467872,301.33818216464823,0.06858761472586415,3.736579790993405,86.4,0.3505768468754745
1306893662.03,6.5267107,4.1913726,2393.864906,-1.0,13.3,54.0,2255387.8346396,-928266.92603,-1.0,491.98176526813245,68236.05556964526,68236.05556964526,299.68300751956605,0.06940963452539747,3.7493227796624207,84.7,0.3519825117923599
1306893662.5,6.5276871,4.1919423,2462.3032284,-0.7,13.3,54.0,2255629.17323,-928029.2619804,-1.0,492.345188842993,68114.17177688291,68114.17177688291,301.2627762532865,0.06855767161349385,3.8177182178263855,87.50000000000001,0.35340907565937657
1306893662.94,6.5286018,4.1924742,2526.4436504,-0.5,13.3,54.0,2255855.3543395996,-927807.3131543999,-1.0,492.09414463539105,67809.91342406099,67809.91342406099,300.33460041670935,0.06895907968128587,3.6994762534866994,87.5,0.3548507970067082
1306893663.79,6.5303755,4.1935,2650.6562528,-0.5,13.5,54.0,2256294.36354,-927378.8354504,-1.0,493.20592617995413,66539.68788411141,66539.68788411141,300.16704468709,0.06881760343909807,3.7513465449780288,88.10000000000001,0.3564402655106451
1306893664.65,6.5321824,4.1945364,2776.6733172,-0.1,13.5,54.0,2256741.8044992,-926945.56772,-1.0,495.02966283294614,66139.96712793273,66139.96712793273,301.59297282783234,0.06852177226868938,3.763218113740034,88.20000000000002,0.358184447487898
1306893665.91,6.5348741,4.1960615,2962.9594124,-0.0,13.5,54.0,2257409.02893,-926306.9194056,-1.0,501.2086671254517,65533.93375513462,65533.93375513462,300.47680676744983,0.07034995701618642,3.826851245953875,87.80000000000001,0.36022420033129265
1306893709.42,6.6401801,4.2472353,9390.8795656,-0.0,14.0,54.0,2283840.29618,-904400.2585996,-1.0,589.82392699929,65525.6345156697,65525.6345156697,298.94559500915136,0.0715795839965333,3.86859973402497,88.39999999999999,0.377120044600759
1306893711.54,6.6453928,4.2497116,9702.920258,-0.0,14.0,54.0,2285149.7778492,-903335.6260196,-1.0,594.1531581564744,66906.00043768845,66906.00043768845,299.86819715449616,0.07304879095204499,3.864048980081255,87.50000000000001,0.39460526988509836
1306893717.96,6.6612379,4.2572425,10651.640760799999,-0.0,14.1,54.0,2289129.4367692,-900097.5353647999,-1.0,596.3081393778339,68907.35948313758,68907.35948313758,300.93794364509233,0.07472805683260642,3.8315997650913514,85.70000000000002,0.4141637781965594
1306893726.26,6.6816655,4.2669703,11876.2470992,-0.0,14.2,54.0,2294257.3896892,-895914.9892992,-1.0,595.0619252162795,71808.06178756845,71808.06178756845,301.1477426300403,0.07560604690635564,3.7688353150105196,87.30000000000001,0.4364349396138823
1306893733.45,6.6993031,4.2754187,12938.2550072,-0.0,14.2,54.0,2298681.6024292,-892284.4117552001,-1.0,594.3293256304258,75466.80158295952,75466.80158295952,300.598081475707,0.07532562604831608,3.6505924805457415,89.9,0.4610385157293678
1306893733.87,6.700338,4.2759171,13000.8534344,-0.0,14.3,54.0,2298940.9856395996,-892070.4353704,-1.0,597.6679083926671,78784.58287873503,78784.58287873503,300.27024202334485,0.07842660880961233,3.552294680088501,89.1,0.48562846542315613
1306893741.34,6.718423,4.2847126,14102.920398799999,-0.0,14.4,54.0,2303470.1852595997,-888298.2895804,-1.0,589.9266781981335,80412.456105159,80412.456105159,300.34898412397456,0.0784228119098353,3.616342941300276,90.2,0.5126402436383792
1306893743.91,6.7245592,4.2877481,14481.955844000002,-0.0,14.4,53.8,2305004.6013192,-886999.5034496,-1.0,585.6166579185424,80439.14731482959,80439.14731482959,299.06184489935436,0.07707202098590903,3.656899763078528,87.8,0.5402466084677756
1306893753.2,6.7461783,4.2987828,15851.739352399998,-0.0,13.8,53.8,2310394.3980795997,-882298.5518556001,-1.0,577.8447427632874,78963.08161363125,78963.08161363125,299.11203781765187,0.0785922052676999,3.657093502957434,86.8,0.5707550949069706
1306893753.63,6.7471572,4.2992985,15913.812845199998,-0.0,11.7,53.8,2310637.8035992,-882079.7854443999,-1.0,572.1310664751563,75984.2322885057,75984.2322885057,298.2895484419749,0.07532188344435624,3.6636102780607605,87.8,0.6009737519498404
1306893754.06,6.748134,4.2998146,15971.7196712,-0.0,10.6,53.8,2310880.5857592,-881860.9862247999,-1.0,570.3888817188149,73680.09396362981,73680.09396362981,299.2634856487706,0.075402057838896,3.6492690637459786,90.2,0.6163290450382043
1306893754.48,6.7491069,4.3003301,16024.770854,-0.0,9.8,53.8,2311122.1212,-881642.3838556,-1.0,580.0515874641746,71590.53939891743,71590.53939891743,300.5353750497087,0.0770252680848939,3.608048574013123,88.4,0.6310800292901727
1306893754.91,6.7500782,4.3008462,16073.2288608,-0.0,9.2,53.8,2311363.4597904,-881423.8142947999,-1.0,566.3327100546682,68416.31740883173,68416.31740883173,297.63722254970776,0.07710827378031507,3.6392512849632452,88.5,0.6437304011186943
1306893755.34,6.7510503,4.3013639,16117.454584000001,-0.0,8.6,53.8,2311604.8311892,-881204.5229492,-1.0,566.3150139529599,67050.82155622731,67050.82155622731,295.11355054541525,0.07743485266764338,3.6577946425507792,90.10000000000001,0.6536265515998843
1306893755.76,6.7520207,4.3018818,16157.677682399999,-0.0,8.1,53.8,2311845.7432704,-880985.1987952001,-1.0,577.4655777700557,65520.40214732803,65520.40214732803,296.5209362482171,0.07558058007391208,3.683704356531846,89.9,0.661138537601634
1306893756.19,6.7529802,4.302395,16193.865347600002,-0.0,7.6,53.8,2312083.8338292,-880767.9415704,-1.0,558.9793518544099,62358.41908469828,62358.41908469828,294.54487397487605,0.07342451207700212,3.7368784695790414,91.50000000000001,0.6685888984940224
1306893756.61,6.7539355,4.3029068,16226.542514,-0.0,7.1,53.8,2312320.8745192,-880551.3077052,-1.0,568.7375455953792,62876.04536116482,62876.04536116482,295.07499081340194,0.07571975818756735,3.7647524199052698,89.9,0.6735440166042587
1306893757.03,6.7549139,4.3034319,16256.890284000001,-0.0,6.7,53.8,2312563.6566792,-880329.1292204,-1.0,581.2975371102444,62371.30944131535,62371.30944131535,297.82070902553215,0.07620366648834144,3.704730409462617,90.9,0.6776855301650635
1306893757.45,6.7558558,4.3039382,16283.301045999999,-0.0,6.3,53.8,2312797.4165292,-880114.9559852001,-1.0,561.3293177769417,59293.4376814152,59293.4376814152,298.19188854516887,0.07755943843945928,3.667011269900252,92.0,0.678692507417907
1306893757.87,6.7568252,4.3044598,16307.8417292,-0.0,6.0,53.8,2313037.9349096,-879894.3194952001,-1.0,576.2348632732712,60612.685814419485,60612.685814419485,297.73923827785546,0.0810178938472002,3.628714450555635,92.4,0.6796119081178195
1306893758.29,6.7577738,4.304971,16329.4624648,-0.0,5.7,53.8,2313273.1383292,-879678.1121392,-1.0,564.7882178724393,59631.58654321213,59631.58654321213,298.16364845329343,0.08014468318741494,3.604639791036777,89.90000000000002,0.6804466412761747
1306893758.71,6.7587337,4.3054887,16349.147504800001,-0.0,5.4,53.8,2313511.1960795997,-879459.2144944,-1.0,570.9501039368788,58107.078736814015,58107.078736814015,295.60810747574374,0.07725468870217872,3.61965170758389,91.90000000000002,0.6812035201038212
1306893759.13,6.7596932,4.3060067,16366.798424,-0.0,5.1,53.8,2313749.0569796,-879240.2184244,-1.0,570.6700608837995,59987.14752719316,59987.14752719316,296.60373079271517,0.07661290648628938,3.6350578933056323,93.30000000000001,0.6818885157293679
1306893759.55,6.7606456,4.3065213,16382.5136476,-0.0,4.9,53.8,2313985.2774596,-879022.6331156001,-1.0,567.0296628675894,60923.93140032619,60923.93140032619,298.849790240526,0.07766308642222955,3.7099478563712034,91.19999999999999,0.6825069868579768
1306893759.98,6.7616294,4.3070534,16396.9493436,-0.0,4.7,53.8,2314229.07668,-878797.6987252001,-1.0,571.5410215244248,60432.57734085052,60432.57734085052,299.6515595890017,0.07976797162123314,3.7442301411647088,89.6,0.6830652873829112
1306893760.4,6.7625764,4.3075658,16409.3181104,-0.0,4.5,53.8,2314463.8535904,-878581.06486,-1.0,564.0785201182724,61842.414207582966,61842.414207582966,299.5345299576066,0.08027728741184914,3.6529204213121487,86.49999999999999,0.6835680104800241
1306893760.83,6.7635617,4.3080993,16420.768242000002,-0.0,4.3,53.8,2314708.07932,-878355.6055352001,-1.0,572.4399790441265,62258.833519763204,62258.833519763204,298.63677667219685,0.0800234636447242,3.6101369133170045,86.6,0.6840212038308553
1306893761.25,6.7645285,4.3086231,16430.6763788,-0.0,4.2,53.8,2314947.58064,-878134.2472604,-1.0,574.7891658751396,60977.69849110204,60977.69849110204,296.031237370879,0.07933211606130518,3.64583303537398,86.80000000000001,0.6844267047057458
1306893761.68,6.7654995,4.3091494,16439.4362216,-0.0,4.0,53.8,2315188.3286792,-877911.7735,-1.0,565.0922236335704,61310.34765363241,61310.34765363241,294.47788721359734,0.07622757326553777,3.5928787636933,86.4,0.6847910201038212
1306893762.1,6.7664429,4.309661,16446.9493452,-0.0,3.9,53.8,2315422.0885292,-877695.5333356,-1.0,562.2537414957368,61076.55439249415,61076.55439249415,296.60592639028215,0.07575810038557572,3.6342090702721848,84.00000000000001,0.6851156045307678
1306893762.52,6.7674021,4.3101812,16453.675067199998,-0.0,3.8,53.8,2315659.7197704003,-877475.7170556,-1.0,570.7627033592772,62078.18556819505,62078.18556819505,295.1336694074619,0.07693512960847526,3.7262573205984344,83.80000000000001,0.6854054339270932
1306893762.95,6.7683792,4.3107114,16459.646195999998,-0.0,3.7,53.8,2315901.9113792,-877251.7013004,-1.0,568.3496293028193,61425.18088050358,61425.18088050358,296.716354734184,0.07735348747120056,3.636875487971707,82.2,0.6856632641983093
1306893763.37,6.7693495,4.311238,16464.7971148,-0.0,3.6,53.8,2316142.4297595997,-877029.1291147999,-1.0,577.1908773847099,62275.87403858188,62275.87403858188,298.42520886547936,0.07785758070011128,3.6548559941842518,81.6,0.6858919278028588
1306893764.64,6.7722234,4.3127984,16476.2800548,-0.0,3.4,53.8,2316854.3720396,-876369.7787,-1.0,566.1730739525099,61649.19621698261,61649.19621698261,296.16235887193335,0.07760396112263473,3.666145120679719,83.9,0.6861107160793242
1306893874.78,7.022944,4.4483943,16476.2800548,-0.0,3.4,54.1,2378840.29922,-818934.737492,-1.0,568.3130462214998,59562.45982249319,59562.45982249319,295.20730460668494,0.0766663994339748,3.6398480350779994,85.20000000000002,0.6862958210662008
1306894046.29,7.415478,4.6582077,16476.2800548,-0.0,3.4,54.4,2475369.99391,-729495.2989344,-1.0,568.3319046683009,59095.64143323196,59095.64143323196,297.30395403232774,0.07708897510132495,3.641565653303848,86.60000000000002,0.6864520655981343
1306894102.92,7.5456524,4.7271251,16476.2800548,-0.0,3.4,54.5,2507243.7810192,-699962.6536324,-1.0,568.3510072111426,58400.36416988685,58400.36416988685,297.4236842304773,0.07811026647681178,3.679874139874944,87.60000000000001,0.6865815931571894
1306894159.51,7.6760069,4.7958088,16476.2800548,-0.0,3.4,54.6,2539093.3555292,-670452.5148928,-1.0,568.3225300665586,58190.03086050547,58190.03086050547,298.6040112290781,0.07822807319554541,3.6544115816129494,89.6,0.6866880017311177
1306894306.87,8.0165903,4.9737151,16476.2800548,-0.0,3.3,54.6,2621988.27288,-593646.4100728,-1.0,568.0635089373985,59653.2646135813,59653.2646135813,297.87601830804454,0.07945360221023018,3.731508399419079,89.10000000000001,0.6867739706725
1306894328.3,8.0645805,4.998604,16476.2800548,-0.0,3.3,54.9,2633631.7771896,-582858.2535596,-1.0,550.247924341167,60945.42573395834,60945.42573395834,297.732778172793,0.07764339829703557,3.6970692294924548,89.60000000000001,0.6868424089927099
1306894386.0,8.1940495,5.0655297,16476.2800548,-0.0,3.3,55.0,2664998.44486,-553795.5557792,-1.0,550.5183573182112,60973.54177910939,60973.54177910939,299.9130871225035,0.07475879138357787,3.5868035804360585,91.80000000000001,0.6868951539620888
1306894410.62,8.2493571,5.094022,16476.2800548,-0.0,3.1,55.0,2678377.9072304,-541398.8362224,-1.0,550.3539251186835,61013.84109147432,61013.84109147432,300.6020151841915,0.07357630413617694,3.628823127932969,92.30000000000001,0.6869339662980468
1306894410.83,8.2498381,5.0942695,16482.8089264,-0.0,1.4,55.0,2678494.1802,-541291.0934368,-1.0,560.2781036831518,59799.26573514944,59799.26573514944,300.05311820400203,0.07341219477606198,3.6334141809567106,92.0,0.686975993857102
1306894411.04,8.2503034,5.094509,16481.857482800002,-0.0,-1.2,55.0,2678606.7458204003,-541186.7955332,-1.0,543.4898260272888,56536.499967185504,56536.499967185504,301.6832270127122,0.07318574366130223,3.5163130720172346,90.4,0.6869890078553521
1306894411.67,8.2517371,5.0952465,16467.848296,-0.0,-4.2,55.0,2678953.4978,-540865.7653392,-1.0,556.8178425703513,57032.56135773179,57032.56135773179,300.5378559497937,0.07272803909492731,3.514713354850805,88.0,0.686969333752115
1306894411.88,8.2521976,5.0954832,16459.3837288,-0.0,-4.7,55.0,2679064.8495095996,-540762.6485380001,-1.0,538.688799777656,56800.55848985763,56800.55848985763,299.60259141690165,0.07271102054523372,3.585085245708844,88.7,0.68692990899271
1306894412.09,8.2526646,5.0957232,16449.0162744,-0.0,-5.0,55.0,2679177.8416392,-540658.1865924,-1.0,545.8578620761497,61055.19903993617,61055.19903993617,300.136763061152,0.07132432488482265,3.492457753712088,88.1,0.6868662935071457
1306894412.3,8.2531406,5.0959675,16436.7131244,-0.0,-5.3,55.0,2679292.8678896,-540551.7233344,-1.0,555.5153242638783,66082.96255499344,66082.96255499344,299.52174287096227,0.0717828253166388,3.468303104230628,85.3,0.6867739706725001
1306894413.14,8.2550244,5.0969328,16374.016272,-0.0,-6.0,55.0,2679748.4781404003,-540131.1852632001,-1.0,550.7919115676605,67594.30127265453,67594.30127265453,299.6525903682507,0.0740248079324771,3.3893352704153923,83.60000000000001,0.6865353551869359
1306894413.36,8.2555142,5.0971831,16354.757741200001,-0.0,-6.1,55.0,2679867.0148895998,-540022.0645248,-1.0,547.7193297972908,66652.3043136186,66652.3043136186,299.5923206984131,0.07660842726279306,3.363874405240236,83.4,0.6862518031309428
1306894413.78,8.256463,5.0976673,16314.731493199999,-0.0,-6.3,55.0,2680096.6736895996,-539811.0080876,-1.0,555.2490632865808,63340.31639146575,63340.31639146575,298.1802598188086,0.07955869872289313,3.3513410356591833,81.2,0.6858748564992717
1306894414.41,8.2578862,5.0983915,16249.409968799999,-0.0,-6.6,55.0,2680441.1618895996,-539495.1288123999,-1.0,555.3984025512252,56740.75010672144,56740.75010672144,297.76331477397355,0.08129190281488041,3.3390046056564398,80.3,0.6853454929822114
1306894415.88,8.2612214,5.1000778,16080.0858164,-0.0,-7.0,55.0,2681248.8718892,-538758.7442744,-1.0,557.4674846232291,51945.06086096331,51945.06086096331,295.9665543562155,0.08140597178835768,3.2468576343188125,82.7,0.6844058057556147
1306894416.51,8.2626507,5.1007957,16003.3797772,-0.0,-7.1,55.0,2681595.1973595996,-538444.89912,-1.0,556.887996560655,52794.82325198803,52794.82325198803,296.5136425988177,0.07839653637590967,3.241364770328496,82.2,0.6832893578116077
1306894417.35,8.2645573,5.101749,15898.852214800001,-0.0,-7.2,55.0,2682057.5989492,-538027.8387392,-1.0,556.7083684729157,51654.58220701743,51654.58220701743,296.0921776888912,0.07899207286328436,3.2119039073854196,85.0,0.6819617003312927
1306894418.2,8.2665295,5.1027298,15789.1409252,-0.0,-7.3,55.0,2682535.9782296,-537598.278358,-1.0,567.2603928407851,54694.483573810205,54694.483573810205,297.79790804268373,0.07731702535346825,3.1549205071623905,82.6,0.6803978005062707
1306894419.04,8.2684493,5.1036797,15681.4637564,-0.0,-7.3,55.0,2683001.8575096,-537181.9725704,-1.0,558.611579311762,56384.517921679115,56384.517921679115,298.2706325451307,0.07695423759272002,3.2421793004088078,83.1,0.6786068446882481
1306894421.35,8.2737793,5.106291,15381.365321599998,-0.0,-7.2,54.9,2684296.7722492,-536035.5486492,-1.0,561.9301500322903,56408.20816794729,56408.20816794729,299.4626614629778,0.07715329560738533,3.3285667203214153,86.1,0.6761443665605139
1306894423.03,8.2775952,5.1081374,15167.159278,-0.0,-7.1,54.9,2685224.82346,-535223.0486232,-1.0,551.748631037145,56665.938150458285,56665.938150458285,300.0940996438638,0.07549075411359003,3.3949908796808876,86.1,0.6733283669979595
1306894424.71,8.2813693,5.1099459,14956.52935,-0.0,-7.0,54.9,2686143.45866,-534425.9357368,-1.0,544.4864886991472,57878.31817422327,57878.31817422327,298.1503484242048,0.07499824202588305,3.4994403410808332,85.8,0.6700658341895606
1306894427.05,8.2865468,5.1124003,14669.7511256,-0.0,-7.0,54.8,2687404.94164,-533342.0118176,-1.0,535.1541488284415,58756.84784168716,58756.84784168716,298.3608471911875,0.07489777889621996,3.544915274438665,86.10000000000001,0.6662275467879857
1306894429.78,8.2924825,5.1151802,14343.996522000001,-0.0,-6.7,54.8,2688852.8091404,-532111.5983924,-1.0,524.6954856557309,59518.523637956554,59518.523637956554,297.37802817841487,0.0746185916880734,3.555717075819177,89.1,0.6617815822210567
1306894430.83,8.294737,5.1162276,14221.030638799999,-0.0,-6.7,54.7,2689402.9732,-531647.3595323999,-1.0,517.3446855388456,59490.24967982934,59490.24967982934,297.82974978410573,0.0755103281646803,3.616068913768636,86.39999999999999,0.6574437869454658
1306894432.73,8.2987931,5.1181012,14000.7878496,-0.0,-6.7,54.7,2690393.5900295996,-530815.9290596,-1.0,513.8330990654821,59128.03508545997,59128.03508545997,298.2067986450326,0.0761895160232877,3.655695299597777,85.2,0.6527710725972594
1306894435.04,8.3036263,5.1203181,13739.797027600001,-0.0,-6.4,54.7,2691574.4955792,-529830.9552748,-1.0,503.3544178846173,58036.360327874005,58036.360327874005,300.177467544438,0.07819898885176531,3.760132281013174,83.6,0.6477332773216689
1306894436.96,8.3075881,5.122124,13526.8705116,-0.0,-6.3,54.5,2692543.1635892,-529027.5431756,-1.0,496.1636525160497,56049.274809509945,56049.274809509945,297.53034369849365,0.07913245890754134,3.8118822954123566,86.70000000000002,0.6424546465255184
1306894438.23,8.3101852,5.1233031,13387.7300872,-0.0,-6.3,54.5,2693178.2029795996,-528502.6087756,-1.0,491.45750595884,54317.82298170883,54317.82298170883,296.50793219363254,0.07844779602541228,3.852111450314913,86.50000000000001,0.6371026014686505
1306894438.65,8.3110352,5.1236883,13342.2576448,-0.0,-6.2,54.5,2693386.1098104003,-528331.0536519999,-1.0,486.6128853958756,52358.10450243221,52358.10450243221,296.1858430052562,0.07971261964719,3.8144072966853306,83.7,0.6323446837083706
1306894439.7,8.3131642,5.1246515,13228.4781136,-0.0,-6.2,54.4,2693906.74631,-527901.91978,-1.0,487.1326997436246,50894.56470368151,50894.56470368151,296.44523070400004,0.07833195452991179,3.737154774375545,84.2,0.6278210944695254
1306894440.54,8.3148637,5.125419,13137.7628876,-0.0,-6.1,54.4,2694322.59278,-527559.8265932,-1.0,486.03458851356345,49508.32751486518,49508.32751486518,298.5455087026712,0.07580419961842999,3.6930763817577428,87.2,0.6235773061930598
1306894440.75,8.3152726,5.1256035,13115.945301599999,-0.0,-6.1,54.4,2694422.6584,-527477.6087428001,-1.0,469.2519476733475,48257.404985618545,48257.404985618545,299.01665855555103,0.07435066528507757,3.7163519676113896,90.0,0.6199517593864107
1306894442.23,8.3182209,5.1269319,12958.8586824,-0.0,-6.1,54.3,2695144.0494992,-526885.3186976,-1.0,478.8406199755862,50272.24081925467,50272.24081925467,299.8275124338976,0.07445789802236964,3.7521209338765895,87.49999999999999,0.6167197711974343
1306894442.65,8.3190589,5.1273089,12914.2720668,-0.0,-6.0,54.3,2695349.1019992,-526717.1756476001,-1.0,479.2941504496773,51876.05478046559,51876.05478046559,301.7560420050226,0.07234017595517417,3.6926530546695053,89.7,0.613670667960339
1306894446.65,8.326872,5.1308147,12499.18019,-0.0,-5.8,54.1,2697261.40521,-525152.6742852,-1.0,469.8163506147719,53268.87252496692,53268.87252496692,299.8274016271434,0.07402014421176557,3.756548728616013,93.20000000000002,0.6101669168667256
1306894448.76,8.3309124,5.1326228,12284.9085296,-0.0,-5.7,54.0,2698250.3816195996,-524345.325178,-1.0,461.0696895081649,54947.193112125366,54947.193112125366,300.24238789730504,0.07334898258960725,3.687113074574135,93.0,0.6067721771466906
1306894449.39,8.3321128,5.1331596,12221.2602336,-0.0,-5.7,54.0,2698544.21365,-524105.62700760004,-1.0,458.8867420853763,53602.54572010515,53602.54572010515,302.5850575996005,0.07348632571536723,3.7405427701490543,93.39999999999999,0.6037257532621761
1306894451.3,8.3357068,5.1347658,12030.7746632,-0.0,-5.7,54.0,2699424.1021296,-523388.140108,-1.0,453.71948202637174,49545.65531585739,49545.65531585739,302.983164920486,0.07513958257005687,3.733194940310404,94.5,0.6005595240408289
1306894455.36,8.3432212,5.1381228,11632.4150704,-0.0,-5.4,54.0,2701263.4066504003,-521888.4353356,-1.0,446.9185412914262,46250.16057007141,46250.16057007141,302.52482033810423,0.07398046156016466,3.7875075886332628,97.19999999999999,0.5965698914948971
1306894456.66,8.345591,5.1391818,11506.693281599999,-0.0,-5.4,53.6,2701843.5247792,-521415.33820760006,-1.0,440.92859805870324,42812.982001954624,42812.982001954624,303.12397263052696,0.07548264948976423,3.7661003192579123,96.7,0.5925523936821238
1306894458.37,8.3486769,5.1405613,11342.8809404,-0.0,-5.4,53.5,2702598.7085304,-520799.06522199995,-1.0,436.9486714925159,39319.01689736784,39319.01689736784,301.1210030095831,0.0776085195216164,3.793440903412916,97.0,0.5883643359393416
1306894458.59,8.3490774,5.1407404,11321.621097199999,-0.0,-5.4,53.5,2702696.5431792,-520719.04553440004,-1.0,440.08740980845704,38797.633363482986,38797.633363482986,301.4530697243933,0.07848511625864954,3.8217066676752904,94.5,0.5841775795963844
1306894463.02,8.3569287,5.1442561,10904.035782,-0.0,-5.1,53.5,2704617.6718495996,-519148.7370852,-1.0,430.1651313572631,37269.02935766701,37269.02935766701,301.97848585797357,0.07802109066037818,3.8600999717884776,97.6,0.5793829929822113
1306894463.65,8.3580244,5.1447476,10845.63683,-0.0,-5.1,53.2,2704885.6836692,-518929.28169760003,-1.0,423.1462749070003,35705.909059812,35705.909059812,301.01791552622524,0.08073601566355659,3.9489974447798604,95.9,0.574556177584136
1306894465.12,8.3605841,5.1458966,10709.121077599999,-0.0,-5.1,53.1,2705511.7007496,-518416.2567468,-1.0,423.6883197140128,34473.24717781369,34473.24717781369,302.56847731630876,0.08143590494123487,3.9119645795074156,96.10000000000001,0.5703793731221937
1306894465.33,8.3609491,5.1460606,10689.632888,-0.0,-5.1,53.1,2705600.9067892,-518343.02839800005,-1.0,423.0310750185724,33199.73220671708,33199.73220671708,300.41424642182795,0.0798275061931404,3.8888048365893892,97.10000000000001,0.5666570634109077
1306894465.75,8.3616727,5.1463858,10651.017401199999,-0.0,-5.0,53.1,2705777.8424904,-518197.851228,-1.0,419.81484771584377,32699.888379796834,32699.888379796834,299.1286913488547,0.07937887836021967,3.848190034142324,95.2,0.5629931635858858
1306894469.75,8.3684945,5.1494577,10285.9583344,-0.0,-5.0,53.1,2707445.7559296,-516826.9194256,-1.0,416.30098599973013,33077.78287368141,33077.78287368141,299.76570739973766,0.07717793759591948,3.7674565391111727,93.40000000000002,0.558921925615632
1306894469.96,8.3688558,5.1496208,10266.56857,-0.0,-5.0,52.8,2707534.1417592,-516754.18320280005,-1.0,420.0026780808122,33150.33235775077,33150.33235775077,298.98356364479,0.07539255754021829,3.695453517406964,93.80000000000001,0.5557349505500152
1306894471.43,8.371326,5.1507367,10133.9570172,-0.0,-5.0,52.7,2708137.8163192,-516256.414158,-1.0,411.2219776598388,32482.830281365423,32482.830281365423,298.32581709448283,0.0771451110354247,3.774831406093771,96.80000000000003,0.5525318993689129
1306894472.9,8.3737855,5.15185,10001.64074,-0.0,-5.0,52.6,2708738.8005904,-515759.99025760003,-1.0,409.89382383221226,32032.124588303337,32032.124588303337,298.35047281257545,0.07640081393492702,3.7090513002574865,96.5,0.5494023390014589
1306894474.16,8.3758858,5.1528033,9888.3205264,-0.0,-5.0,52.5,2709251.8583496,-515335.0886692,-1.0,408.8756948879716,30735.605160889467,30735.605160889467,299.13190667073155,0.07322567214724057,3.740219996588236,96.10000000000001,0.5460579711099453
1306894475.43,8.3780066,5.1537698,9773.458317999999,-0.0,-5.1,52.5,2709769.60771,-514904.6096528,-1.0,409.990693796684,29281.24713811879,29281.24713811879,297.38235599791034,0.07402990512268437,3.7200902345525164,95.0,0.5434199571116951
1306894475.64,8.3783626,5.1539325,9754.1341704,-0.0,-5.1,52.4,2709856.54997,-514832.16870559996,-1.0,416.02903448529185,28800.673648470638,28800.673648470638,298.4399993281383,0.07389900279600706,3.6940789198982977,95.30000000000001,0.5408731176541273
1306894476.06,8.379073,5.1542576,9715.4858752,-0.0,-5.2,52.4,2710030.0407892,-514687.45085320005,-1.0,415.39777310421306,27769.96320801544,27769.96320801544,297.553369215536,0.07100862434840577,3.720875142581232,95.2,0.5385546355893854
1306894476.69,8.3801353,5.1547448,9657.5790492,-0.0,-5.3,52.4,2710289.2271492,-514470.71856280003,-1.0,414.33549459112373,26833.856667599553,26833.856667599553,297.51027618893687,0.072661946780876,3.790778212585926,94.10000000000001,0.5361465100425786
1306894478.16,8.3826367,5.1558967,9520.702404399999,-0.0,-5.3,52.4,2710899.2337304,-513958.5466304,-1.0,418.2558262597771,26320.326297154475,26320.326297154475,298.05788016807014,0.07134518826925808,3.766629275641396,93.3,0.5335091084677756
1306894479.45,8.3848341,5.1569141,9399.8362588,-0.0,-5.3,52.4,2711435.0605192,-513506.67653719994,-1.0,419.40392202933816,25902.332332823342,25902.332332823342,297.641619112879,0.07260249459355844,3.7241573924184666,96.70000000000002,0.5314414903575393
1306894480.08,8.3859155,5.1574166,9340.1249708,-0.0,-5.7,52.4,2711698.5447795996,-513283.6122256,-1.0,422.6864517962927,26024.256041379045,26024.256041379045,299.6812041481438,0.07494554188042152,3.8090289732736364,95.7,0.5292797886952472
1306894480.71,8.3870052,5.1579241,9279.8231316,-0.0,-5.7,52.4,2711963.8663104,-513058.3825596,-1.0,425.8137586511063,27199.695560072672,27199.695560072672,299.87173236114603,0.07347165525579115,3.80377471766906,93.10000000000001,0.5272868096926224
1306894481.97,8.3891881,5.1589446,9158.5960936,-0.0,-5.7,52.4,2712495.5920492,-512605.88910679996,-1.0,427.04821709750007,28180.5920214032,28180.5920214032,300.83238797080014,0.0733177854384352,3.874643181209537,93.50000000000001,0.5253197055806365
1306894483.24,8.3913904,5.159978,9035.8270608,-0.0,-5.7,52.4,2713031.7797304,-512147.88384280005,-1.0,427.9153099055943,29242.801024435183,29242.801024435183,300.5306711865282,0.076673375996047,3.8822780440203624,94.30000000000001,0.523330554224556
1306894483.87,8.3924723,5.1604865,8975.426796400001,-0.0,-5.8,52.4,2713295.0671404,-511922.58856,-1.0,424.36278804527973,30396.975733754254,30396.975733754254,300.6640758276138,0.07719645767864874,3.808804184314192,93.40000000000002,0.5214684807337424
1306894484.31,8.3932272,5.1608417,8933.235193999999,-0.0,-5.8,52.4,2713478.7941804,-511765.27228199993,-1.0,424.1618088406885,30915.794645516027,30915.794645516027,297.7480720397519,0.07606281746754538,3.799482649450109,93.60000000000002,0.5195530498501028
1306894484.73,8.3939459,5.16118,8893.044904,-0.0,-5.8,51.7,2713653.4989104,-511615.37070239993,-1.0,423.0879078944826,31789.62587214933,31789.62587214933,298.37407840863204,0.078909017108078,3.7236234643896404,90.9,0.5176340209787117
1306894486.62,8.3971665,5.1626991,8712.5658956,-0.0,-5.8,51.7,2714437.2259696,-510942.7328856,-1.0,421.9695931082862,32865.60497502807,32865.60497502807,298.8522830452681,0.07621060529258407,3.623040213772348,91.30000000000001,0.5154289903575393
1306894487.04,8.3978903,5.1630411,8671.9490964,-0.0,-5.7,51.5,2714613.1446104003,-510791.354928,-1.0,426.25066724620046,33757.430956714816,33757.430956714816,299.63034627399105,0.07927341545676903,3.573678761342461,90.2,0.5134485660355795
1306894487.81,8.3991778,5.1636502,8599.573766,-0.0,-5.7,51.5,2714926.26798,-510521.7683052,-1.0,415.26037422643464,33967.18504134657,33967.18504134657,297.84707806888974,0.08096962751526554,3.6045962096859725,90.20000000000002,0.5115812869454658
1306894488.02,8.399534,5.1638188,8579.560642,-0.0,-5.7,51.4,2715013.0133896,-510447.1291952,-1.0,420.97504285956967,34154.86648588765,34154.86648588765,297.7693674264768,0.07836901689970188,3.531406647772264,89.3,0.5098066369017213
1306894490.12,8.4030306,5.1654778,8382.447774799999,-0.0,-5.7,51.4,2715862.9478,-509713.20528719993,-1.0,414.04595839244405,33018.67280469415,33018.67280469415,297.37441704982996,0.07637955751514797,3.471502114508699,90.4,0.507712761136192
1306894490.33,8.4033788,5.1656434,8362.7955432,-0.0,-5.7,51.2,2715947.6262804,-509640.00974679994,-1.0,412.8614413304769,31810.675922392496,31810.675922392496,297.76334334529605,0.07474904672917222,3.409834904074061,88.60000000000001,0.5058558932446785
1306894490.54,8.4037315,5.1658111,8342.848036,-0.0,-5.6,51.2,2716033.3546296,-509565.8299544,-1.0,417.6192617786098,31058.957977526105,31058.957977526105,296.14415735379094,0.07508727978519608,3.316990698606424,90.7,0.5042389422385541
1306894491.17,8.4047722,5.1663066,8283.9897664,-0.0,-5.6,51.2,2716286.3730104,-509346.76826760004,-1.0,411.6878439500068,29550.581086306265,29550.581086306265,297.38228183194576,0.0739088285431305,3.2942493408769358,91.2,0.5026255892201815
1306894492.23,8.4065132,5.1671368,8185.367716000001,-0.0,-5.6,51.2,2716709.40452,-508979.7735052,-1.0,409.74199294580126,28883.971622993045,28883.971622993045,298.32899146933414,0.07419518269834925,3.263307909011827,92.30000000000001,0.5008805651606889
1306894493.49,8.4085728,5.1681214,8068.40577,-0.0,-5.6,50.9,2717209.73262,-508544.7669296,-1.0,408.3134428056779,29234.220829634454,29234.220829634454,297.41339490112284,0.07206100293958233,3.3603870450421884,91.30000000000001,0.49895640724292867
1306894494.12,8.4096062,5.1686164,8009.5803088,-0.0,-5.6,50.9,2717460.5200296,-508326.13175199996,-1.0,409.70802304853356,29360.55264171415,29360.55264171415,296.79841745165635,0.07219240167883244,3.4026641228622827,90.8,0.4973161075928849
1306894494.54,8.4102769,5.168938,7971.3913311999995,-0.0,-5.6,50.8,2717623.5449692,-508184.07138,-1.0,400.5501907775816,29715.88643599474,29715.88643599474,294.3992361044679,0.0706026150333927,3.4663045667996077,92.0,0.4956814728597266
1306894495.19,8.4113349,5.169446,7911.0238752000005,-0.0,-5.6,50.8,2717880.4675495997,-507959.79315760004,-1.0,407.3771514101557,31708.124151734915,31708.124151734915,296.8853762236954,0.06734324805231522,3.548825334000735,91.2,0.4940748564992717
1306894496.46,8.4133694,5.1704249,7794.7180972,-0.0,-5.6,50.6,2718374.2339696,-507527.7065296,-1.0,401.8877966914701,31982.858026360707,31982.858026360707,296.0822117296986,0.06827456638141634,3.6124232899862783,92.9,0.49224355728667313
1306894497.09,8.4143846,5.1709145,7736.5816124,-0.0,-5.6,50.6,2718620.49382,-507311.6632156,-1.0,404.2542488203096,32406.724878248446,32406.724878248446,297.6820063043523,0.06987826999094053,3.5954948383210814,90.8,0.4907365362892979
1306894497.3,8.41471,5.1710716,7717.9136328,-0.0,-5.6,50.5,2718699.4308304,-507242.3718748,-1.0,390.6149066049425,32928.424965457154,32928.424965457154,298.11016805060575,0.06995439622086325,3.5304282979222603,91.39999999999999,0.48923181187984904
1306894498.99,8.4173925,5.1723695,7563.7141528,-0.0,-5.6,50.5,2719350.2838696,-506670.0293368,-1.0,399.3924250196283,34148.85869352723,34148.85869352723,298.5515499196265,0.06698158666484982,3.544531010264943,87.69999999999999,0.4874138328772243
1306894499.86,8.4187595,5.1730331,7484.875567599999,-0.0,-5.6,50.5,2719681.6487096,-506377.5752592,-1.0,396.14118944139017,35171.54135561214,35171.54135561214,297.54640433261113,0.06583819034377857,3.5411203518468835,86.0,0.48554923313969156
1306894500.07,8.4191022,5.1731997,7465.0921024,-0.0,-5.6,50.2,2719764.8836204,-506304.15006,-1.0,410.2782205632594,36583.15213831543,36583.15213831543,296.6462057621964,0.06435322082591283,3.5509537153907713,86.10000000000001,0.4838685900950721
1306894500.7,8.4200827,5.1736769,7408.3991872,-0.0,-5.4,50.2,2720002.5476699998,-506093.91383280006,-1.0,393.20081983181166,35709.28732904638,35709.28732904638,295.9678805859167,0.06355606108349515,3.444786905658426,87.60000000000001,0.48232857478448593
1306894501.12,8.420743,5.1739987,7370.1774012,-0.0,-5.4,50.1,2720162.48862,-505952.1815448,-1.0,396.7943544700132,33676.7184032118,33676.7184032118,297.8058049536975,0.06686328869441578,3.4690250446484616,88.60000000000001,0.48083663471449467
1306894503.67,8.4247026,5.1759365,7139.960858400001,-0.0,-5.4,49.8,2721121.9374696,-505099.19595320005,-1.0,393.17213918076516,30138.53415615205,30138.53415615205,299.1349206503088,0.06795284381693555,3.5315317366846877,87.39999999999999,0.4788966303400415
1306894504.51,8.4259881,5.1765688,7064.8624308,-0.0,-5.4,49.7,2721433.1907604,-504821.1119548,-1.0,388.7613593570753,26403.91544015991,26403.91544015991,298.78094221778474,0.0696581556195144,3.487302870376026,87.50000000000001,0.4769222536996216
1306894504.94,8.4266557,5.1768978,7025.7876264,-0.0,-5.4,49.7,2721594.7721304,-504676.4925276,-1.0,393.91579934554795,25131.915207177644,25131.915207177644,299.52638046128806,0.06933297386633837,3.3840933571757454,85.50000000000001,0.4751280826585017
1306894505.15,8.4269713,5.1770535,7007.2836888,-0.0,-5.4,49.6,2721671.0516604003,-504608.0542052,-1.0,382.74195132800895,24739.644016761504,24739.644016761504,297.5139909589083,0.0678726883626814,3.478135541846355,86.10000000000001,0.47342638755788924
1306894505.57,8.4276154,5.1773715,6969.5212204,-0.0,-5.4,49.6,2721827.1212192,-504468.25761280005,-1.0,390.18737433694247,27537.19063663257,27537.19063663257,297.69452537717467,0.06788722966779026,3.5895263314809043,84.39999999999999,0.4716801386515026
1306894505.78,8.4279392,5.1775315,6950.492348400001,-0.3,-5.4,49.6,2721905.43487,-504397.9164032,-1.0,391.913825503833,29805.390498939723,29805.390498939723,297.89718258905134,0.06834968076297908,3.541091386949538,87.9,0.47024928782035647
1306894507.27,8.4302041,5.178654,6817.1590108,-0.3,-5.4,49.6,2722453.33515,-503904.871768,-1.0,387.41335050389415,31748.30852905347,31748.30852905347,299.5156603934514,0.06808156516924094,3.592311698768666,88.60000000000001,0.4686912825710126
1306894508.96,8.4327608,5.1799278,6665.8794784,-0.3,-5.4,49.1,2723071.5766395996,-503345.816632,-1.0,386.50794909526496,31755.806175259593,31755.806175259593,300.11093175303296,0.06953396791096969,3.5216696138059587,89.10000000000001,0.46682645317468713
1306894510.43,8.4349549,5.181027,6535.3020464,-0.3,-5.4,48.9,2723601.62915,-502863.82842760003,-1.0,329.92273827546234,31370.612585328814,31370.612585328814,301.5516029225442,0.06971119895623694,3.570793702259359,87.9,0.46478922657801164
1306894510.85,8.4355916,5.1813471,6497.3099192,-0.3,-5.4,48.9,2723755.4349292,-502723.5725176,-1.0,335.603447184142,29134.118745254033,29134.118745254033,301.8738193478556,0.0699393265974149,3.499612333399107,85.10000000000001,0.46275253585185255
1306894511.27,8.4362075,5.1816572,6460.466086,-0.3,-5.4,48.8,2723904.28664,-502587.6801248,-1.0,324.739976774051,26934.756155403666,26934.756155403666,303.0232083688702,0.07067456891801764,3.4252109269319337,87.19999999999999,0.46116704810032144
1306894512.53,8.4380718,5.1825989,6348.6550588,-0.3,-5.4,48.6,2724354.3850796,-502175.3113452,-1.0,327.8948733700832,25250.768961327074,25250.768961327074,302.7634408774803,0.06900079001621644,3.490826639987716,86.6,0.4594958976191317
1306894512.95,8.4387006,5.1829175,6310.7941652,-0.3,-5.4,48.6,2724506.1239295998,-502035.8428368,-1.0,332.20168843034315,22607.53042635307,22607.53042635307,301.06205631802095,0.06844516874782113,3.5817037267369565,87.3,0.4578275795963844
1306894513.16,8.4389998,5.1830693,6292.7823536,-0.3,-5.4,48.5,2724578.3024096,-501969.4058268,-1.0,315.88275197338726,21511.745807113515,21511.745807113515,301.59134509530173,0.07163539974626246,3.525752725760844,88.80000000000001,0.4561604098676005
1306894513.79,8.4399308,5.1835426,6236.5815644,-0.3,-5.4,48.4,2724802.8430992,-501762.38482280006,-1.0,328.08625868580316,22736.48779949601,22736.48779949601,300.15837640291176,0.0733180424727385,3.549097456749862,87.80000000000001,0.45445021739166
1306894514.21,8.4405455,5.1838557,6199.4096472,-0.3,-5.4,48.4,2724951.0714504,-501625.4753696,-1.0,325.07105502046477,23283.11327358171,23283.11327358171,300.03257111452405,0.07488466570358247,3.562234416653409,87.30000000000001,0.4526976911449408
1306894515.05,8.4417859,5.1844892,6124.179986,-0.3,-5.4,48.2,2725250.0543996,-501348.5396652,-1.0,328.33219131513977,23870.286912953256,23870.286912953256,298.30418317997504,0.077973088770929,3.5335178120166026,88.10000000000002,0.4510807401388167
1306894515.47,8.4423896,5.1847983,6087.4673864,-0.3,-5.4,48.2,2725395.6252704,-501213.46748239995,-1.0,319.79201606131556,25060.712965928476,25060.712965928476,299.4009375756731,0.07667585363322468,3.583766986570538,87.00000000000001,0.4497311119673381
1306894516.1,8.4433031,5.1852673,6031.7915316,-0.3,-5.4,48.2,2725615.8680596,-501008.61183280003,-1.0,322.9754646924827,25046.917018473392,25046.917018473392,299.52851609220045,0.07880275068584258,3.595135030735666,87.4,0.4485562541370669
1306894516.31,8.4436108,5.1854255,6012.9923184,-0.3,-5.4,48.0,2725689.88381,-500939.5173423999,-1.0,326.236044611037,23009.6473298948,23009.6473298948,297.6854236447278,0.07655601535487237,3.6166793673307875,88.4,0.4474261797713626
1306894516.73,8.4442225,5.1857405,5975.5907424,-0.3,-5.4,48.0,2725837.3247595998,-500802.01733800006,-1.0,324.7528955944245,21631.593182271357,21631.593182271357,296.1293242627246,0.07342105861295124,3.686562520710892,86.9,0.44629480400583327
1306894517.57,8.4454362,5.1863675,5901.1484828,-0.3,-5.4,47.8,2726129.51637,-500528.4280904,-1.0,322.3233075797866,20177.359759199,20177.359759199,296.5042025214103,0.07362385358252849,3.6819486912366277,85.8,0.4452506220285805
1306894518.42,8.4466534,5.186999,5826.2140972,-0.3,-5.4,47.8,2726422.5281904,-500253.0999976,-1.0,319.88407461149336,18126.60744578603,18126.60744578603,297.5440587150939,0.07509767374325356,3.5789869740121536,86.70000000000002,0.44411993523942905
1306894518.84,8.4472543,5.1873118,5789.0749884,-0.3,-5.4,47.6,2726567.1148092,-500116.7810956,-1.0,319.95329513506056,17808.125076976783,17808.125076976783,297.3888529734354,0.07494546164594634,3.6510534659714104,84.5,0.44294461809157254
1306894519.27,8.447874,5.187635,5750.7219688,-0.3,-5.4,47.5,2726715.96652,-499975.96744280006,-1.0,322.2748434777912,17485.272174314854,17485.272174314854,299.31614385064665,0.07545674861844814,3.588678571519588,87.9,0.44181094573811674
1306894519.9,8.4487673,5.1881024,5695.2429644,-0.3,-5.4,47.4,2726930.86154,-499772.45693760004,-1.0,317.6220074156631,17513.381771609707,17513.381771609707,298.1351833017866,0.0750263815083049,3.680513590253266,87.50000000000001,0.44063455684922787
1306894520.53,8.4496677,5.1885751,5639.6327264,-0.3,-3.3,47.3,2727147.2001296,-499566.68265280005,-1.0,320.36206465137343,17452.146760537045,17452.146760537045,298.6539715618057,0.07244685604401678,3.6956757330844816,87.40000000000002,0.43950394661300735
1306894520.95,8.4502707,5.1888928,5603.838761999999,-0.3,-3.0,47.2,2727292.1804492,-499428.49367199995,-1.0,321.9299700594631,17653.575091215753,17653.575091215753,299.3595634656603,0.07170575367564944,3.7615523531007073,87.4,0.43837547985885167
1306894521.16,8.4505611,5.1890461,5587.0736696,-0.3,-3.0,47.2,2727361.8982992,-499361.8270032,-1.0,309.50650342058054,17532.9471290153,17532.9471290153,297.8360416185779,0.07157488571448423,3.72163538862531,90.4,0.43733780488072393
1306894521.37,8.4508568,5.1892023,5570.2429604,-0.3,-3.1,47.2,2727432.83006,-499293.91361519997,-1.0,315.0746491977871,18638.157392701556,18638.157392701556,297.5336322862785,0.07122546387545997,3.7623123280495734,93.2,0.43630472307844925
1306894521.79,8.4514499,5.1895164,5537.1064764,-0.3,-3.1,47.2,2727575.3497495996,-499157.46347960003,-1.0,316.37206796327285,19046.624314508077,19046.624314508077,297.0338479055099,0.07234944089640752,3.687625934690346,94.00000000000001,0.4352815931571894
1306894522.21,8.4520484,5.1898341,5504.2980764,-0.3,-3.1,47.2,2727718.8864996,-499019.40573239996,-1.0,319.1785005070445,19366.758009925717,19366.758009925717,294.94831366492775,0.0720098624806703,3.643353438205475,95.60000000000001,0.4343556089052209
1306894523.06,8.4532372,5.1904676,5440.3545048,-0.3,-2.9,46.8,2728004.1227292,-498744.34010679997,-1.0,313.46301213488687,19819.956748136447,19819.956748136447,293.523985914863,0.07225742008196162,3.7092609990447007,93.6,0.4334552698850983
1306894523.48,8.4538204,5.1907797,5409.5474171999995,-0.3,-2.7,46.8,2728144.1489804,-498608.93984,-1.0,311.6032575447439,19037.997731165677,19037.997731165677,293.8945791153945,0.06974525031399605,3.600039624343167,97.5,0.4325697055806364
1306894523.69,8.4541155,5.1909379,5394.061852399999,-0.3,-2.7,46.7,2728214.9166992,-498540.30466719996,-1.0,315.42436249993386,17473.171296306486,17473.171296306486,291.9554149911116,0.06704155226196987,3.548164961822884,94.50000000000001,0.4317374986690004
1306894524.54,8.4552922,5.191571,5333.235078799999,-0.3,-2.3,46.5,2728496.8392804,-498265.7967844,-1.0,310.76749416303727,16479.86207112744,16479.86207112744,292.5755032464215,0.06569151460421878,3.5040010177250966,93.60000000000001,0.43089281362963033
1306894524.96,8.4558727,5.1918847,5303.7403272,-0.3,-2.2,46.5,2728635.8812796,-498129.9372,-1.0,310.5336832205965,15773.178773083126,15773.178773083126,292.66724855243217,0.06565295987956725,3.5654068329241415,95.2,0.43010906472324356
1306894525.17,8.4561642,5.1920425,5289.0421639999995,-0.3,-2.1,46.4,2728705.79598,-498061.5644944,-1.0,312.3912271390748,14951.893048766311,14951.893048766311,292.33998882781145,0.0666491859661522,3.5045381400277558,94.0,0.42937453935141506
1306894525.38,8.4564456,5.1921951,5274.934552,-0.3,-2.0,46.4,2728773.0532,-497995.48837679997,-1.0,300.82881437855724,15118.291242917725,15118.291242917725,292.8760890572745,0.06630877640498341,3.6063443498418164,93.7,0.42864621476698817
1306894525.8,8.4570273,5.1925113,5246.0303516,-0.3,-1.9,46.4,2728912.2920496,-497858.61173199996,-1.0,311.6838970517846,16296.945473026017,16296.945473026017,293.2964470041528,0.0689096540039392,3.5502094804980904,93.30000000000001,0.42788971870399606
1306894526.22,8.4575918,5.1928191,5218.2744452,-0.3,-1.7,46.4,2729047.4298492,-497725.4752448,-1.0,302.50092330079667,17031.295683366727,17031.295683366727,295.01246304196604,0.06954393042165938,3.6172153895553802,93.60000000000001,0.4271457773216688
1306894527.07,8.4587508,5.1934539,5162.3033148,-0.3,-1.4,46.0,2729324.6608292,-497451.0001704,-1.0,307.3237760751909,18002.75726138456,18002.75726138456,297.1293175201628,0.07109306137776353,3.58053683989035,92.4,0.42634778957013775
1306894527.49,8.4593125,5.193763,5135.6300856,-0.3,-1.4,45.9,2729458.74876,-497317.40436559997,-1.0,301.4403592982557,19230.2258985224,19230.2258985224,297.5480266985876,0.06988195690537824,3.5080627479411,91.8,0.4256367659480905
1306894527.91,8.4598759,5.1940741,5109.1537068,-0.3,-1.1,45.8,2729593.4600504003,-497183.11958440003,-1.0,302.8758689097397,19725.918189530184,19725.918189530184,298.28007219777487,0.06940112573616088,3.5672075873353584,90.8,0.42493584731291995
1306894528.54,8.4607205,5.1945424,5070.046093999999,-0.3,-0.9,45.8,2729795.03486,-496981.01984039997,-1.0,302.85471316708555,18902.19605317143,18902.19605317143,299.39078017268776,0.07211301671853644,3.6093821427909543,90.80000000000001,0.424179810567513
1306894528.97,8.461291,5.1948601,5044.0290328,-0.3,-0.7,45.8,2729931.18972,-496844.01196199993,-1.0,300.05163881433936,18362.17627331616,18362.17627331616,300.92068951191663,0.07199663334845387,3.5797937441445558,92.30000000000001,0.42350499648177375
1306894529.18,8.4615621,5.1950114,5031.758691200001,-0.3,-0.6,45.5,2729995.98631,-496778.78886280005,-1.0,292.1771387833763,17583.719189200667,17583.719189200667,301.19917033116184,0.07493402617770291,3.5159737809228133,92.70000000000002,0.4228703726847483
1306894529.39,8.4618418,5.1951678,5019.1602656,-0.3,-0.6,45.5,2730062.6201704,-496711.4004092,-1.0,301.35084952141955,17264.740895784016,17264.740895784016,300.5121142994573,0.077683745928364,3.478930327722242,91.50000000000001,0.42224064827529956
1306894529.81,8.4623939,5.1954774,4994.5211572,-0.3,-0.4,45.5,2730194.2802795996,-496578.0014548,-1.0,297.82301687930095,16982.423848529932,16982.423848529932,299.4934340532629,0.079293214826332,3.4015333325256885,88.80000000000001,0.42158635037503717
1306894530.24,8.4629564,5.1957939,4969.7180068,-0.3,-0.2,45.5,2730328.3682104,-496441.68255280005,-1.0,296.6318671809852,16323.057952080499,16323.057952080499,299.06013871152027,0.07801630413097632,3.5138685936069685,87.10000000000001,0.4209416215911352
1306894531.09,8.4640602,5.1964185,4921.8505512,-0.3,0.1,45.5,2730591.45877,-496173.0145652,-1.0,294.91409973376005,16116.69224395278,16116.69224395278,296.9873341934028,0.0762193090838083,3.442873519393404,85.5,0.4202499658606014
1306894531.52,8.4646118,5.1967324,4898.3597368,-0.3,0.2,45.5,2730722.69237,-496038.1064244,-1.0,291.52602410998264,14748.404252574584,14748.404252574584,295.8171518566071,0.07441301882438857,3.4027251486924506,87.5,0.4196340975316425
