timestamp,longitude,latitude,altitude,roll,pitch,yaw,heading,air_speed,engine_0,engine_1,temperature_in,humidity_in,pressure_in,heart_rate,oxygen_mask
1306893631.32,1.3424986,7.0011117,147.5065664,-1.0,4.0,-1.0,-1.0,156.09908533229742,538.9344955890773,538.9344955890773,301.2593574720267,0.07260369201683017,3.4916658271728473,89.7,0.3103249291673557
1306893631.74,1.3427675,7.0013055,147.6706084,-1.0,6.0,-1.0,-1.0,156.09908533229742,769.8746416572463,769.8746416572463,300.9980740512418,0.07066281121891624,3.5267739655081902,89.60000000000001,0.3102816767614065
1306893632.16,1.3430496,7.0015086,147.7690336,-1.0,7.3,-1.0,-1.0,164.00681368256656,1090.3230496150063,1090.3230496150063,302.90676784248626,0.06871919070666233,3.6151138273903722,91.50000000000001,0.31025273975353246
1306893632.58,1.3433282,7.0017094,147.83465040000002,-1.0,8.1,-1.0,-1.0,161.9733419818894,1125.5707270416017,1125.5707270416017,304.32122618314605,0.06722191147798168,3.6245881331570238,95.00000000000001,0.3102350560264983
1306893633.01,1.3436237,7.0019222,147.9002672,-1.0,8.7,-1.0,-1.0,167.8455987388324,1425.4185751856753,1425.4185751856753,303.0785595251739,0.06840916286672902,3.6205527193663616,91.4,0.3102257931218614
1306893634.5,1.3446978,7.0026959,149.7047292,-1.0,10.3,-1.0,-1.0,176.35844216958512,1425.4185751856758,1425.4185751856758,303.0785595251739,0.06840916286672902,3.6205527193663616,91.4,0.3102257931218614
1306893634.92,1.3450097,7.0029207,151.8700836,-1.0,10.5,-1.0,-1.0,181.93241130936437,1125.5707270416015,1125.5707270416015,304.32122618314605,0.06722191147798166,3.6245881331570238,95.0,0.3102350560264983
1306893635.36,1.3453462,7.0031634,155.4133908,-1.0,10.7,-1.0,-1.0,187.55733358530563,1090.3230496150068,1090.3230496150068,302.90676784248626,0.06871919070666233,3.6151138273903727,91.50000000000001,0.31025273975353246
1306893635.79,1.3456807,7.0034048,160.1706088,-1.0,10.8,-1.0,-1.0,191.06657145707283,769.8746416572463,769.8746416572463,300.9980740512419,0.07066281121891624,3.526773965508191,89.60000000000001,0.3102816767614065
1306893636.22,1.3460192,7.0036494,166.20735439999999,-1.0,10.9,-1.0,-1.0,193.54858906802554,538.9344955890774,538.9344955890774,301.25935747202664,0.07260369201683016,3.491665827172848,89.7,0.3103249291673557
1306893637.52,1.3470747,7.0044149,192.1587988,-1.0,10.8,-1.0,-1.0,200.37596618230137,606.0392487955259,606.0392487955259,302.90048730951713,0.07286225253870167,3.4982886933933663,91.60000000000001,0.31042911770628834
1306893638.8,1.3481713,7.0052165,228.44488919999998,0.2,10.8,-1.0,-1.0,212.9008397183189,959.0169396785028,959.0169396785028,302.011419868843,0.07288631035137516,3.4737530522363027,89.10000000000001,0.3106175910221239
1306893639.66,1.348939,7.0057824,258.4645752,0.3,10.8,-1.0,-1.0,223.34844390359135,1346.534110950257,1346.534110950257,300.78475152558303,0.07331850017746151,3.4842636668749556,89.10000000000001,0.3108758806109253
1306893640.09,1.3493278,7.0060706,274.934392,0.4,10.8,-1.0,-1.0,227.1032967784113,2054.169131679619,2054.169131679619,300.1138878165954,0.07476941189928303,3.4421587838807186,87.7,0.3111724466651685
1306893640.51,1.3497179,7.006361,292.1916104,0.4,10.8,-1.0,-1.0,234.14432760947733,2672.445958721462,2672.445958721462,301.57285261630386,0.07256894555626842,3.4823320774637154,90.3,0.31150912645519474
1306893640.95,1.3501318,7.0066708,311.351716,0.6,10.8,-1.0,-1.0,237.9582967365012,3088.1489885929464,3088.1489885929464,299.17873868491046,0.0729667341442041,3.5138025682562115,89.10000000000001,0.31188630274565843
1306893641.37,1.3505308,7.0069708,330.51182159999996,0.7,10.8,-1.0,-1.0,241.05200127913466,3415.612698770565,3415.612698770565,298.0718518059837,0.0728194249454438,3.500629207362687,87.0,0.31230313345431987
1306893641.79,1.3509423,7.0072815,350.9514548,0.7,10.3,-1.0,-1.0,249.51004119703668,3794.373681186121,3794.373681186121,297.2201754886747,0.07089703070151553,3.4855016028833425,89.6,0.31275938892238636
1306893642.22,1.3513625,7.0076003,372.5065736,1.0,10.3,-1.0,-1.0,249.62686142451486,3931.547991290007,3931.547991290007,296.57930886126917,0.06979278935034244,3.4572593619855088,91.6,0.31325483949106525
1306893642.64,1.3517805,7.007919,394.356968,1.2,10.1,-1.0,-1.0,254.96780066157436,4510.472734800762,4510.472734800762,294.676118642616,0.0668885754142056,3.456622512847158,90.30000000000001,0.31378718857243004
1306893643.06,1.3522054,7.0082443,416.5682548,1.4,9.9,44.9,-1.0,259.83156158995274,5207.1253829226125,5207.1253829226125,295.43148146844476,0.0683864623954385,3.487240497487902,89.5,0.3143108106196742
1306893643.48,1.3526333,7.0085734,438.5826912,1.6,9.7,44.9,-1.0,262.2511400368231,5741.974617398787,5741.974617398787,295.8412952565268,0.06923171741780634,3.543205034646129,91.7,0.31480113214198385
1306893643.9,1.3530706,7.008911,460.4330856,1.8,9.5,44.9,-1.0,268.6135228846606,6551.609209675088,6551.609209675088,294.69903454314766,0.07172062955904193,3.464668466440518,91.4,0.3152723919845036
1306893644.33,1.3535198,7.0092593,481.9882044,2.0,9.3,44.9,-1.0,269.7974471637372,7242.840947383656,7242.840947383656,293.55949723102395,0.06919988341030647,3.4411548973962383,89.9,0.31575551753131026
1306893644.75,1.3539718,7.0096108,502.6574964,2.3,9.3,45.1,-1.0,278.44890920006134,7776.988400257247,7776.988400257247,294.397705973953,0.07184646176782204,3.4052864044482454,90.9,0.31624660458292875
1306893645.18,1.3544442,7.0099792,523.0643212,2.6,9.3,45.1,-1.0,284.52365556956596,8157.410964195225,8157.410964195225,294.9963873440224,0.07301700999920524,3.3531335379926337,92.10000000000001,0.31674060064592086
1306893645.62,1.3549279,7.0103572,542.7821696,2.9,9.3,45.1,-1.0,284.8008340856497,8441.48103230571,8441.48103230571,297.12510618756926,0.07584945907450227,3.467844728516969,91.1,0.317235898108738
1306893646.04,1.3553995,7.0107263,560.8924064,3.2,9.3,45.3,-1.0,291.1348610903845,8824.466234643949,8824.466234643949,297.83686832986666,0.07481017226170325,3.441275578655842,89.39999999999999,0.31772576031346245
1306893646.47,1.3558906,7.0111109,578.740176,3.5,9.1,45.4,-1.0,296.12215819352394,9308.673659006374,9308.673659006374,299.7111281691316,0.07556291109408998,3.5176126003990866,88.69999999999999,0.318206972036997
1306893646.89,1.3563866,7.0114993,596.29267,3.8,9.3,45.5,-1.0,306.2339364285638,9841.882420004706,9841.882420004706,299.8834645755437,0.07560916083647677,3.6333094083999806,89.7,0.31867815532658583
1306893647.31,1.3568788,7.0118846,613.7467388,4.1,9.5,45.6,-1.0,303.8737653444564,10389.781418513436,10389.781418513436,298.7659045212351,0.07510076446438245,3.5698786026189064,90.30000000000001,0.3191382384411965
1306893647.73,1.3573849,7.0122803,632.1522512,4.3,9.7,45.7,-1.0,312.44991698549666,11501.730775160177,11501.730775160177,297.6057491707505,0.07312640516062481,3.6222259283346188,88.00000000000001,0.31958990073341
1306893648.15,1.3578957,7.0126784,651.3779736,4.6,9.9,45.9,-1.0,314.95696006404097,12012.955521222353,12012.955521222353,297.94875153506416,0.06976684113606557,3.5824437162169187,87.69999999999999,0.32003543879115276
1306893648.58,1.3584342,7.0130957,672.4737748,4.7,10.1,46.0,-1.0,323.62140773402564,13199.050637027529,13199.050637027529,299.8521938842119,0.07194509609334043,3.67764007955111,89.10000000000001,0.3204799051078631
1306893649.0,1.3589568,7.0134981,693.7664264,4.8,10.1,46.2,-1.0,320.5524892055308,14269.602987484779,14269.602987484779,299.40154328106235,0.07098553647931602,3.6896071437606315,85.60000000000001,0.3209258259302603
1306893649.44,1.3595232,7.0139315,717.6509416,4.9,10.1,46.3,-1.0,330.87458907740125,15806.27306534077,15806.27306534077,299.3318750872256,0.07045293216997602,3.77838448304772,84.7,0.3213798613633312
1306893649.86,1.3600731,7.0143498,741.5026484,4.9,10.1,46.5,-1.0,335.6545790854057,16961.964257331147,16961.964257331147,299.14518827307575,0.06994022880483511,3.7797800603010248,86.39999999999999,0.3218435424656934
1306893650.29,1.3606576,7.0147917,767.388476,4.9,10.1,46.6,-1.0,347.6993840912568,18130.08096424238,18130.08096424238,300.1422462722668,0.07129357958002033,3.846291278134485,87.9,0.322325366612675
1306893650.71,1.3612262,7.015219,792.979028,4.8,10.1,46.6,-1.0,345.29090985798126,18775.342780277595,18775.342780277595,299.190354315268,0.07164569880012067,3.8513858439082633,89.30000000000001,0.3228252572513452
1306893651.15,1.3618296,7.0156701,821.194252,8.5,13.3,47.0,-1.0,349.0318607031667,19328.98822423375,19328.98822423375,299.03328925593684,0.074056932820976,3.7899446752406245,87.30000000000001,0.3233500275925526
1306893651.58,1.3624252,7.0161078,853.3136755999999,28.7,14.7,47.8,-1.0,350.58384382155504,20406.592820245816,20406.592820245816,297.82390140229654,0.07418793931771947,3.8062580631496292,89.19999999999999,0.323909017093865
1306893652.0,1.3630285,7.016531,889.4685324000001,40.8,15.6,49.5,-1.0,356.45512254584594,22006.677936368003,22006.677936368003,297.57538843816326,0.0770756434578068,3.786479165483079,91.69999999999999,0.3245094217307853
1306893652.43,1.3636695,7.0169521,930.0197148000001,43.3,15.4,51.3,-1.0,359.7376570720147,24501.09137167426,24501.09137167426,297.154760517156,0.07693021667736094,3.8623991348241296,91.19999999999999,0.32515958577278
1306893652.85,1.364326,7.0173561,972.3753591999999,48.5,16.1,53.2,-1.0,367.3991838387783,26965.416923057102,26965.416923057102,296.21085826693405,0.0758729525855559,3.7268125452646785,91.6,0.32585935611398736
1306893653.28,1.3650138,7.0177485,1017.2900588,53.6,16.8,55.5,-1.0,365.4575393459499,29290.083716566347,29290.083716566347,296.7126492944299,0.07481974505707502,3.8350402918263864,94.80000000000001,0.32661424456543087
1306893653.72,1.3657552,7.018136,1065.7152572,55.3,16.5,57.9,-1.0,373.54629649043443,31537.357476249435,31537.357476249435,296.432812883916,0.07346138342979228,3.752739424165813,96.20000000000002,0.32742639460917544
1306893654.14,1.3664818,7.0184841,1112.6312692,56.8,16.6,60.1,-1.0,373.3437227148995,33316.21858899748,33316.21858899748,294.42541223143564,0.07184770805628184,3.76763010298054,95.10000000000001,0.32829236136333123
1306893654.56,1.3672361,7.0188148,1160.6299583999999,58.5,16.9,62.4,-1.0,378.2065657291155,34360.26145562939,34360.26145562939,294.2869971466929,0.07033545792465062,3.7722336590988776,94.20000000000002,0.3292099247929025
1306893654.99,1.3680217,7.0191273,1209.9081752,59.3,16.7,64.7,-1.0,375.84477502831834,35511.48847015077,35511.48847015077,295.9322160137135,0.07027088618090312,3.726090247312559,94.00000000000001,0.3301827594385718
1306893655.41,1.3688268,7.0194165,1259.4816676,59.8,16.7,67.1,-1.0,386.1570041110239,36318.906877701615,36318.906877701615,297.476824776168,0.07098519887148243,3.78117693181769,95.3,0.33120543004224634
1306893655.84,1.3696479,7.0196817,1309.1863936,60.3,16.7,69.3,-1.0,377.46107681670924,36424.207226012535,36424.207226012535,297.13235882875534,0.0723227187923291,3.8793840703035904,93.0,0.33226913301687444
1306893656.26,1.3704896,7.0199238,1359.3176288,60.7,16.5,71.6,-1.0,389.6309012595083,37375.5570596102,37375.5570596102,296.63215952043726,0.07058807257543796,3.8923133178638625,91.4,0.33336544754005915
1306893656.68,1.3713529,7.0201427,1409.9081816,60.9,16.5,73.9,-1.0,393.8146434624471,37997.23951613578,37997.23951613578,298.78019532550354,0.07385332353470586,3.877128835591034,89.89999999999999,0.33448518726009413
1306893656.89,1.3717936,7.0202436,1435.4331167999999,60.9,16.5,75.0,-1.0,398.14706558708167,38462.3881791154,38462.3881791154,298.5591175869678,0.07343022451581407,3.9450930234910895,87.3,0.33556565532658583
1306893657.32,1.3726946,7.0204277,1487.1063468,61.1,16.5,77.3,-1.0,394.0275807261981,39737.05445236822,39737.05445236822,296.471669890033,0.07450731862581116,3.9358564029448213,87.0,0.33666189329683954
1306893657.74,1.3736103,7.0205855,1539.0092356,61.1,16.5,79.6,-1.0,405.8033268015761,41540.97241475635,41540.97241475635,297.55749574935936,0.07554921333070573,3.935682149599728,83.7,0.3377662458777669
1306893658.18,1.3745721,7.0207209,1592.9134368,61.1,16.5,81.9,-1.0,403.62186523084733,43061.13265640178,43061.13265640178,299.69010015879127,0.0761859640496757,3.8510955090447077,83.50000000000001,0.33888690423297246
1306893658.61,1.3755108,7.020824,1645.0459844000002,61.1,16.5,84.1,-1.0,403.0858541208936,46722.18260079124,46722.18260079124,298.988345445163,0.07961155694403196,3.7318114181685584,82.10000000000001,0.34001720825746945
1306893659.05,1.3765047,7.0209031,1699.8688208,61.1,15.9,86.5,-1.0,415.4316610277192,53198.388368298496,53198.388368298496,298.4626299956448,0.08040638132483008,3.6849132356949372,81.4,0.34116044972728565
1306893659.48,1.3774808,7.0209512,1753.4121296,61.1,15.8,88.7,-1.0,416.8372381740864,58182.94444800694,58182.94444800694,298.555497125067,0.07872909438714806,3.666745845403177,81.3,0.34231295410173884
1306893659.9,1.378455,7.0209709,1806.6273543999998,61.1,15.8,90.9,-1.0,425.86656354714785,65415.51365547845,65415.51365547845,299.29258025193303,0.07932848026153368,3.598829215264051,81.90000000000002,0.3434736496397966
1306893660.33,1.3794511,7.0209623,1860.9908732000001,61.1,15.8,93.1,-1.0,426.09855609192715,71546.262768115,71546.262768115,301.77735132935834,0.08125748139032062,3.5791295866441133,84.80000000000001,0.34464422050593835
1306893660.75,1.3804212,7.0209263,1913.8452056,60.4,15.2,95.2,-1.0,426.2073474825479,76843.37565985307,76843.37565985307,300.3899428757147,0.080123080720509,3.628533814513484,88.0,0.34582007352431104
1306893661.17,1.3814048,7.020866,1966.9948135999998,54.9,13.6,96.7,-1.0,433.4961872485981,81921.45972178632,81921.45972178632,298.8546423811544,0.07902726150668447,3.630162287988881,91.8,0.3470603841104878
1306893661.6,1.3824228,7.020787,2020.3740804,46.5,12.7,97.8,-1.0,439.04176286005514,88067.07496331417,88067.07496331417,299.13859575578374,0.07909934630998908,3.5494394823779407,91.5,0.3483046754490705
1306893662.03,1.3834527,7.0206945,2072.7690952,40.1,12.7,98.6,-1.0,444.814898667599,92662.43224121674,92662.43224121674,298.6499818566997,0.0790891773211881,3.5640110360626167,92.1,0.3495501150816164
1306893662.5,1.3845883,7.0205787,2129.6588608,33.2,12.7,99.5,-1.0,449.55701849684095,97298.18808749762,97298.18808749762,299.00225971929535,0.07710597103325123,3.521620339067146,92.6,0.3508025210308727
1306893662.94,1.3856585,7.0204583,2183.1365527999997,26.5,12.7,100.2,-1.0,453.80631652657246,101079.76838749407,101079.76838749407,300.0993956836637,0.07527431928511821,3.6356583763204515,95.8,0.35205806565029535
1306893663.36,1.386686,7.0203342,2234.7113576,20.8,12.7,100.8,-1.0,457.43344603882605,103328.37661000715,103328.37661000715,298.14980239446396,0.07378876541955895,3.7790322602072344,95.39999999999999,0.3533060315295604
1306893663.79,1.3877494,7.0201992,2288.5171336,16.0,12.7,101.2,-1.0,463.2558690011712,106609.73253431467,106609.73253431467,296.1911839127831,0.07520845132750907,3.704927250512741,93.9,0.3545546098322726
1306893664.22,1.3888148,7.0200587,2343.0446944,11.4,12.7,101.5,-1.0,464.89347102651317,109298.16417934833,109298.16417934833,296.8917860501281,0.0726814634441342,3.7557990513070143,93.6,0.3558062502522201
1306893664.65,1.3899,7.0199122,2399.2454835999997,7.7,12.7,101.5,-1.0,474.0029925936443,113185.9877877141,113185.9877877141,296.8417429794622,0.0718821376418503,3.7131261411369527,91.7,0.3570621776362971
1306893665.07,1.3909889,7.0197662,2456.2664827999997,5.0,12.7,101.4,-1.0,486.64294234039625,116702.89952434739,116702.89952434739,298.6794732164243,0.0724931465834496,3.6385588416606263,90.2,0.3583278272425963
1306893665.49,1.3920687,7.019623,2513.3530988,3.5,12.7,101.4,-1.0,482.6913352711103,118257.24356204561,118257.24356204561,299.33489858343285,0.07253066746965331,3.6165798819902837,87.9,0.3596026632006016
1306893665.91,1.3931493,7.0194802,2570.866224,2.7,12.7,101.4,-1.0,483.0365479242308,121252.0264263559,121252.0264263559,301.26237353906174,0.07156295697381893,3.632832290422608,86.4,0.36088714482789813
1306893666.35,1.3943071,7.0193274,2632.710058,1.9,12.7,101.4,-1.0,493.78849132202805,124461.73799832727,124461.73799832727,300.89914312055356,0.07202845479143936,3.6510466554230536,89.10000000000001,0.3621936736992892
1306893666.77,1.3954217,7.0191802,2692.4541544,1.3,12.7,101.4,-1.0,497.9927307650305,127160.84610023453,127160.84610023453,300.88461759235645,0.07318076648271998,3.7032901790063697,88.8,0.3635068626756672
1306893667.21,1.3965883,7.0190264,2755.0525816,1.0,13.0,101.4,-1.0,497.5058583681242,132197.63998614275,132197.63998614275,299.6366305080076,0.07432895875620231,3.6877750687851907,86.39999999999999,0.3648413333668307
1306893667.65,1.397777,7.0188698,2818.8321112,0.7,13.0,101.4,-1.0,506.63931716059176,137930.29872254588,137930.29872254588,300.9499643735901,0.07252528257947446,3.639277683831906,86.60000000000001,0.36620428174828307
1306893708.34,1.5205378,7.0035516,8818.241752,0.7,13.0,101.6,-1.0,553.2488421937435,140619.61840621947,140619.61840621947,302.939377429479,0.07060309201333867,3.653702123738361,87.0,0.3814403053703303
1306893715.61,1.5429107,7.0007658,9890.1249884,0.7,13.5,101.6,-1.0,563.9904199227093,145495.38879936276,145495.38879936276,303.0220285674838,0.07220431429971727,3.5555161416100383,87.2,0.39905015882614836
1306893722.22,1.5632535,6.9982253,10865.1250196,0.7,13.5,101.6,-1.0,564.0998379985087,151748.2324155177,151748.2324155177,301.78682400689604,0.07205804647484258,3.569503581424588,86.60000000000001,0.41880387711136274
1306893726.26,1.5756419,6.9966743,11459.317952000001,0.7,13.6,101.6,-1.0,562.1388234669811,156686.5628687915,156686.5628687915,299.4127115805434,0.07049239289971072,3.5365596990328974,88.10000000000001,0.43981099653393485
1306893732.4,1.5944976,6.994307,12365.3875348,0.7,13.6,101.7,-1.0,563.0542397431033,163544.96870241026,163544.96870241026,299.1952099559469,0.07107757290697762,3.6109576074955223,87.2,0.46279907614898297
1306893736.44,1.606818,6.9927545,12959.5476588,0.7,13.7,101.7,-1.0,559.3059935702662,170372.10451994883,170372.10451994883,296.95090464550134,0.07103810373282524,3.567648774658029,86.10000000000001,0.4870393320544948
1306893745.84,1.6352359,6.989147,14344.4230312,0.7,13.8,101.7,-1.0,554.7840837496796,173117.62625171966,173117.62625171966,297.63141439422884,0.07241654243603607,3.5406178712126968,84.2,0.5143666614508202
1306893747.38,1.639828,6.9885592,14571.227500400002,0.7,13.7,101.7,-1.0,547.6384160375604,172550.1372856763,172550.1372856763,297.075389863426,0.07203627352486854,3.543977632996355,86.7,0.5420837983712051
1306893748.46,1.6430404,6.988147,14730.5122824,0.7,12.8,101.7,-1.0,546.3831815228577,170037.49944275155,170037.49944275155,296.17925384366305,0.0702286206499358,3.4947431493492664,88.10000000000001,0.5700265367789042
1306893748.89,1.6443125,6.9879835,14791.6999484,0.7,11.3,101.7,-1.0,542.8519607915487,164335.35128225942,164335.35128225942,295.048407240651,0.07387940547601106,3.4478031496314867,86.30000000000001,0.5979632275050636
1306893749.33,1.6456131,6.9878162,14849.8692416,0.7,10.3,101.7,-1.0,541.3342441439327,158648.93006860773,158648.93006860773,293.8368241811736,0.07342591967207601,3.496057423601607,86.0,0.6120370245304353
1306893749.76,1.6469069,6.9876495,14902.9204244,0.7,9.5,101.7,-1.0,549.7091250204171,153437.88570480747,153437.88570480747,292.6659919402919,0.0743991659324908,3.5258272595213755,84.3,0.6237335468401466
1306893750.2,1.6481967,6.9874831,14951.2143892,0.7,8.8,101.7,-1.0,534.7139686417972,147293.1851907921,147293.1851907921,291.34166317439764,0.07612367048171825,3.4937331617825977,86.4,0.6332677550641186
1306893750.63,1.6494913,6.9873159,14995.374495600001,0.7,8.2,101.7,-1.0,548.0417953103483,144810.3125439132,144810.3125439132,291.1528461841699,0.07484492094295322,3.5640428899954055,85.3,0.6415185534018264
1306893751.06,1.6507846,6.9871488,15035.433552,0.7,7.6,101.7,-1.0,546.6301109069732,140166.82174822368,140166.82174822368,291.0789845180016,0.07407475162251673,3.5047169286090725,84.9,0.6477486605759296
1306893751.49,1.6520554,6.9869843,15071.161899599998,0.7,7.1,101.7,-1.0,536.8044149924008,136517.1163071161,136517.1163071161,291.92449797510085,0.07311310351160341,3.506623747566006,87.30000000000001,0.6526757603134624
1306893751.91,1.6533063,6.9868224,15103.1172812,0.7,6.7,101.7,-1.0,540.3835987061747,137090.26205618132,137090.26205618132,292.2556773785959,0.07059831960404106,3.58552763385989,88.40000000000002,0.6544460468401466
1306893752.34,1.6545941,6.9866555,15132.8745,0.7,6.2,101.7,-1.0,542.6925193827209,136530.1914842534,136530.1914842534,292.0489506099078,0.07018660437807246,3.560333644449951,85.3,0.6557565564639437
1306893752.77,1.6558856,6.986488,15159.8101964,0.7,5.8,101.7,-1.0,544.1399336422039,135873.53419178023,135873.53419178023,294.1875798040497,0.06923011479222248,3.6022608621949983,85.9,0.656758251564556
1306893753.2,1.6571716,6.9863212,15183.924370400002,0.7,5.4,101.7,-1.0,541.3649008386138,138082.0589292665,138082.0589292665,296.36000866604337,0.06745971313375279,3.6619468022326793,86.10000000000001,0.65767344185327
1306893753.63,1.6584639,6.9861534,15205.709148,0.7,5.1,101.7,-1.0,543.6662964968073,138689.8328212747,138689.8328212747,297.6001363977405,0.06773329560614698,3.6315901796071643,88.30000000000001,0.658503734941634
1306893754.06,1.6597533,6.9859859,15225.1973376,0.7,4.8,101.7,-1.0,542.5108242179516,136136.23243884204,136136.23243884204,299.9051099530746,0.06499412206553118,3.633862640475403,91.30000000000001,0.6592557143817038
1306893754.48,1.6610368,6.9858191,15242.5529812,0.7,4.5,101.7,-1.0,552.4347708999366,137972.43382622369,137972.43382622369,302.70974476844486,0.06424576842239424,3.6242915825783046,90.30000000000001,0.6599355044079508
1306893754.91,1.6623172,6.9856526,15258.0057376,0.7,4.2,101.7,-1.0,538.2795556741783,135863.93981652646,135863.93981652646,305.22961583272064,0.06653226252774419,3.5343250602964478,88.5,0.6605483106196742
1306893755.34,1.6635974,6.9854861,15271.7852656,0.7,4.0,101.7,-1.0,538.1664554286989,136782.10968156677,136782.10968156677,306.38156031182837,0.06941763649372105,3.484681700055446,89.80000000000001,0.66109979793376
1306893755.76,1.6648745,6.9853199,15283.989990400001,0.7,3.8,101.7,-1.0,549.2458733367044,139308.19245179108,139308.19245179108,307.4342269679458,0.0717976899292516,3.4667312047233247,89.60000000000002,0.661596396796402
1306893756.19,1.6661363,6.9851557,15294.685528799999,0.7,3.6,101.7,-1.0,530.3332681362252,138830.17257681914,138830.17257681914,307.1215472890651,0.0746777272233791,3.4709141284537326,87.10000000000001,0.6620433893598318
1306893757.03,1.6686772,6.9848248,15312.6317236,0.7,3.3,101.7,-1.0,546.414694335728,143080.68837516333,143080.68837516333,305.6164288631395,0.07387155015148472,3.4732648324711537,90.0,0.6624628228681432
1306893759.98,1.6774995,6.9836747,15348.064795600001,0.7,2.6,101.7,-1.0,540.1746589844665,144306.36013939866,144306.36013939866,304.0027927592101,0.07687581113433231,3.464682072528388,89.7,0.6629020835855535
1306893761.68,1.6825924,6.98301,15356.594979599999,0.7,2.4,101.7,-1.0,541.0650909479492,143374.61555293726,143374.61555293726,301.8723598329743,0.07635450203903328,3.370622230050524,91.69999999999999,0.6633049816607941
1306893762.95,1.686386,6.9825146,15359.8102028,0.7,2.3,101.7,-1.0,539.5367526971779,144266.72464393367,144266.72464393367,300.89168761047154,0.07566149134484201,3.4307363281522183,91.3,0.6636645507771546
1306893765.91,1.695266,6.9813538,15361.647473199999,0.7,2.2,101.7,-1.0,541.8548685385716,144037.39444983544,144037.39444983544,298.1473729442069,0.07795985641640979,3.4917360169271037,88.79999999999998,0.6639829344166996
1306893776.5,1.7269454,6.9772026,15356.004428400001,0.7,2.2,101.7,-1.0,540.3861609824742,139841.9656903351,139841.9656903351,296.294589494545,0.0759174453068014,3.5567844613353095,89.79999999999998,0.6642476544516951
1306893831.46,1.8914021,6.955387,15356.004428400001,0.7,2.2,101.7,-1.0,540.8550321514484,140079.61931241702,140079.61931241702,295.8573903130174,0.0745066727373282,3.6906199159235658,90.29999999999998,0.6644763180562445
1306893852.64,1.9547107,6.9468673,15354.396816800001,1.1,2.7,101.7,-1.0,540.6543527690044,140094.35634192658,140094.35634192658,294.329518314238,0.07230109094672507,3.697821379127857,89.70000000000002,0.6646690783362097
1306893853.29,1.9566406,6.9466029,15356.8574468,28.7,4.0,102.6,-1.0,537.3529595879247,137856.27446159243,137856.27446159243,292.355091608199,0.0702503934744894,3.7897951026184944,87.50000000000001,0.6648391023957022
1306893853.93,1.9585609,6.9463148,15363.714402399999,40.5,4.8,104.1,-1.0,543.8396385249836,139629.74380815277,139629.74380815277,293.7726921971278,0.06943275369531367,3.662097875530225,90.4,0.6650001697622814
1306893854.14,1.9591867,6.9462124,15366.7655836,42.1,5.0,104.7,-1.0,541.2983085523737,139002.8808206364,139002.8808206364,293.47444208970603,0.07324003252475615,3.746639071962829,87.0,0.6651264820982395
1306893854.79,1.9610906,6.945871,15378.1829068,51.0,5.6,106.7,-1.0,533.7190050064659,139918.4344750435,139918.4344750435,292.88352203142506,0.07272069638326013,3.6559427386673677,85.29999999999998,0.6651967576887905
1306893855.86,1.9642136,6.9451887,15402.2970808,55.8,6.5,110.9,-1.0,536.603708419025,141657.27853028945,141657.27853028945,293.79752683564044,0.07370011471771921,3.667055644877639,84.1,0.6653033959215116
1306893856.07,1.9648107,6.9450382,15407.64485,56.7,6.6,111.7,-1.0,527.7683177241108,142780.67967236065,142780.67967236065,294.5851273838421,0.07651359322819658,3.597526899197158,82.9,0.6654150100947398
1306893856.51,1.9660545,6.9447017,15419.5214908,57.8,6.9,113.6,-1.0,527.7864523366208,148858.41610339895,148858.41610339895,294.4090735945495,0.07548999088628867,3.51326904032392,84.80000000000001,0.6655500494648185
1306893856.72,1.9666494,6.9445292,15425.5582364,58.1,7.0,114.6,-1.0,532.9509309240437,154013.73268591106,154013.73268591106,293.402925616757,0.07657347658395207,3.445360803911825,84.70000000000002,0.6657123416782917
1306893857.39,1.9685114,6.9439379,15445.9322528,59.0,7.0,117.6,-1.0,528.1696316510131,155268.1984503754,155268.1984503754,293.63671534805235,0.0771471941264969,3.4043788081677873,85.10000000000001,0.6659221732618438
1306893857.81,1.9696584,6.9435325,15459.646164000002,59.4,7.4,119.5,-1.0,526.924087531074,156160.78511958942,156160.78511958942,295.63752624146144,0.07992748793703994,3.442825829815198,85.0,0.6661677550641187
1306893858.24,1.9708098,6.9430916,15474.3443272,59.6,7.5,121.5,-1.0,523.6545545270192,153502.49366986245,153502.49366986245,295.0638110263239,0.08056180519260966,3.3447629698339836,86.3,0.6664418911096129
1306893858.87,1.9724647,6.942394,15497.1461652,59.6,7.5,124.3,-1.0,523.5997126876118,146057.59239025647,146057.59239025647,292.5928626420744,0.08114156677144897,3.4370277436751344,84.69999999999999,0.6667532318795167
1306893859.08,1.9729898,6.942156,15504.856139200001,58.4,7.5,125.3,-1.0,506.46335518041286,141337.12555081287,141337.12555081287,295.07093496413523,0.07733735264650168,3.3118177484662144,85.0,0.667075443165606
1306893859.73,1.974628,6.9413618,15530.67635,48.1,7.1,127.8,-1.0,519.7849860298209,145036.45056860024,145036.45056860024,296.7724510797623,0.0754212470576544,3.447687259358556,85.7,0.6674312611883532
1306893860.15,1.9756514,6.9408315,15548.6225448,40.0,6.7,129.0,-1.0,511.92799922805085,145180.77432754583,145180.77432754583,297.6789528469448,0.07669291394346771,3.5468780482157003,84.6,0.6677726872600941
1306893860.57,1.976679,6.9402789,15568.0123092,32.3,6.5,129.9,-1.0,520.4827265520925,149496.04703261313,149496.04703261313,295.2090198992695,0.07664787451616764,3.529729348384553,86.4,0.6681468779862534
1306893861.43,1.9787383,6.9391297,15609.8758276,18.1,6.2,131.0,-1.0,515.3523148182182,150922.61742517634,150922.61742517634,296.0976244104198,0.07695588937819811,3.611407095909254,87.0,0.6685910380912402
1306893861.85,1.9797394,6.9385578,15631.2669044,12.7,6.2,131.3,-1.0,517.3694152728018,143383.30864829864,143383.30864829864,296.6425765915235,0.07566378611088943,3.700567318923888,86.19999999999999,0.6690710249678807
1306893862.28,1.9807502,6.9379748,15653.3141492,8.1,6.2,131.5,-1.0,511.6070736323674,130121.66251572437,130121.66251572437,296.1121729049888,0.07781758699108693,3.6154124492011297,85.7,0.6695549160439961
1306893862.49,1.9812624,6.9376779,15664.633047199999,6.3,6.2,131.6,-1.0,532.7054168029969,117771.80046666853,117771.80046666853,294.78359245441726,0.07539963768075406,3.642702868125421,85.4,0.6700332187561571
1306893862.7,1.9817626,6.9373872,15675.7222864,4.5,6.2,131.6,-1.0,520.2851666474864,100473.85238798129,100473.85238798129,296.138519583435,0.07788645914938547,3.781576233966662,87.80000000000001,0.6705031006459208
1306893863.12,1.9827561,6.9368083,15697.933573199998,1.7,6.2,131.6,-1.0,517.030247999507,87894.32671892813,87894.32671892813,295.93665654271143,0.07707748115239382,3.7109188891571776,87.60000000000001,0.6709716045829288
1306893863.96,1.9847343,6.9356526,15742.6842308,-2.0,6.2,131.6,-1.0,515.1880559180156,83173.32358548821,83173.32358548821,294.1472174214497,0.08013753564696431,3.736415018271591,90.9,0.6715265367789043
1306893864.38,1.985739,6.9350656,15765.5516856,-3.1,6.2,131.6,-1.0,523.6496801803338,77502.24613665788,77502.24613665788,292.6115256093887,0.08077057083626916,3.6448862756581066,91.4,0.6720745792111003
1306893864.8,1.9867434,6.9344792,15788.550374,-3.8,6.2,131.6,-1.0,523.4771215108518,77866.11752321511,77866.11752321511,291.30446794284,0.08034794595344376,3.572378572507423,92.30000000000001,0.6726344107946524
1306893865.01,1.9872476,6.9341851,15800.098930799999,-4.1,6.2,131.5,-1.0,525.2550785224131,80147.54340508637,80147.54340508637,291.5315990551535,0.0799511573612854,3.6645937996548095,91.2,0.6731759462277231
1306893865.23,1.9877691,6.9338811,15812.1068052,-4.2,6.2,131.5,-1.0,518.4903057600274,79133.54868892314,79133.54868892314,291.30391632174445,0.08026575545372601,3.6125275236976586,88.4,0.6736478184936899
1306893865.65,1.9887805,6.9332922,15835.4007692,-4.4,6.2,131.4,-1.0,526.7418603319575,79649.63499833544,79649.63499833544,291.49689385543854,0.07962508838864825,3.497853380017375,86.3,0.6741241308296481
1306893866.08,1.9898015,6.9326988,15858.9900088,-4.3,6.2,131.3,-1.0,518.6533335220522,81111.84494222466,81111.84494222466,291.3211151708569,0.07979699568128171,3.629333318340604,87.0,0.6746040411533575
1306893866.93,1.9918529,6.9315092,15906.562188799999,-3.8,6.2,131.3,-1.0,527.1922693615967,79265.59275175865,79265.59275175865,291.84871117285076,0.0791267252040101,3.5604148427660256,86.9,0.6751685424656935
1306893867.36,1.9928953,6.930906,15930.840404800001,-3.4,6.2,131.1,-1.0,529.209067295492,80901.08892243961,80901.08892243961,291.79535247291057,0.07745046619125855,3.5368437845100535,83.80000000000001,0.6757638180562446
1306893867.78,1.993913,6.9303175,15954.6264948,-2.9,6.2,131.1,-1.0,528.8353842001762,81651.15929233714,81651.15929233714,292.96760001675284,0.07726789508244594,3.5314899529192747,86.4,0.6763627681874782
1306893867.99,1.9944372,6.9300146,15966.864028,-2.7,6.2,131.1,-1.0,545.3074526300031,82059.28071459931,82059.28071459931,294.6983503654873,0.07462148437431317,3.5554501894343082,86.00000000000001,0.6768858543642061
1306893868.2,1.99494,6.9297242,15978.6422436,-2.5,6.2,131.0,-1.0,522.3456819367623,77177.66056537816,77177.66056537816,295.2739392592336,0.07469047046828371,3.5787626961433716,84.10000000000001,0.6773830656502953
1306893868.62,1.9959638,6.9291329,16002.657992399998,-2.0,6.2,131.0,-1.0,531.9066850476547,78202.69199431331,78202.69199431331,295.94349747558863,0.0714681770238527,3.542816420932354,82.8,0.677882650077242
1306893869.26,1.997516,6.9282367,16039.1737416,-1.3,6.2,131.0,-1.0,529.0705926551543,78354.3892712364,78354.3892712364,297.107418375703,0.07203609543942435,3.448066477172197,82.7,0.678440491284591
1306893869.68,1.9985534,6.9276375,16063.648808,-0.9,6.2,131.0,-1.0,539.3124766252507,80472.95237404766,80472.95237404766,297.2629139271969,0.06994017470838743,3.400929056395645,83.5,0.6790274226056758
1306893870.12,1.9996092,6.9270274,16088.616000400001,-0.5,6.2,131.0,-1.0,523.5729659042005,84551.0282167767,84551.0282167767,297.97248873283417,0.07007620960651419,3.482062345042217,85.9,0.6796182581262359
1306893870.76,2.0011756,6.9261212,16125.7879176,0.0,6.2,131.0,-1.0,534.524741158465,89735.58367458447,89735.58367458447,296.4441393593947,0.06793924938443335,3.359495854748813,86.10000000000001,0.6802407865601816
1306893871.18,2.0022269,6.9255123,16150.8207268,0.3,6.2,131.0,-1.0,547.5235549709134,88312.17849378401,88312.17849378401,296.09236188739845,0.07089870811421219,3.3555052704655073,88.50000000000001,0.6808107231306103
1306893871.6,2.0032571,6.9249148,16175.3942184,0.5,6.2,131.0,-1.0,536.3267411928873,86141.86910755408,86141.86910755408,296.69613915741434,0.07093341174458341,3.336643497801891,91.30000000000001,0.681381348677417
1306893872.44,2.0053124,6.9237203,16224.606818400001,0.9,6.2,131.0,-1.0,535.3768784501885,86761.55494673233,86761.55494673233,298.27990528339126,0.0694978288686831,3.3905968814832015,88.4,0.6820113027456585
1306893872.87,2.0063597,6.9231102,16249.7708612,1.1,6.2,131.0,-1.0,533.2303429421511,82445.05585488692,82445.05585488692,296.191379082144,0.07040142806373996,3.348592760567861,85.89999999999999,0.6826714186686681
1306893873.29,2.0073928,6.9225074,16274.672436800001,1.2,6.2,131.0,-1.0,539.2337719625142,83611.19538800018,83611.19538800018,297.0497803901337,0.07247494799444273,3.3485632577956763,87.90000000000002,0.683362155764031
1306893873.93,2.0089755,6.9215817,16312.9270312,1.4,6.2,131.0,-1.0,542.6677276371109,85187.13855270282,85187.13855270282,295.4608882012818,0.07328656310635803,3.4555272438359985,88.60000000000001,0.6840861168313976
1306893874.56,2.0105201,6.9206758,16350.394224000001,1.5,6.2,131.0,-1.0,538.3288423756038,86670.62139512456,86670.62139512456,296.0038094166217,0.07055243251624559,3.428555753522529,90.50000000000001,0.68481229793376
1306893875.64,2.013183,6.9191079,16415.2564308,1.5,6.2,131.0,-1.0,542.3406513074552,85583.86651700427,85583.86651700427,296.88290846813305,0.0721353431655053,3.453600268843776,90.30000000000001,0.6856327156940399
1306893876.08,2.0142662,6.9184678,16441.765617999998,1.5,6.2,131.2,-1.0,542.2995737263634,85865.89128363556,85865.89128363556,295.5772022710969,0.07550012865492091,3.367715284122712,90.20000000000002,0.6864567314420714
1306893878.0,2.0190077,6.9156496,16558.8587976,1.8,6.2,131.2,-1.0,545.2615813260601,85780.64623259974,85780.64623259974,297.7862585016419,0.07760139886327255,3.434305020029861,91.7,0.6874672301297354
1306893878.84,2.0210838,6.9144071,16610.6304528,1.8,6.4,131.4,-1.0,547.2095521689974,85095.71511051105,85095.71511051105,299.8906691374635,0.07489692444686812,3.5108651379256988,89.80000000000001,0.6885401194560695
1306893879.48,2.0226787,6.9134492,16650.295808400002,1.7,6.4,131.4,-1.0,552.7294705778612,85779.84720086257,85779.84720086257,298.0770851743328,0.07579779345085344,3.454296632331221,86.8,0.6896482231306104
1306893880.12,2.024249,6.912503,16689.4034212,1.7,6.4,131.4,-1.0,544.4668351068859,85972.633724418,85972.633724418,297.99965339148446,0.07693839429690444,3.3804098765128416,87.70000000000002,0.6907327485024388
1306893880.54,2.0252811,6.9118796,16715.190823599998,1.7,6.2,131.4,-1.0,545.8286792763937,87172.28188727354,87172.28188727354,297.3479300820603,0.07892822779082433,3.3810941035754736,89.60000000000001,0.6918187283799542
1306893883.71,2.0327899,6.9073094,16905.873244399998,1.7,6.4,131.4,-1.0,526.9916056589143,87375.75658186998,87375.75658186998,296.85012571248524,0.07673812264868221,3.4055084947215275,87.50000000000001,0.6932915302172244
1306893884.56,2.0347038,6.9061344,16954.7905688,1.7,6.4,131.4,-1.0,501.46917215681935,87231.5634168115,87231.5634168115,298.5004190203532,0.07664454645292301,3.355655186385816,88.0,0.6947892117570319
1306893884.77,2.0351753,6.9058442,16966.86406,1.7,6.5,131.8,-1.0,500.6445751229326,88404.16386225585,88404.16386225585,297.859603544349,0.0764302438238636,3.3895519280109667,85.00000000000001,0.6962276413283357
1306893886.03,2.0379379,6.9041385,17037.9598628,1.7,6.5,131.9,-1.0,488.81736331660755,88218.02363619008,88218.02363619008,297.7198940547595,0.07552832717982766,3.447070682596746,84.10000000000001,0.6976806159565071
1306893887.09,2.0401758,6.9027489,17095.965114000002,1.7,6.5,131.9,-1.0,470.9172872520021,86798.11832799469,86798.11832799469,298.35540673961873,0.07205412317757146,3.493967714426234,82.80000000000001,0.699207081398327
1306893887.3,2.0406202,6.902472,17107.5136708,1.8,6.5,132.0,-1.0,472.7036156240304,84993.44197758098,84993.44197758098,296.0260777796542,0.06885048809203385,3.468380339907627,82.1,0.700487276061494
1306893890.06,2.0464123,6.8988343,17259.613413199997,2.4,6.5,132.0,-1.0,470.1362647054021,80746.81241876917,80746.81241876917,294.5141752652454,0.07067005484543494,3.3750820279193774,83.89999999999999,0.7020015695873032
1306893890.27,2.0468485,6.898558,17271.16197,3.1,6.5,132.0,-1.0,466.94286627030556,74610.12550449137,74610.12550449137,296.74565844739465,0.07013807433681976,3.4528620613516807,85.6,0.7034502572513452
1306893890.9,2.0481789,6.8977126,17306.4638084,3.8,6.5,132.0,-1.0,475.48033206337476,70173.83556992954,70173.83556992954,296.8427783045331,0.06996773384817945,3.558862803280737,87.4,0.7048900647754047
1306893891.76,2.0499643,6.8965709,17354.068796800002,3.6,6.5,132.5,-1.0,468.39032932951176,64824.55371219782,64824.55371219782,297.1290378415423,0.06849379274408866,3.6433142052473397,86.4,0.7063807799985018
1306893892.39,2.0512841,6.8957219,17389.436252,3.3,6.5,132.5,-1.0,473.9026710012655,60707.08427297653,60707.08427297653,296.94323485899014,0.06927851299323685,3.5924897917860563,86.60000000000001,0.7075090936467957
1306893893.03,2.0526106,6.8948642,17425.1317912,2.9,6.5,132.5,-1.0,469.7347934052635,58766.114393302836,58766.114393302836,297.7188071408999,0.06926784294464125,3.5997685143311196,85.80000000000001,0.7086065564639438
1306893893.25,2.0530651,6.8945695,17437.4021328,2.8,6.5,132.7,-1.0,468.83061380397817,56931.526868422625,56931.526868422625,298.4788399414734,0.06895113246261628,3.6597234253392683,89.0,0.7097044785986768
1306893893.68,2.0539602,6.8939876,17461.5819236,2.6,6.5,132.7,-1.0,472.9939273372731,55699.95881703612,55699.95881703612,297.0947934221167,0.0703182640971686,3.702195799394457,89.4,0.7106929300422464
1306893894.1,2.0548392,6.8934145,17485.400822,2.4,6.5,132.8,-1.0,476.1652322929534,55073.384712923595,55073.384712923595,298.3290355106253,0.07134264319578738,3.6624006604490997,88.7,0.7116016133318352
1306893894.31,2.0552585,6.8931406,17496.8181452,2.3,6.5,132.8,-1.0,453.7838610923214,53952.18288271384,53952.18288271384,299.2107900426595,0.07389205767425167,3.6181038598975497,87.7,0.7125099904097004
1306893894.94,2.0565636,6.8922859,17532.3496424,2.0,6.5,132.8,-1.0,472.0418265369472,57242.600009673064,57242.600009673064,300.6035942222924,0.07355597371580959,3.7337168892100348,87.1,0.7131463749241361
1306893895.57,2.0578592,6.8914342,17567.749905999997,1.8,6.5,132.8,-1.0,469.2278823659108,59829.99128472037,59829.99128472037,300.12837640192055,0.0745674632587334,3.6632299952960157,86.6,0.7138384134193242
1306893895.78,2.0582904,6.8911501,17579.56093,1.7,6.5,132.8,-1.0,468.98158294974684,62314.42685919877,62314.42685919877,298.0116750912044,0.07516522259709603,3.596316453053764,83.39999999999999,0.7144756400159996
1306893896.42,2.0596027,6.8902835,17615.5845532,1.7,6.5,133.0,-1.0,468.66100419064423,66111.19376484642,66111.19376484642,298.9838175393356,0.07510896213638443,3.5415397918070983,85.10000000000001,0.7150858434280732
1306893897.92,2.062662,6.8882522,17699.7052908,1.7,6.5,133.1,-1.0,467.1654402656714,64888.99192515239,64888.99192515239,299.7713189881897,0.07506728955739503,3.5589750216498754,88.00000000000001,0.7158098044954397
1306893898.76,2.0643795,6.8871054,17747.0806204,1.2,6.5,133.1,-1.0,469.59603615430296,60502.95291453235,60502.95291453235,297.45130493429616,0.07734138172532071,3.5770027402405575,87.70000000000002,0.716561018406201
1306893899.18,2.0652257,6.8865387,17770.505817999998,1.1,6.5,133.1,-1.0,463.02419700437576,57532.69242815931,57532.69242815931,297.08098403890745,0.07817628100150373,3.5482482765578625,85.00000000000001,0.7173382603134626
1306893900.02,2.0669401,6.8853874,17818.012381200002,0.9,6.5,133.2,-1.0,469.8350995384633,54551.80648718277,54551.80648718277,298.0901958424281,0.07686160763531133,3.4211285781320493,85.10000000000001,0.7181699313545823
1306893900.24,2.0673845,6.8850884,17830.381148,0.9,6.5,133.2,-1.0,465.40013002050966,50998.756216177564,50998.756216177564,296.4305084198691,0.07602040225102842,3.4829186398087626,86.80000000000001,0.7189748854228236
1306893900.67,2.0682529,6.884504,17854.2328548,-0.4,5.4,133.0,-1.0,465.0163912080417,52663.325641069394,52663.325641069394,298.2806292868327,0.07348221939868113,3.4825467374882546,86.6,0.71980885305187
1306893900.88,2.0686944,6.8842085,17865.5189444,-3.8,4.8,132.9,-1.0,483.97762820311556,53156.76982860161,53156.76982860161,295.53141010895416,0.07170803927105858,3.477881580986881,87.2,0.7205862480649934
1306893901.52,2.0699897,6.8833447,17893.4717012,-5.6,4.2,132.9,-1.0,463.7423028755649,49219.36466108,49219.36466108,294.05544126657827,0.06966174218610331,3.4511315357024785,87.60000000000001,0.7213462655628062
1306893901.73,2.0704156,6.8830597,17901.280100400003,-5.7,4.2,133.0,-1.0,465.22380260174083,46460.45094616462,46460.45094616462,294.1550875453003,0.0683980745077562,3.536930559018764,87.80000000000001,0.7220969436030512
1306893902.15,2.0712754,6.8824805,17915.650179599998,-6.1,4.4,133.2,-1.0,470.9519399405552,43302.936925195696,43302.936925195696,295.04633499604296,0.07000466675491238,3.5684231767225096,86.10000000000001,0.7227970967089131
1306893902.37,2.0717131,6.8821835,17922.605560400003,-6.5,4.5,133.3,-1.0,458.6354308968131,39736.46640999209,39736.46640999209,295.4251115958802,0.07078954906379084,3.534185874955371,85.60000000000002,0.7233171973213365
1306893903.0,2.0729859,6.8813111,17942.5202592,-7.5,5.0,133.7,-1.0,468.10500045981405,41221.42041365115,41221.42041365115,296.80131693686303,0.06985360436130651,3.5088283122948134,87.40000000000002,0.7237732231306104
1306893903.42,2.073834,6.8807252,17956.3982124,-8.1,5.3,133.8,-1.0,469.5817839587619,45385.52318276414,45385.52318276414,297.62203624605576,0.07232204436002537,3.558679154878391,86.60000000000001,0.7242069720369969
1306893904.06,2.0751153,6.8798364,17979.1016252,-8.7,5.7,133.8,-1.0,466.2924730682432,48824.289057732785,48824.289057732785,296.730088919577,0.07168536796363605,3.635909375459643,89.5,0.7245828469276355
1306893904.27,2.0755323,6.8795472,17987.008449599998,-8.8,5.7,133.8,-1.0,462.226042576094,53942.08053314322,53942.08053314322,296.45556872833146,0.07365971772274114,3.5782955079713687,88.30000000000001,0.7249483106196741
1306893904.71,2.0764227,6.8789333,18004.5609436,-8.7,5.7,133.4,-1.0,470.6074029776514,57879.881634849604,57879.881634849604,295.8575666468315,0.07701115594054317,3.665522761754904,88.3,0.725299076148983
1306893905.13,2.077282,6.8783485,18022.0150124,-8.4,5.7,133.1,-1.0,473.2087647946785,54581.10963867948,54581.10963867948,297.71805659455663,0.07835736149159331,3.6059726037094006,88.89999999999999,0.725664233629298
1306893905.34,2.077706,6.8780622,18030.67643,-7.8,5.6,132.9,-1.0,464.7993890626256,52398.835415357666,52398.835415357666,300.04516397982405,0.07790577842055275,3.6309032017365537,90.60000000000001,0.7259843779862533
1306893905.99,2.0790182,6.8771787,18057.2840424,-6.7,5.2,132.9,-1.0,464.4121577314259,51020.59541443665,51020.59541443665,300.56404555751493,0.07909868618375017,3.575869745464318,91.80000000000001,0.726348387172605
1306893906.63,2.0803145,6.8763008,18082.3824684,-6.9,5.2,132.9,-1.0,467.12819313655154,48261.904949368676,48261.904949368676,299.52631097305533,0.07761721880862331,3.5640083006349244,91.50000000000001,0.7267374291673556
1306893906.84,2.0807331,6.8760162,18090.0924424,-7.1,4.8,132.9,-1.0,459.82043990172843,48306.22199826472,48306.22199826472,297.5377787621933,0.07541941480178585,3.6139827734035004,91.50000000000001,0.7271282318795167
1306893907.47,2.0820149,6.8751445,18112.8942804,-3.8,5.2,132.9,-1.0,470.09749169379074,51155.0884662169,51155.0884662169,296.4014850374137,0.07355363530012797,3.6705436607384563,91.60000000000001,0.7275257712495954
1306893908.1,2.0832823,6.8742797,18135.597693199998,9.8,5.2,133.3,-1.0,465.30459006572255,52447.628309501946,52447.628309501946,295.72000685283643,0.0721364477412157,3.549876895024328,95.0,0.7279439033580818
1306893908.31,2.0837123,6.8739838,18143.4389008,14.1,6.2,133.5,-1.0,475.95084636963765,52935.25775901046,52935.25775901046,296.65838937187516,0.07406418860827355,3.496775890131384,92.1,0.7283273569888781
1306893908.95,2.0849894,6.8730906,18174.6396892,16.1,8.2,134.2,-1.0,466.9986943838841,52676.556824321284,52676.556824321284,298.2929372261719,0.07401843696118711,3.5914202452388473,92.8,0.7287651632006015
1306893909.58,2.0862228,6.8722054,18213.780110400003,5.1,9.4,134.6,-1.0,464.2094951553824,50999.76876487465,50999.76876487465,296.6470242199206,0.07078506223368362,3.4966159898104614,94.9,0.7292533412408466
1306893909.79,2.0866304,6.8719115,18228.675124,4.6,12.4,134.5,-1.0,461.33643477462516,48911.549526700364,48911.549526700364,296.26311259313786,0.0712843661614896,3.494599938292712,92.4,0.7297355481524826
1306893910.21,2.0874564,6.8713204,18267.7827368,2.3,17.9,134.1,-1.0,468.071768790592,49072.42541311809,49072.42541311809,295.53312529465177,0.07316747247126484,3.5764633138857547,90.1,0.7302887961839787
1306893910.43,2.0878795,6.8710206,18294.2591156,1.1,20.3,133.9,-1.0,458.3587337878402,49221.32499942524,49221.32499942524,294.5954637692508,0.07124594738305523,3.60292100439865,92.1,0.7308417380037511
1306893911.07,2.0891129,6.8701635,18400.59114,-3.8,26.4,132.8,-1.0,461.780592497123,50717.23810014991,50717.23810014991,295.5715237671176,0.0732490285253204,3.6284339568965223,93.9,0.7315842248803917
1306893911.29,2.0895256,6.8698834,18446.457283199998,-4.7,28.3,132.4,-1.0,453.4260231317597,52356.25770216448,52356.25770216448,296.3799082144662,0.07462587090679307,3.5515653801125846,93.7,0.7324157428156497
1306893911.72,2.090325,6.8693482,18550.919228799998,-2.4,32.0,131.8,-1.0,454.9954162673027,54817.58253773745,54817.58253773745,298.5941847672269,0.07627844698723515,3.460553482536832,91.9,0.7334378009958772
1306893912.14,2.0910807,6.8688483,18670.1449544,-1.1,35.5,131.4,-1.0,450.8769145422377,59364.50061011173,59364.50061011173,298.18058185801937,0.0771575284407235,3.5566329162145087,88.7,0.7346850778987644
1306893912.35,2.0914354,6.8686148,18733.5635916,-0.4,37.5,131.3,-1.0,432.3069978952379,62782.153962032346,62782.153962032346,297.8224835002178,0.07646643902275986,3.621333919892739,91.69999999999999,0.7360620354665683
1306893912.98,2.0924651,6.8679329,18949.0163544,2.0,42.8,131.4,-1.0,435.5233445852837,70553.78053938977,70553.78053938977,296.98520986701016,0.07733531041239933,3.5178267129599337,91.10000000000001,0.7378689142942149
1306893913.61,2.0934083,6.8672861,19197.5399844,4.3,47.8,132.2,-1.0,433.55460656351363,75467.169465703,75467.169465703,298.1508860522033,0.07958247122427575,3.5472747686542703,91.60000000000001,0.7401643539267607
1306893913.82,2.0936931,6.8670831,19285.039987199998,5.2,49.5,132.6,-1.0,421.4108037550659,78148.91534282574,78148.91534282574,298.28639183857115,0.08085813113663512,3.610884936149628,90.9,0.7426292051953522
1306893914.46,2.0944907,6.866485,19571.03081,7.9,54.4,134.0,-1.0,421.0718471174485,82739.57000247671,82739.57000247671,297.6841502983021,0.08124337884355469,3.5145760037897404,93.20000000000002,0.7456701172688431
1306893915.09,2.0951525,6.8659364,19873.7211084,11.0,59.0,136.0,-1.0,414.30036037683425,82873.55951357959,82873.55951357959,297.87045234324256,0.08369858250319955,3.4908102658389937,90.0,0.7493555284674431
1306893915.3,2.0953424,6.8657648,19977.1659936,12.2,60.6,136.8,-1.0,404.5176579129839,77823.86161754832,77823.86161754832,297.7042707202758,0.08072092745405557,3.5172540048111536,87.5,0.7530342030081255
1306893915.94,2.0958322,6.865271,20299.6725656,16.2,65.1,139.8,-1.0,397.18645961197535,77573.84822421132,77573.84822421132,297.2116624394407,0.0807580970230689,3.5408476501591215,87.3,0.7573583718620189
1306893916.58,2.0961948,6.8648128,20635.2040724,21.3,69.3,143.7,-1.0,393.5498342452884,71142.57167701646,71142.57167701646,295.2235574589151,0.08034692834336475,3.62061134041708,88.2,0.7622217030081256
1306893916.79,2.0962868,6.8646683,20748.917986800003,23.1,70.5,145.2,-1.0,396.5830116662733,61586.679904822966,61586.679904822966,294.10168500875625,0.08006387104443577,3.633941050170241,90.5,0.767072173261844
1306893917.22,2.0964269,6.8643925,20977.198834000003,27.2,73.4,148.9,-1.0,382.53160570694524,57767.27198838549,57767.27198838549,295.3016247960552,0.07842401446028123,3.6002967187810775,90.7,0.7723073219932525
1306893917.65,2.0965114,6.8641295,21209.5807312,31.7,75.7,153.2,-1.0,383.4125989647863,51904.70157596493,51904.70157596493,296.97362618915105,0.07625905932238786,3.657602782446482,91.00000000000001,0.777581972036997
1306893917.86,2.0965318,6.864009,21321.2277164,34.4,76.8,155.7,-1.0,373.67018685538164,46173.47994663835,46173.47994663835,295.5520086293816,0.0741543450927047,3.642373795427967,89.10000000000001,0.7825372432530949
1306893918.5,2.096515,6.8636604,21663.9114544,43.6,79.6,164.4,-1.0,373.60634391654287,46528.49501123107,46528.49501123107,294.4350895492187,0.07297683915563029,3.615402862684751,90.3,0.788087943165606
1306893918.93,2.0964397,6.8634468,21889.4035876,50.7,81.1,171.3,-1.0,364.3761180239487,49996.98538126135,49996.98538126135,294.9816992560926,0.07228482784986758,3.709325002020642,87.5,0.7934974794735674
1306893919.56,2.0962364,6.8631527,22221.3261704,63.2,82.5,183.4,-1.0,367.112168577134,56531.68811678875,56531.68811678875,294.7824842809547,0.07224009464342561,3.745104984469025,89.1,0.7989752244429463
1306893919.77,2.0961493,6.8630647,22325.919349599997,67.3,82.7,187.5,-1.0,348.69972022272816,62290.23389706131,62290.23389706131,294.09718803356134,0.07156379850392494,3.7010441798074623,89.9,0.804455648764906
1306893920.19,2.0959344,6.8628898,22541.3064956,76.3,82.7,196.2,-1.0,361.7750803986861,71788.14820556669,71788.14820556669,294.3002780499504,0.07178786189433463,3.7557559700591012,89.20000000000002,0.8096861277675308
1306893920.4,2.0958119,6.8628076,22646.293375600002,80.9,82.7,200.8,-1.0,355.60993240286706,77086.8747237819,77086.8747237819,294.59093733631494,0.07033145835350423,3.6425642476935978,91.10000000000002,0.814378669324836
1306893921.03,2.0953867,6.8625787,22951.8051964,93.4,81.6,212.9,-1.0,349.786176865253,80596.82749893579,80596.82749893579,296.0130234107867,0.07051853900055674,3.662956235355725,89.5,0.8195187393160873
1306893921.24,2.0952285,6.8625088,23049.2461444,97.4,81.0,216.9,-1.0,340.35833356983295,84997.98128939398,84997.98128939398,295.3897174294222,0.07149090312861921,3.7334095554740143,86.9,0.8243535162189742
1306893921.66,2.0948814,6.8623745,23242.1923448,104.4,79.6,223.7,-1.0,342.2030911746857,86775.67780620436,86775.67780620436,294.64647422355284,0.07231243614759791,3.756085267297611,86.79999999999998,0.8290962764989394
1306893921.88,2.0946832,6.8623071,23342.028306,107.7,78.7,226.9,-1.0,343.97717129913,86515.1262484352,86515.1262484352,294.66362774748245,0.07353404736894505,3.7367150915843155,84.8,0.8338114777237859
1306893922.54,2.0940366,6.8621205,23629.0361892,116.1,75.6,235.1,-1.0,338.5895656087869,85836.79250248741,85836.79250248741,295.58504064687224,0.07149320670966372,3.738997465051378,84.5,0.8383967686249233
1306893922.76,2.093803,6.8620628,23721.129367999998,118.5,74.4,237.4,-1.0,336.2378515123728,83643.57008098954,83643.57008098954,296.4059365165782,0.07254586766794956,3.7262393735328367,86.0,0.8426707953090881
1306893923.19,2.0933186,6.8619556,23896.7199248,122.6,72.1,241.3,-1.0,336.44458714509545,79478.35731110648,79478.35731110648,297.334328100225,0.0700566124289804,3.616723530974501,84.00000000000001,0.8465800472775921
1306893923.4,2.0930666,6.8619058,23981.0703212,124.9,70.8,243.3,-1.0,340.2629754561483,77388.98150875306,77388.98150875306,298.83928833849353,0.07314755112906152,3.610724231959862,83.6,0.8504420660877406
1306893924.05,2.0922721,6.8617712,24222.3761032,130.6,66.5,248.1,-1.0,326.3551289600704,74064.34679586778,74064.34679586778,300.2681102324465,0.07219221857299042,3.662790465055194,84.2,0.8543645617132875
1306893924.26,2.0919964,6.8617312,24298.6884416,132.3,65.0,249.5,-1.0,332.72524741820644,72395.06245883733,72395.06245883733,299.8445434362856,0.07600071037282415,3.6907436107246463,81.80000000000001,0.858220150077242
1306893924.69,2.0914179,6.8616562,24448.196320400002,135.5,62.4,251.9,-1.0,328.93851401287577,69937.1931630226,69937.1931630226,299.41974795541904,0.07396934190048654,3.597168463100998,81.5,0.8617117292548445
1306893924.91,2.0911234,6.8616222,24519.2593148,137.0,61.0,253.0,-1.0,316.4218974749538,68545.02035646145,68545.02035646145,300.27331905211594,0.07663138493071195,3.4896626459487075,83.60000000000001,0.865141759876017
1306893925.33,2.0905224,6.8615602,24654.7251984,139.7,59.6,255.0,-1.0,328.1660359097678,67223.89195861411,67223.89195861411,298.41428441775514,0.07614093391865173,3.5362230878182426,83.4,0.8684376697622814
1306893925.54,2.0902232,6.8615331,24717.4548592,140.7,58.1,256.1,-1.0,317.1179773938323,65106.472964121436,65106.472964121436,300.7541544360653,0.07655693257244102,3.6380592195619035,83.4,0.8716469982837163
1306893925.97,2.0895842,6.8614825,24841.864312,142.2,55.1,257.9,-1.0,321.6368166099938,62794.461559106094,62794.461559106094,301.7760301635743,0.0777325139282541,3.5588709606839735,85.80000000000001,0.8744769304796917
1306893927.25,2.0875709,6.8613943,25166.962747600002,69.9,48.1,264.6,-1.0,321.45865665859446,61261.21854759452,61261.21854759452,299.1804224949494,0.07566191606054341,3.539918178827571,84.00000000000001,0.8778505415908028
1306893927.47,2.0872199,6.8613922,25217.979809599998,66.6,45.6,265.6,-1.0,319.24544886981846,57997.635862633266,57997.635862633266,299.90947590169026,0.07810429816222092,3.560733768102946,84.0,0.8809334812233489
1306893927.68,2.0868858,6.861393,25265.650414800002,62.9,42.4,266.4,-1.0,317.4571695458161,55590.63497557215,55590.63497557215,298.97274386151344,0.07527936040042892,3.631131030322404,86.0,0.8839308346791668
1306893928.1,2.0862045,6.8613995,25359.7777144,51.0,35.2,267.0,-1.0,321.8288619286759,51691.78892483126,51691.78892483126,299.32972321052193,0.07486503901301432,3.5406572078689895,86.19999999999999,0.8865847716870409
1306893928.31,2.0858517,6.8614037,25406.660917999998,45.6,31.5,267.0,-1.0,330.54848116802214,47391.317613757215,47391.317613757215,299.98648662553904,0.07366701649180367,3.5495329410387835,88.9,0.8891700407159121
1306893928.94,2.0848231,6.86141,25532.973257999998,37.5,18.8,265.8,-1.0,315.8939251154157,44376.80995609525,44376.80995609525,298.72259415223397,0.07303223048138378,3.522660273230847,88.4,0.8917011868226488
1306893929.15,2.0844661,6.8614086,25572.4089548,35.7,17.3,265.3,-1.0,321.99433993821606,41109.19019485239,41109.19019485239,297.41346242788387,0.06925045699719007,3.639040420646695,85.20000000000002,0.8941585359040137
1306893929.36,2.0841213,6.8614052,25608.2029192,33.6,15.7,264.7,-1.0,307.8622850746742,39707.308380461734,39707.308380461734,297.44064904236603,0.06896373684652306,3.5118356996175866,84.39999999999999,0.8963833171813539
1306893930.21,2.0826537,6.8613722,25736.057254,28.4,9.2,262.9,-1.0,315.98710140423816,38653.974448892164,38653.974448892164,296.29623075157065,0.06908043621359558,3.47805185475015,87.7,0.8987600560264984
1306893930.64,2.0818952,6.8613445,25787.0086992,27.2,5.6,262.1,-1.0,314.9742627656941,37087.42815627417,37087.42815627417,294.48307152775885,0.07035713162425149,3.610303197284794,84.5,0.9009653928593943
1306893930.86,2.0814924,6.8613272,25810.007387600002,26.6,3.9,261.7,-1.0,323.9280457711385,35520.446630874234,35520.446630874234,295.326670553796,0.07223814175200055,3.5177998487249367,85.60000000000002,0.9024658303047137
1306893931.08,2.0811012,6.8613086,25829.692427600003,26.1,2.1,261.3,-1.0,312.4202892542058,36042.311653713536,36042.311653713536,296.0894889370598,0.07047825769811561,3.577816154354863,88.70000000000002,0.9038931597010391
1306893931.5,2.0803446,6.8612681,25860.433898400002,25.6,-1.4,260.6,-1.0,314.16487328523965,33611.85480428661,33611.85480428661,294.617043012691,0.07083643318230833,3.480406081828394,86.30000000000003,0.9052809877850285
1306893931.71,2.0799559,6.861245,25872.540198,25.4,-3.0,260.3,-1.0,320.7576624557475,32551.398703903084,32551.398703903084,293.00201323070473,0.07118762423859035,3.454582584912507,85.10000000000001,0.9064774335418088
1306893931.92,2.0795745,6.8612209,25881.923400400003,25.3,-4.8,259.9,-1.0,313.83543084268445,33897.419507662446,33897.419507662446,293.7235862675798,0.06969169895773838,3.5436769758664277,85.10000000000001,0.9075863792985893
1306893932.55,2.0784068,6.8611387,25896.49033,24.9,-3.7,259.1,-1.0,318.9770624037186,30103.03485083852,30103.03485083852,296.3843289348122,0.07057850462331443,3.539563504380577,87.0,0.90843458577278
1306893932.76,2.0780144,6.8611092,25897.2449232,24.9,-3.6,259.0,-1.0,320.8802320083103,28743.673588787817,28743.673588787817,296.03490759348887,0.0721063247621602,3.469155136983884,87.9,0.9091925363414589
1306893932.97,2.0776238,6.8610791,25896.2278628,24.9,-5.8,258.8,-1.0,319.501565311319,27743.919836711728,27743.919836711728,297.4688916337029,0.07475893540712214,3.513409381558392,88.7,0.9098645945216864
1306893933.61,2.0764042,6.8609796,25880.1189384,24.9,-16.5,258.0,-1.0,327.8096081177059,24652.445270920598,24652.445270920598,296.9817600709863,0.07555030423549054,3.4494289080454026,87.30000000000001,0.9102007384411965
1306893933.83,2.0759797,6.8609418,25869.095316,24.9,-18.6,257.6,-1.0,333.2115037997766,22512.048693217777,22512.048693217777,297.62224910103794,0.07329068181528578,3.310733561176405,87.50000000000001,0.9103922738742674
1306893934.25,2.0751958,6.8608675,25840.945708799998,24.9,-21.9,256.9,-1.0,323.559817041386,25736.509004583797,25736.509004583797,297.28845652004406,0.07056250168496354,3.4215045375581847,89.50000000000001,0.9104644632880907
1306893934.46,2.074795,6.8608272,25822.6058132,24.9,-23.6,256.5,-1.0,332.73741266699847,24189.856775022872,24189.856775022872,295.1561397876317,0.07293862457326034,3.3453110652867104,87.10000000000001,0.9104479278550198
1306893935.11,2.0735455,6.8606919,25748.8197216,27.9,-21.5,255.6,-1.0,338.8758828800695,25107.49344768461,25107.49344768461,294.7903269710058,0.07245477705757702,3.418823800303976,87.39999999999999,0.9101874947841536
1306893935.32,2.0731464,6.8606467,25720.8341564,29.5,-19.6,255.5,-1.0,338.3455522105834,28423.07070842112,28423.07070842112,295.1949125637901,0.07419970868003159,3.4752214707943145,88.7,0.9098335140317476
1306893935.76,2.0722996,6.8605502,25656.792159599998,32.3,-14.8,255.7,-1.0,344.7745260963159,27661.055883195306,27661.055883195306,294.8094611061853,0.07702488934248108,3.3440029175602266,88.8,0.9093082078200241
1306893935.97,2.0718814,6.8605037,25623.721292399998,33.4,-12.4,256.1,-1.0,358.5737755918605,28596.226629891735,28596.226629891735,292.31093834582714,0.07954199254763257,3.4522183827295656,88.60000000000001,0.9086717467526576
1306893936.39,2.0710494,6.860417,25557.2842824,36.2,-8.0,257.2,-1.0,356.94919820375304,32974.84679851126,32974.84679851126,291.85972556249976,0.07878499714052138,3.5111555614910506,88.10000000000002,0.9078785052828412
1306893936.6,2.0706315,6.8603774,25524.1477984,37.7,-7.9,258.0,-1.0,358.57514080221983,34500.20316957649,34500.20316957649,292.98564220786756,0.0769646280389138,3.5451334926335534,88.90000000000002,0.9070103184936898
1306893937.23,2.0693312,6.8602745,25422.7042256,41.7,-6.1,260.4,-1.0,371.9065718593318,37287.29340574493,37287.29340574493,293.1395312507299,0.07575042927822688,3.568182060861815,90.1,0.9059430175313102
1306893937.44,2.0689108,6.8602486,25390.6504188,41.9,-5.9,261.4,-1.0,360.22519973198666,42672.476339742694,42672.476339742694,293.12036799822096,0.07680169410461607,3.706756903248931,90.39999999999999,0.9048266461402341
