timestamp,longitude,latitude,altitude,roll,pitch,yaw,heading,air_speed,engine_0,engine_1,temperature_in,humidity_in,pressure_in,heart_rate,oxygen_mask
1306893631.32,1.3424986,7.0011117,147.5065664,-1.0,4.0,-1.0,-1.0,156.09908533229742,538.9344955890773,538.9344955890773,295.8086607171095,0.07121438067222775,3.8402430689864437,87.30000000000001,0.2943066153466241
1306893631.74,1.3427675,7.0013055,147.6706084,-1.0,6.0,-1.0,-1.0,156.09908533229742,769.8746416572463,769.8746416572463,295.193605114564,0.06897311616626176,3.772911715418442,89.20000000000002,0.2942633629406749
1306893632.16,1.3430496,7.0015086,147.7690336,-1.0,7.3,-1.0,-1.0,164.00681368256656,1090.3230496150063,1090.3230496150063,295.611686637852,0.06920390758991576,3.6633321436367954,90.60000000000001,0.29423442593280086
1306893632.58,1.3433282,7.0017094,147.83465040000002,-1.0,8.1,-1.0,-1.0,161.9733419818894,1125.5707270416017,1125.5707270416017,294.76142614184823,0.06953485967714629,3.6818331912453206,92.50000000000001,0.2942167422057667
1306893633.01,1.3436237,7.0019222,147.9002672,-1.0,8.7,-1.0,-1.0,167.8455987388324,1425.4185751856753,1425.4185751856753,296.24840994219613,0.06765248194121828,3.742384768648715,92.5,0.2942074793011298
1306893634.5,1.3446978,7.0026959,149.7047292,-1.0,10.3,-1.0,-1.0,176.35844216958512,1425.4185751856758,1425.4185751856758,296.2484099421962,0.06765248194121827,3.7423847686487157,92.5,0.2942074793011298
1306893634.92,1.3450097,7.0029207,151.8700836,-1.0,10.5,-1.0,-1.0,181.93241130936437,1125.5707270416015,1125.5707270416015,294.76142614184823,0.06953485967714629,3.6818331912453215,92.5,0.2942167422057667
1306893635.36,1.3453462,7.0031634,155.4133908,-1.0,10.7,-1.0,-1.0,187.55733358530563,1090.3230496150068,1090.3230496150068,295.611686637852,0.06920390758991576,3.6633321436367954,90.6,0.29423442593280086
1306893635.79,1.3456807,7.0034048,160.1706088,-1.0,10.8,-1.0,-1.0,191.06657145707283,769.8746416572463,769.8746416572463,295.193605114564,0.06897311616626177,3.7729117154184433,89.2,0.2942633629406749
1306893636.22,1.3460192,7.0036494,166.20735439999999,-1.0,10.9,-1.0,-1.0,193.54858906802554,538.9344955890774,538.9344955890774,295.8086607171095,0.07121438067222774,3.840243068986444,87.3,0.2943066153466241
1306893637.52,1.3470747,7.0044149,192.1587988,-1.0,10.8,-1.0,-1.0,200.37596618230137,606.0392487955259,606.0392487955259,294.2100454699798,0.06732324796969107,3.789626561005559,89.2,0.29441080388555674
1306893638.8,1.3481713,7.0052165,228.44488919999998,0.2,10.8,-1.0,-1.0,212.9008397183189,959.0169396785028,959.0169396785028,294.01056397504135,0.06930183935782736,3.845723815553097,88.0,0.2945992772013923
1306893639.66,1.348939,7.0057824,258.4645752,0.3,10.8,-1.0,-1.0,223.34844390359135,1346.534110950257,1346.534110950257,294.84725138316367,0.07123374826900093,3.9394223710687544,86.89999999999999,0.2948575667901937
1306893640.09,1.3493278,7.0060706,274.934392,0.4,10.8,-1.0,-1.0,227.1032967784113,2054.169131679619,2054.169131679619,296.0969223898269,0.07463278346141794,3.906329529810165,87.1,0.295154132844437
1306893640.51,1.3497179,7.006361,292.1916104,0.4,10.8,-1.0,-1.0,234.14432760947733,2672.445958721462,2672.445958721462,296.9045621973698,0.07425625801478847,3.872630622948396,88.7,0.2954908126344632
1306893640.95,1.3501318,7.0066708,311.351716,0.6,10.8,-1.0,-1.0,237.9582967365012,3088.1489885929464,3088.1489885929464,297.5642820397516,0.07398604018705675,3.7907286830285245,87.80000000000001,0.2958679889249269
1306893641.37,1.3505308,7.0069708,330.51182159999996,0.7,10.8,-1.0,-1.0,241.05200127913466,3415.612698770565,3415.612698770565,298.25453650225137,0.07548366081025858,3.7332625325106967,87.7,0.2962848196335883
1306893641.79,1.3509423,7.0072815,350.9514548,0.7,10.3,-1.0,-1.0,249.51004119703668,3794.373681186121,3794.373681186121,299.3576173460651,0.07608431143928059,3.644644176288398,87.40000000000002,0.29674107510165476
1306893642.22,1.3513625,7.0076003,372.5065736,1.0,10.3,-1.0,-1.0,249.62686142451486,3931.547991290007,3931.547991290007,301.32463908546237,0.07565136558777015,3.638507942554907,87.7,0.29723652567033365
1306893642.64,1.3517805,7.007919,394.356968,1.2,10.1,-1.0,-1.0,254.96780066157436,4510.472734800762,4510.472734800762,301.0109290074717,0.07311967187693708,3.634219710349918,87.7,0.29776887475169844
1306893643.06,1.3522054,7.0082443,416.5682548,1.4,9.9,44.9,-1.0,259.83156158995274,5207.1253829226125,5207.1253829226125,301.61537147240574,0.07329652841188963,3.5728000903682866,87.60000000000001,0.2982924967989426
1306893643.48,1.3526333,7.0085734,438.5826912,1.6,9.7,44.9,-1.0,262.2511400368231,5741.974617398787,5741.974617398787,301.34958432489105,0.07372293906317245,3.5716829735999136,87.20000000000002,0.2987828183212523
1306893643.9,1.3530706,7.008911,460.4330856,1.8,9.5,44.9,-1.0,268.6135228846606,6551.609209675088,6551.609209675088,299.3040001565128,0.07201215834544254,3.564801344572889,88.20000000000002,0.29925407816377203
1306893644.33,1.3535198,7.0092593,481.9882044,2.0,9.3,44.9,-1.0,269.7974471637372,7242.840947383656,7242.840947383656,299.931221384449,0.06829733847329356,3.50348703904202,88.90000000000002,0.29973720371057866
1306893644.75,1.3539718,7.0096108,502.6574964,2.3,9.3,45.1,-1.0,278.44890920006134,7776.988400257247,7776.988400257247,299.4496045174036,0.07186108805975308,3.488108619240741,87.9,0.3002282907621972
1306893645.18,1.3544442,7.0099792,523.0643212,2.6,9.3,45.1,-1.0,284.52365556956596,8157.410964195225,8157.410964195225,298.3117196871001,0.07332940137996308,3.4584348870416646,86.10000000000001,0.3007222868251893
1306893645.62,1.3549279,7.0103572,542.7821696,2.9,9.3,45.1,-1.0,284.8008340856497,8441.48103230571,8441.48103230571,297.86317912072485,0.07291190145864354,3.4951563968353443,88.10000000000001,0.30121758428800643
1306893646.04,1.3553995,7.0107263,560.8924064,3.2,9.3,45.3,-1.0,291.1348610903845,8824.466234643949,8824.466234643949,295.8512016677498,0.07404640022904947,3.4851884933152997,91.7,0.30170744649273085
1306893646.47,1.3558906,7.0111109,578.740176,3.5,9.1,45.4,-1.0,296.12215819352394,9308.673659006374,9308.673659006374,293.34363868674967,0.07480513793652975,3.424033920414576,92.4,0.30218865821626545
1306893646.89,1.3563866,7.0114993,596.29267,3.8,9.3,45.5,-1.0,306.2339364285638,9841.882420004706,9841.882420004706,292.9606177795665,0.07433187535181864,3.419486826159347,96.0,0.30265984150585423
1306893647.31,1.3568788,7.0118846,613.7467388,4.1,9.5,45.6,-1.0,303.8737653444564,10389.781418513436,10389.781418513436,292.80448851074897,0.07458692505161778,3.499348727654356,94.00000000000001,0.3031199246204649
1306893647.73,1.3573849,7.0122803,632.1522512,4.3,9.7,45.7,-1.0,312.44991698549666,11501.730775160177,11501.730775160177,293.93878640969183,0.07285040824990852,3.456971816882519,94.2,0.30357158691267844
1306893648.15,1.3578957,7.0126784,651.3779736,4.6,9.9,45.9,-1.0,314.95696006404097,12012.955521222353,12012.955521222353,294.89237867244094,0.07182792270577684,3.451224254060168,94.60000000000001,0.30401712497042116
1306893648.58,1.3584342,7.0130957,672.4737748,4.7,10.1,46.0,-1.0,323.62140773402564,13199.050637027529,13199.050637027529,293.93062479271845,0.07397422924480804,3.5349188653417847,93.6,0.30446159128713157
1306893649.0,1.3589568,7.0134981,693.7664264,4.8,10.1,46.2,-1.0,320.5524892055308,14269.602987484779,14269.602987484779,294.3042744168791,0.07385700941894208,3.460513103706759,92.2,0.30490751210952877
1306893649.44,1.3595232,7.0139315,717.6509416,4.9,10.1,46.3,-1.0,330.87458907740125,15806.27306534077,15806.27306534077,293.578628462635,0.07069516659456573,3.461998736824631,93.6,0.3053615475425996
1306893649.86,1.3600731,7.0143498,741.5026484,4.9,10.1,46.5,-1.0,335.6545790854057,16961.964257331147,16961.964257331147,294.73047188714656,0.06933468056840969,3.4216532935551496,93.89999999999999,0.3058252286449618
1306893650.29,1.3606576,7.0147917,767.388476,4.9,10.1,46.6,-1.0,347.6993840912568,18130.08096424238,18130.08096424238,296.65521718873055,0.06814490421914937,3.528516307674279,91.2,0.3063070527919434
1306893650.71,1.3612262,7.015219,792.979028,4.8,10.1,46.6,-1.0,345.29090985798126,18775.342780277595,18775.342780277595,296.6949132364247,0.07075059807733661,3.4915822819936753,92.2,0.3068069434306137
1306893651.15,1.3618296,7.0156701,821.194252,8.5,13.3,47.0,-1.0,349.0318607031667,19328.98822423375,19328.98822423375,296.1961460308488,0.07412558614644514,3.535816077189131,92.39999999999999,0.307331713771821
1306893651.58,1.3624252,7.0161078,853.3136755999999,28.7,14.7,47.8,-1.0,350.58384382155504,20406.592820245816,20406.592820245816,296.61784356479166,0.0762879963683741,3.5438967341880985,91.5,0.30789070327313334
1306893652.0,1.3630285,7.016531,889.4685324000001,40.8,15.6,49.5,-1.0,356.45512254584594,22006.677936368003,22006.677936368003,297.2776170832694,0.07659619393402313,3.5346495979518076,91.1,0.30849110791005374
1306893652.43,1.3636695,7.0169521,930.0197148000001,43.3,15.4,51.3,-1.0,359.7376570720147,24501.09137167426,24501.09137167426,298.01089638735255,0.07722858446116328,3.567190816372599,89.69999999999999,0.30914127195204844
1306893652.85,1.364326,7.0173561,972.3753591999999,48.5,16.1,53.2,-1.0,367.3991838387783,26965.416923057102,26965.416923057102,297.2086030685514,0.07797074325199045,3.449878731872555,90.3,0.3098410422932558
1306893653.28,1.3650138,7.0177485,1017.2900588,53.6,16.8,55.5,-1.0,365.4575393459499,29290.083716566347,29290.083716566347,295.4898365639068,0.07552117842076683,3.5009239798505627,93.3,0.3105959307446994
1306893653.72,1.3657552,7.018136,1065.7152572,55.3,16.5,57.9,-1.0,373.54629649043443,31537.357476249435,31537.357476249435,296.3113312305833,0.07788252933946133,3.6000477231191503,92.9,0.31140808078844384
1306893654.14,1.3664818,7.0184841,1112.6312692,56.8,16.6,60.1,-1.0,373.3437227148995,33316.21858899748,33316.21858899748,295.542429076708,0.07591978885179267,3.702408650471478,89.80000000000001,0.31227404754259963
1306893654.56,1.3672361,7.0188148,1160.6299583999999,58.5,16.9,62.4,-1.0,378.2065657291155,34360.26145562939,34360.26145562939,296.23131824337895,0.07872379921010758,3.6650444201784063,90.3,0.3131916109721709
1306893654.99,1.3680217,7.0191273,1209.9081752,59.3,16.7,64.7,-1.0,375.84477502831834,35511.48847015077,35511.48847015077,298.5322782884763,0.07852921569366864,3.7482832541544227,88.3,0.31416444561784024
1306893655.41,1.3688268,7.0194165,1259.4816676,59.8,16.7,67.1,-1.0,386.1570041110239,36318.906877701615,36318.906877701615,300.18539403810985,0.07811313845293312,3.67377168005351,84.9,0.3151871162215148
1306893655.84,1.3696479,7.0196817,1309.1863936,60.3,16.7,69.3,-1.0,377.46107681670924,36424.207226012535,36424.207226012535,299.81246903942065,0.07741819677811738,3.642281467860287,87.70000000000002,0.3162508191961429
1306893656.26,1.3704896,7.0199238,1359.3176288,60.7,16.5,71.6,-1.0,389.6309012595083,37375.5570596102,37375.5570596102,298.24707249566393,0.07882421595914367,3.7445923631717486,88.70000000000002,0.31734713371932755
1306893656.68,1.3713529,7.0201427,1409.9081816,60.9,16.5,73.9,-1.0,393.8146434624471,37997.23951613578,37997.23951613578,299.0153969250649,0.08129114353933524,3.6663025373257048,88.2,0.31846687343936253
1306893656.89,1.3717936,7.0202436,1435.4331167999999,60.9,16.5,75.0,-1.0,398.14706558708167,38462.3881791154,38462.3881791154,299.0284475273668,0.07891428590469339,3.793303384307006,88.69999999999999,0.31954734150585423
1306893657.32,1.3726946,7.0204277,1487.1063468,61.1,16.5,77.3,-1.0,394.0275807261981,39737.05445236822,39737.05445236822,299.398099628152,0.08072472658099011,3.774938869129515,88.7,0.32064357947610794
1306893657.74,1.3736103,7.0205855,1539.0092356,61.1,16.5,79.6,-1.0,405.8033268015761,41540.97241475635,41540.97241475635,299.6590445625228,0.08168966851499629,3.6640935888980497,88.4,0.3217479320570354
1306893658.18,1.3745721,7.0207209,1592.9134368,61.1,16.5,81.9,-1.0,403.62186523084733,43061.13265640178,43061.13265640178,300.86862835752163,0.08359874084048784,3.5747736771700653,89.10000000000001,0.322868590412241
1306893658.61,1.3755108,7.020824,1645.0459844000002,61.1,16.5,84.1,-1.0,403.0858541208936,46722.18260079124,46722.18260079124,300.74049232938006,0.08006992135425132,3.506514840967527,88.60000000000001,0.3239988944367379
1306893659.05,1.3765047,7.0209031,1699.8688208,61.1,15.9,86.5,-1.0,415.4316610277192,53198.388368298496,53198.388368298496,298.76234867895795,0.07979570290070136,3.446315390944668,89.5,0.32514213590655416
1306893659.48,1.3774808,7.0209512,1753.4121296,61.1,15.8,88.7,-1.0,416.8372381740864,58182.94444800694,58182.94444800694,298.29972174072293,0.07995757108784043,3.4458044091842357,89.19999999999999,0.3262946402810074
1306893659.9,1.378455,7.0209709,1806.6273543999998,61.1,15.8,90.9,-1.0,425.86656354714785,65415.51365547845,65415.51365547845,297.1710953583762,0.07841156732387507,3.514515358152964,89.3,0.32745533581906505
1306893660.33,1.3794511,7.0209623,1860.9908732000001,61.1,15.8,93.1,-1.0,426.09855609192715,71546.262768115,71546.262768115,297.2012735401107,0.07492700268151936,3.482122052510345,89.7,0.3286259066852068
1306893660.75,1.3804212,7.0209263,1913.8452056,60.4,15.2,95.2,-1.0,426.2073474825479,76843.37565985307,76843.37565985307,296.211145117827,0.07565163850591737,3.491126846480078,91.10000000000001,0.32980175970357956
1306893661.17,1.3814048,7.020866,1966.9948135999998,54.9,13.6,96.7,-1.0,433.4961872485981,81921.45972178632,81921.45972178632,297.61192329087237,0.07683553274281034,3.3803155246537933,90.40000000000002,0.33104207028975624
1306893661.6,1.3824228,7.020787,2020.3740804,46.5,12.7,97.8,-1.0,439.04176286005514,88067.07496331417,88067.07496331417,298.64964111484664,0.07675519850737915,3.4437864737209307,87.10000000000001,0.3322863616283389
1306893662.03,1.3834527,7.0206945,2072.7690952,40.1,12.7,98.6,-1.0,444.814898667599,92662.43224121674,92662.43224121674,297.97821077971986,0.07453250980611544,3.452875871433986,87.60000000000001,0.3335318012608849
1306893662.5,1.3845883,7.0205787,2129.6588608,33.2,12.7,99.5,-1.0,449.55701849684095,97298.18808749762,97298.18808749762,296.1313206623396,0.0758698740538853,3.532569265273052,88.20000000000002,0.33478420721014124
1306893662.94,1.3856585,7.0204583,2183.1365527999997,26.5,12.7,100.2,-1.0,453.80631652657246,101079.76838749407,101079.76838749407,293.6677157686566,0.07813307128517737,3.5308649165774515,90.9,0.3360397518295638
1306893663.36,1.386686,7.0203342,2234.7113576,20.8,12.7,100.8,-1.0,457.43344603882605,103328.37661000715,103328.37661000715,295.1437014395423,0.07641223346370635,3.5774405516022454,91.10000000000001,0.33728771770882887
1306893663.79,1.3877494,7.0201992,2288.5171336,16.0,12.7,101.2,-1.0,463.2558690011712,106609.73253431467,106609.73253431467,295.2053668069302,0.07472271779341541,3.609190857748492,92.40000000000002,0.33853629601154106
1306893664.22,1.3888148,7.0200587,2343.0446944,11.4,12.7,101.5,-1.0,464.89347102651317,109298.16417934833,109298.16417934833,296.6601966247841,0.07603542979834921,3.489780011793638,89.30000000000001,0.3397879364314885
1306893664.65,1.3899,7.0199122,2399.2454835999997,7.7,12.7,101.5,-1.0,474.0029925936443,113185.9877877141,113185.9877877141,296.40428894353784,0.078662914877498,3.5496678847811753,90.9,0.34104386381556556
1306893665.07,1.3909889,7.0197662,2456.2664827999997,5.0,12.7,101.4,-1.0,486.64294234039625,116702.89952434739,116702.89952434739,295.05536121137663,0.07504650604248281,3.5406346228602055,89.30000000000001,0.3423095134218648
1306893665.49,1.3920687,7.019623,2513.3530988,3.5,12.7,101.4,-1.0,482.6913352711103,118257.24356204561,118257.24356204561,295.50387365514274,0.07654092820865337,3.6529377257553306,87.4,0.34358434937987004
1306893665.91,1.3931493,7.0194802,2570.866224,2.7,12.7,101.4,-1.0,483.0365479242308,121252.0264263559,121252.0264263559,294.00707910102267,0.07691928072876135,3.6753519464550677,90.7,0.3448688310071666
1306893666.35,1.3943071,7.0193274,2632.710058,1.9,12.7,101.4,-1.0,493.78849132202805,124461.73799832727,124461.73799832727,294.62336776656804,0.07933274643879884,3.743665813293488,88.89999999999999,0.3461753598785577
1306893666.77,1.3954217,7.0191802,2692.4541544,1.3,12.7,101.4,-1.0,497.9927307650305,127160.84610023453,127160.84610023453,295.08197061885244,0.07829362972842537,3.6964544697737365,90.3,0.34748854885493574
1306893667.21,1.3965883,7.0190264,2755.0525816,1.0,13.0,101.4,-1.0,497.5058583681242,132197.63998614275,132197.63998614275,296.07829857731525,0.07720907508533668,3.683830327694861,87.5,0.3488230195460993
1306893667.65,1.397777,7.0188698,2818.8321112,0.7,13.0,101.4,-1.0,506.63931716059176,137930.29872254588,137930.29872254588,296.51628419836817,0.07950251923271003,3.6307535333522734,88.3,0.3501859679275515
1306893708.34,1.5205378,7.0035516,8818.241752,0.7,13.0,101.6,-1.0,553.2488421937435,140619.61840621947,140619.61840621947,296.95583270552567,0.08066372358339816,3.6755067818827682,89.2,0.3654219915495988
1306893715.61,1.5429107,7.0007658,9890.1249884,0.7,13.5,101.6,-1.0,563.9904199227093,145495.38879936276,145495.38879936276,296.61946231715007,0.08254963090104375,3.728888062706629,92.0,0.3830318450054168
1306893722.22,1.5632535,6.9982253,10865.1250196,0.7,13.5,101.6,-1.0,564.0998379985087,151748.2324155177,151748.2324155177,297.8259376231476,0.08040034258081637,3.691626493467448,91.9,0.4027855632906312
1306893726.26,1.5756419,6.9966743,11459.317952000001,0.7,13.6,101.6,-1.0,562.1388234669811,156686.5628687915,156686.5628687915,298.92631601722184,0.08105656678243665,3.7793822906284364,91.40000000000002,0.42379268271320336
1306893732.4,1.5944976,6.994307,12365.3875348,0.7,13.6,101.7,-1.0,563.0542397431033,163544.96870241026,163544.96870241026,298.739928009701,0.08000002198742642,3.646533131991347,92.50000000000003,0.4467807623282515
1306893736.44,1.606818,6.9927545,12959.5476588,0.7,13.7,101.7,-1.0,559.3059935702662,170372.10451994883,170372.10451994883,297.69485083197327,0.08029956732946031,3.626496342394885,91.40000000000002,0.47102101823376324
1306893745.84,1.6352359,6.989147,14344.4230312,0.7,13.8,101.7,-1.0,554.7840837496796,173117.62625171966,173117.62625171966,298.71841538362344,0.0773559125310312,3.554271164893223,92.80000000000001,0.49834834763008873
1306893747.38,1.639828,6.9885592,14571.227500400002,0.7,13.7,101.7,-1.0,547.6384160375604,172550.1372856763,172550.1372856763,300.18606396013314,0.07879701925364198,3.622040050861163,92.80000000000001,0.5260654845504736
1306893748.46,1.6430404,6.988147,14730.5122824,0.7,12.8,101.7,-1.0,546.3831815228577,170037.49944275155,170037.49944275155,300.92559004432485,0.08054968215507696,3.7406947769713614,92.6,0.5540082229581728
1306893748.89,1.6443125,6.9879835,14791.6999484,0.7,11.3,101.7,-1.0,542.8519607915487,164335.35128225942,164335.35128225942,300.5574347168225,0.07812074183059511,3.76660365610516,92.10000000000001,0.581944913684332
1306893749.33,1.6456131,6.9878162,14849.8692416,0.7,10.3,101.7,-1.0,541.3342441439327,158648.93006860773,158648.93006860773,299.3482419032209,0.07669247043371502,3.763354698635057,91.39999999999999,0.5960187107097038
1306893749.76,1.6469069,6.9876495,14902.9204244,0.7,9.5,101.7,-1.0,549.7091250204171,153437.88570480747,153437.88570480747,300.2096194885875,0.07671577812279948,3.7195429217013642,92.4,0.6077152330194151
1306893750.2,1.6481967,6.9874831,14951.2143892,0.7,8.8,101.7,-1.0,534.7139686417972,147293.1851907921,147293.1851907921,300.04600735017414,0.07691628934448087,3.6588707562520697,90.2,0.6172494412433871
1306893750.63,1.6494913,6.9873159,14995.374495600001,0.7,8.2,101.7,-1.0,548.0417953103483,144810.3125439132,144810.3125439132,301.4401084997227,0.07626891245081106,3.655302723919544,91.7,0.6255002395810948
1306893751.06,1.6507846,6.9871488,15035.433552,0.7,7.6,101.7,-1.0,546.6301109069732,140166.82174822368,140166.82174822368,300.8227088430797,0.07495569974720291,3.6951734833549503,92.60000000000001,0.6317303467551981
1306893751.49,1.6520554,6.9869843,15071.161899599998,0.7,7.1,101.7,-1.0,536.8044149924008,136517.1163071161,136517.1163071161,301.04161675713874,0.0750183225320325,3.7343235472116794,89.9,0.6366574464927309
1306893751.91,1.6533063,6.9868224,15103.1172812,0.7,6.7,101.7,-1.0,540.3835987061747,137090.26205618132,137090.26205618132,298.2941650352601,0.07791712170732634,3.7793749521188307,90.10000000000001,0.638427733019415
1306893752.34,1.6545941,6.9866555,15132.8745,0.7,6.2,101.7,-1.0,542.6925193827209,136530.1914842534,136530.1914842534,298.67536712102515,0.07589940140861279,3.7453891338150815,89.4,0.6397382426432121
1306893752.77,1.6558856,6.986488,15159.8101964,0.7,5.8,101.7,-1.0,544.1399336422039,135873.53419178023,135873.53419178023,299.5859852717356,0.07441052980726272,3.632676047413027,90.00000000000001,0.6407399377438244
1306893753.2,1.6571716,6.9863212,15183.924370400002,0.7,5.4,101.7,-1.0,541.3649008386138,138082.0589292665,138082.0589292665,299.1326973708534,0.07543687460276899,3.697652749482955,89.70000000000002,0.6416551280325384
1306893753.63,1.6584639,6.9861534,15205.709148,0.7,5.1,101.7,-1.0,543.6662964968073,138689.8328212747,138689.8328212747,301.4365980319529,0.07535108369355425,3.6661735229554777,90.50000000000003,0.6424854211209023
1306893754.06,1.6597533,6.9859859,15225.1973376,0.7,4.8,101.7,-1.0,542.5108242179516,136136.23243884204,136136.23243884204,301.7538220875106,0.07564859315504704,3.6495960175807856,89.80000000000001,0.6432374005609723
1306893754.48,1.6610368,6.9858191,15242.5529812,0.7,4.5,101.7,-1.0,552.4347708999366,137972.43382622369,137972.43382622369,300.6646470267395,0.07764325584109566,3.737554813859005,92.10000000000002,0.6439171905872192
1306893754.91,1.6623172,6.9856526,15258.0057376,0.7,4.2,101.7,-1.0,538.2795556741783,135863.93981652646,135863.93981652646,299.485736260207,0.08124906378621265,3.705739629295584,90.99999999999999,0.6445299967989426
1306893755.34,1.6635974,6.9854861,15271.7852656,0.7,4.0,101.7,-1.0,538.1664554286989,136782.10968156677,136782.10968156677,299.3116539062034,0.08245304422627868,3.7027939482841736,88.9,0.6450814841130285
1306893755.76,1.6648745,6.9853199,15283.989990400001,0.7,3.8,101.7,-1.0,549.2458733367044,139308.19245179108,139308.19245179108,301.27100336451394,0.07994865141690172,3.677846214685355,90.9,0.6455780829756705
1306893756.19,1.6661363,6.9851557,15294.685528799999,0.7,3.6,101.7,-1.0,530.3332681362252,138830.17257681914,138830.17257681914,301.724120425164,0.077836856482935,3.7412215223763363,92.10000000000001,0.6460250755391002
1306893757.03,1.6686772,6.9848248,15312.6317236,0.7,3.3,101.7,-1.0,546.414694335728,143080.68837516333,143080.68837516333,301.52498931485735,0.07595898151572665,3.7178107520925683,91.10000000000002,0.6464445090474116
1306893759.98,1.6774995,6.9836747,15348.064795600001,0.7,2.6,101.7,-1.0,540.1746589844665,144306.36013939866,144306.36013939866,301.69405841315256,0.07559212724326338,3.8097408900011316,90.00000000000001,0.6468837697648219
1306893761.68,1.6825924,6.98301,15356.594979599999,0.7,2.4,101.7,-1.0,541.0650909479492,143374.61555293726,143374.61555293726,300.998323471757,0.07626898691183333,3.6929929378225927,87.7,0.6472866678400625
1306893762.95,1.686386,6.9825146,15359.8102028,0.7,2.3,101.7,-1.0,539.5367526971779,144266.72464393367,144266.72464393367,300.4201275148519,0.07740788292880144,3.628271616735995,87.9,0.647646236956423
1306893765.91,1.695266,6.9813538,15361.647473199999,0.7,2.2,101.7,-1.0,541.8548685385716,144037.39444983544,144037.39444983544,298.3406185018208,0.075398173020176,3.7390634652621877,88.29999999999998,0.647964620595968
1306893776.5,1.7269454,6.9772026,15356.004428400001,0.7,2.2,101.7,-1.0,540.3861609824742,139841.9656903351,139841.9656903351,298.3941746350087,0.07494277558685777,3.6583631864765804,88.40000000000002,0.6482293406309636
1306893831.46,1.8914021,6.955387,15356.004428400001,0.7,2.2,101.7,-1.0,540.8550321514484,140079.61931241702,140079.61931241702,299.8250430239086,0.07194858591895564,3.638493645514424,90.10000000000001,0.6484580042355129
1306893852.64,1.9547107,6.9468673,15354.396816800001,1.1,2.7,101.7,-1.0,540.6543527690044,140094.35634192658,140094.35634192658,301.00818131341265,0.07067863685265591,3.7426827368422937,92.4,0.6486507645154781
1306893853.29,1.9566406,6.9466029,15356.8574468,28.7,4.0,102.6,-1.0,537.3529595879247,137856.27446159243,137856.27446159243,299.69559258664793,0.07117261284356063,3.69290410382647,92.7,0.6488207885749706
1306893853.93,1.9585609,6.9463148,15363.714402399999,40.5,4.8,104.1,-1.0,543.8396385249836,139629.74380815277,139629.74380815277,301.7338938489993,0.07072856431356478,3.6695969848820136,91.1,0.6489818559415498
1306893854.14,1.9591867,6.9462124,15366.7655836,42.1,5.0,104.7,-1.0,541.2983085523737,139002.8808206364,139002.8808206364,300.04476048502704,0.07076403365299809,3.663975625340661,91.10000000000001,0.649108168277508
1306893854.79,1.9610906,6.945871,15378.1829068,51.0,5.6,106.7,-1.0,533.7190050064659,139918.4344750435,139918.4344750435,297.78662028427004,0.07119298333401544,3.5921229691878493,91.30000000000001,0.649178443868059
1306893855.86,1.9642136,6.9451887,15402.2970808,55.8,6.5,110.9,-1.0,536.603708419025,141657.27853028945,141657.27853028945,297.1800577531489,0.06920319590361045,3.6493810179246737,94.80000000000001,0.64928508210078
1306893856.07,1.9648107,6.9450382,15407.64485,56.7,6.6,111.7,-1.0,527.7683177241108,142780.67967236065,142780.67967236065,297.5260831734902,0.06723764207209712,3.6949457275663824,94.50000000000001,0.6493966962740082
1306893856.51,1.9660545,6.9447017,15419.5214908,57.8,6.9,113.6,-1.0,527.7864523366208,148858.41610339895,148858.41610339895,298.3325162953309,0.0665453954864085,3.644140340181472,92.1,0.6495317356440871
1306893856.72,1.9666494,6.9445292,15425.5582364,58.1,7.0,114.6,-1.0,532.9509309240437,154013.73268591106,154013.73268591106,300.71052348440907,0.06637755649063953,3.6021118148254594,91.4,0.6496940278575601
1306893857.39,1.9685114,6.9439379,15445.9322528,59.0,7.0,117.6,-1.0,528.1696316510131,155268.1984503754,155268.1984503754,299.18554262889035,0.06727410440511171,3.5531510520922645,90.5,0.6499038594411123
1306893857.81,1.9696584,6.9435325,15459.646164000002,59.4,7.4,119.5,-1.0,526.924087531074,156160.78511958942,156160.78511958942,297.65588738537485,0.06863362380600187,3.4147737557356006,90.6,0.6501494412433871
1306893858.24,1.9708098,6.9430916,15474.3443272,59.6,7.5,121.5,-1.0,523.6545545270192,153502.49366986245,153502.49366986245,296.94700799428034,0.07048867606782128,3.4009238074544554,90.50000000000001,0.6504235772888813
1306893858.87,1.9724647,6.942394,15497.1461652,59.6,7.5,124.3,-1.0,523.5997126876118,146057.59239025647,146057.59239025647,295.23731773114747,0.07181306875887317,3.3101873333431113,91.90000000000002,0.6507349180587851
1306893859.08,1.9729898,6.942156,15504.856139200001,58.4,7.5,125.3,-1.0,506.46335518041286,141337.12555081287,141337.12555081287,295.37416508952407,0.0753329049624302,3.2646332999159826,92.60000000000001,0.6510571293448745
1306893859.73,1.974628,6.9413618,15530.67635,48.1,7.1,127.8,-1.0,519.7849860298209,145036.45056860024,145036.45056860024,294.9019996185575,0.07702257031981617,3.3148733615600476,92.30000000000001,0.6514129473676217
1306893860.15,1.9756514,6.9408315,15548.6225448,40.0,6.7,129.0,-1.0,511.92799922805085,145180.77432754583,145180.77432754583,296.7122863027698,0.07688185090420264,3.342825734890684,92.40000000000002,0.6517543734393625
1306893860.57,1.976679,6.9402789,15568.0123092,32.3,6.5,129.9,-1.0,520.4827265520925,149496.04703261313,149496.04703261313,296.26753333227634,0.08020343743425849,3.3280498876579667,91.00000000000003,0.6521285641655219
1306893861.43,1.9787383,6.9391297,15609.8758276,18.1,6.2,131.0,-1.0,515.3523148182182,150922.61742517634,150922.61742517634,297.34448844404545,0.08083222242666938,3.314059036917014,93.30000000000001,0.6525727242705086
1306893861.85,1.9797394,6.9385578,15631.2669044,12.7,6.2,131.3,-1.0,517.3694152728018,143383.30864829864,143383.30864829864,296.0137267241873,0.07980611084180779,3.449791576574475,94.00000000000001,0.6530527111471491
1306893862.28,1.9807502,6.9379748,15653.3141492,8.1,6.2,131.5,-1.0,511.6070736323674,130121.66251572437,130121.66251572437,296.595372875529,0.07827950329822361,3.5266240298299874,96.20000000000002,0.6535366022232645
1306893862.49,1.9812624,6.9376779,15664.633047199999,6.3,6.2,131.6,-1.0,532.7054168029969,117771.80046666853,117771.80046666853,297.8273821226998,0.0766495340862695,3.575541902262611,95.10000000000001,0.6540149049354256
1306893862.7,1.9817626,6.9373872,15675.7222864,4.5,6.2,131.6,-1.0,520.2851666474864,100473.85238798129,100473.85238798129,300.44219823008547,0.07601350847326228,3.566307187828178,95.89999999999999,0.6544847868251893
1306893863.12,1.9827561,6.9368083,15697.933573199998,1.7,6.2,131.6,-1.0,517.030247999507,87894.32671892813,87894.32671892813,300.07249770139197,0.0764481324834721,3.5769963205231052,93.2,0.6549532907621972
1306893863.96,1.9847343,6.9356526,15742.6842308,-2.0,6.2,131.6,-1.0,515.1880559180156,83173.32358548821,83173.32358548821,301.35347594195576,0.07335881045141543,3.6344756586904774,91.10000000000001,0.6555082229581727
1306893864.38,1.985739,6.9350656,15765.5516856,-3.1,6.2,131.6,-1.0,523.6496801803338,77502.24613665788,77502.24613665788,303.7477822539333,0.0723275645355942,3.6965807417535754,94.2,0.6560562653903687
1306893864.8,1.9867434,6.9344792,15788.550374,-3.8,6.2,131.6,-1.0,523.4771215108518,77866.11752321511,77866.11752321511,303.22896673965073,0.07301384071665558,3.734750474064053,93.6,0.6566160969739208
1306893865.01,1.9872476,6.9341851,15800.098930799999,-4.1,6.2,131.5,-1.0,525.2550785224131,80147.54340508637,80147.54340508637,303.8580367383755,0.07128219180280562,3.7669314182262195,93.79999999999998,0.6571576324069917
1306893865.23,1.9877691,6.9338811,15812.1068052,-4.2,6.2,131.5,-1.0,518.4903057600274,79133.54868892314,79133.54868892314,301.95803104885425,0.07021282859307341,3.7308669121465576,92.19999999999999,0.6576295046729583
1306893865.65,1.9887805,6.9332922,15835.4007692,-4.4,6.2,131.4,-1.0,526.7418603319575,79649.63499833544,79649.63499833544,301.570358438453,0.07179093031319546,3.602392917159078,92.2,0.6581058170089165
1306893866.08,1.9898015,6.9326988,15858.9900088,-4.3,6.2,131.3,-1.0,518.6533335220522,81111.84494222466,81111.84494222466,301.49557068782906,0.07228593225371538,3.529876564050147,90.80000000000001,0.6585857273326259
1306893866.93,1.9918529,6.9315092,15906.562188799999,-3.8,6.2,131.3,-1.0,527.1922693615967,79265.59275175865,79265.59275175865,300.2784833077783,0.07534686524958406,3.503298795082178,91.30000000000001,0.659150228644962
1306893867.36,1.9928953,6.930906,15930.840404800001,-3.4,6.2,131.1,-1.0,529.209067295492,80901.08892243961,80901.08892243961,300.2282838469008,0.07614554221614643,3.5441851973793614,90.60000000000001,0.659745504235513
1306893867.78,1.993913,6.9303175,15954.6264948,-2.9,6.2,131.1,-1.0,528.8353842001762,81651.15929233714,81651.15929233714,300.789628737948,0.0759432852918692,3.622511483830811,90.2,0.6603444543667466
1306893867.99,1.9944372,6.9300146,15966.864028,-2.7,6.2,131.1,-1.0,545.3074526300031,82059.28071459931,82059.28071459931,300.1587915526935,0.07812909387828634,3.6896564850892335,93.5,0.6608675405434745
1306893868.2,1.99494,6.9297242,15978.6422436,-2.5,6.2,131.0,-1.0,522.3456819367623,77177.66056537816,77177.66056537816,297.97224520302007,0.07744333264973334,3.5753659228695156,91.1,0.6613647518295638
1306893868.62,1.9959638,6.9291329,16002.657992399998,-2.0,6.2,131.0,-1.0,531.9066850476547,78202.69199431331,78202.69199431331,296.29230484093705,0.07871907924329143,3.4864506120498273,88.80000000000001,0.6618643362565105
1306893869.26,1.997516,6.9282367,16039.1737416,-1.3,6.2,131.0,-1.0,529.0705926551543,78354.3892712364,78354.3892712364,294.9325952658114,0.0770631651716511,3.546366130400464,90.10000000000001,0.6624221774638595
1306893869.68,1.9985534,6.9276375,16063.648808,-0.9,6.2,131.0,-1.0,539.3124766252507,80472.95237404766,80472.95237404766,295.2708448686526,0.08003470616045041,3.6026695240534403,88.70000000000002,0.6630091087849442
1306893870.12,1.9996092,6.9270274,16088.616000400001,-0.5,6.2,131.0,-1.0,523.5729659042005,84551.0282167767,84551.0282167767,296.42250656450494,0.08075698013278065,3.600154523924915,88.2,0.6635999443055043
1306893870.76,2.0011756,6.9261212,16125.7879176,0.0,6.2,131.0,-1.0,534.524741158465,89735.58367458447,89735.58367458447,296.9627011665615,0.08097844538966709,3.6397898997362566,88.6,0.66422247273945
1306893871.18,2.0022269,6.9255123,16150.8207268,0.3,6.2,131.0,-1.0,547.5235549709134,88312.17849378401,88312.17849378401,298.35701621877513,0.07802193788994857,3.7214791128558646,86.6,0.6647924093098787
1306893871.6,2.0032571,6.9249148,16175.3942184,0.5,6.2,131.0,-1.0,536.3267411928873,86141.86910755408,86141.86910755408,298.04067970693364,0.07795059067209013,3.7216183584151015,88.00000000000001,0.6653630348566854
1306893872.44,2.0053124,6.9237203,16224.606818400001,0.9,6.2,131.0,-1.0,535.3768784501885,86761.55494673233,86761.55494673233,298.46392191138983,0.07842779601879438,3.67920811184615,90.60000000000001,0.6659929889249269
1306893872.87,2.0063597,6.9231102,16249.7708612,1.1,6.2,131.0,-1.0,533.2303429421511,82445.05585488692,82445.05585488692,297.279604512255,0.07881227261955864,3.6333891576056985,90.80000000000001,0.6666531048479365
1306893873.29,2.0073928,6.9225074,16274.672436800001,1.2,6.2,131.0,-1.0,539.2337719625142,83611.19538800018,83611.19538800018,299.66012265185304,0.07753947631941306,3.7192543898327486,92.7,0.6673438419432994
1306893873.93,2.0089755,6.9215817,16312.9270312,1.4,6.2,131.0,-1.0,542.6677276371109,85187.13855270282,85187.13855270282,300.19326211335476,0.07603265953770366,3.8173764387402302,95.7,0.6680678030106662
1306893874.56,2.0105201,6.9206758,16350.394224000001,1.5,6.2,131.0,-1.0,538.3288423756038,86670.62139512456,86670.62139512456,301.25895030022946,0.07792964670401084,3.728719276805961,93.39999999999999,0.6687939841130285
1306893875.64,2.013183,6.9191079,16415.2564308,1.5,6.2,131.0,-1.0,542.3406513074552,85583.86651700427,85583.86651700427,302.56575699469124,0.0754835932296314,3.689393523325715,93.49999999999999,0.6696144018733083
1306893876.08,2.0142662,6.9184678,16441.765617999998,1.5,6.2,131.2,-1.0,542.2995737263634,85865.89128363556,85865.89128363556,302.9536986871965,0.07251336838468142,3.774916616830991,94.19999999999999,0.6704384176213398
1306893878.0,2.0190077,6.9156496,16558.8587976,1.8,6.2,131.2,-1.0,545.2615813260601,85780.64623259974,85780.64623259974,300.71872636012233,0.0722065165573406,3.7717811768014298,95.3,0.6714489163090039
1306893878.84,2.0210838,6.9144071,16610.6304528,1.8,6.4,131.4,-1.0,547.2095521689974,85095.71511051105,85095.71511051105,300.250352565281,0.07476372699950629,3.7684140669622725,97.60000000000001,0.672521805635338
1306893879.48,2.0226787,6.9134492,16650.295808400002,1.7,6.4,131.4,-1.0,552.7294705778612,85779.84720086257,85779.84720086257,298.8849213666888,0.07135464701720766,3.716851058690349,97.10000000000001,0.6736299093098788
1306893880.12,2.024249,6.912503,16689.4034212,1.7,6.4,131.4,-1.0,544.4668351068859,85972.633724418,85972.633724418,299.40325902258957,0.07069933601858644,3.680716897259258,97.30000000000001,0.6747144346817072
1306893880.54,2.0252811,6.9118796,16715.190823599998,1.7,6.2,131.4,-1.0,545.8286792763937,87172.28188727354,87172.28188727354,300.8612108564228,0.07109530932716346,3.638742419997838,96.30000000000001,0.6758004145592226
1306893883.71,2.0327899,6.9073094,16905.873244399998,1.7,6.4,131.4,-1.0,526.9916056589143,87375.75658186998,87375.75658186998,300.8629781745451,0.07183675927789293,3.5667197129575063,94.10000000000001,0.6772732163964928
1306893884.56,2.0347038,6.9061344,16954.7905688,1.7,6.4,131.4,-1.0,501.46917215681935,87231.5634168115,87231.5634168115,302.6074626540667,0.07118650800159694,3.4762344691826854,93.7,0.6787708979363003
1306893884.77,2.0351753,6.9058442,16966.86406,1.7,6.5,131.8,-1.0,500.6445751229326,88404.16386225585,88404.16386225585,302.3973971996307,0.07171276935787264,3.535368837067081,94.00000000000001,0.6802093275076041
1306893886.03,2.0379379,6.9041385,17037.9598628,1.7,6.5,131.9,-1.0,488.81736331660755,88218.02363619008,88218.02363619008,300.08706190840735,0.07198861634244583,3.5543780534271736,93.80000000000001,0.6816623021357755
1306893887.09,2.0401758,6.9027489,17095.965114000002,1.7,6.5,131.9,-1.0,470.9172872520021,86798.11832799469,86798.11832799469,299.79728560698163,0.07408802988898415,3.5295416274816023,93.30000000000003,0.6831887675775954
1306893887.3,2.0406202,6.902472,17107.5136708,1.8,6.5,132.0,-1.0,472.7036156240304,84993.44197758098,84993.44197758098,301.0953440560076,0.07575953221976146,3.5811278239211664,89.50000000000001,0.6844689622407624
1306893890.06,2.0464123,6.8988343,17259.613413199997,2.4,6.5,132.0,-1.0,470.1362647054021,80746.81241876917,80746.81241876917,300.994060110457,0.07562938631262354,3.488423579301349,88.49999999999999,0.6859832557665716
1306893890.27,2.0468485,6.898558,17271.16197,3.1,6.5,132.0,-1.0,466.94286627030556,74610.12550449137,74610.12550449137,300.44727593761445,0.07747993137954026,3.590679702094731,88.6,0.6874319434306136
1306893890.9,2.0481789,6.8977126,17306.4638084,3.8,6.5,132.0,-1.0,475.48033206337476,70173.83556992954,70173.83556992954,300.19588656324953,0.07591048444171315,3.596544924573184,88.80000000000001,0.6888717509546731
1306893891.76,2.0499643,6.8965709,17354.068796800002,3.6,6.5,132.5,-1.0,468.39032932951176,64824.55371219782,64824.55371219782,298.58207223305754,0.07477767948697664,3.680979501033933,89.3,0.6903624661777702
1306893892.39,2.0512841,6.8957219,17389.436252,3.3,6.5,132.5,-1.0,473.9026710012655,60707.08427297653,60707.08427297653,296.5623573485116,0.07630581942862025,3.6852946013961048,92.30000000000001,0.6914907798260641
1306893893.03,2.0526106,6.8948642,17425.1317912,2.9,6.5,132.5,-1.0,469.7347934052635,58766.114393302836,58766.114393302836,296.57573554853263,0.07856868306640395,3.7445841307086423,89.80000000000001,0.6925882426432122
1306893893.25,2.0530651,6.8945695,17437.4021328,2.8,6.5,132.7,-1.0,468.83061380397817,56931.526868422625,56931.526868422625,295.94775137895977,0.07589217592910096,3.6786086450426345,90.5,0.6936861647779452
1306893893.68,2.0539602,6.8939876,17461.5819236,2.6,6.5,132.7,-1.0,472.9939273372731,55699.95881703612,55699.95881703612,296.5981403013825,0.07495670626009213,3.655058221596784,92.89999999999999,0.6946746162215149
1306893894.1,2.0548392,6.8934145,17485.400822,2.4,6.5,132.8,-1.0,476.1652322929534,55073.384712923595,55073.384712923595,295.94930268491834,0.07610728990247231,3.7260446801497418,91.6,0.6955832995111036
1306893894.31,2.0552585,6.8931406,17496.8181452,2.3,6.5,132.8,-1.0,453.7838610923214,53952.18288271384,53952.18288271384,295.0498710352751,0.07621362069503063,3.6600468560244352,94.69999999999999,0.6964916765889688
1306893894.94,2.0565636,6.8922859,17532.3496424,2.0,6.5,132.8,-1.0,472.0418265369472,57242.600009673064,57242.600009673064,294.6459346499746,0.07439895580295136,3.7836548484564103,95.10000000000001,0.6971280611034045
1306893895.57,2.0578592,6.8914342,17567.749905999997,1.8,6.5,132.8,-1.0,469.2278823659108,59829.99128472037,59829.99128472037,294.4272271505158,0.07301138312061342,3.728095334831879,95.00000000000001,0.6978200995985927
1306893895.78,2.0582904,6.8911501,17579.56093,1.7,6.5,132.8,-1.0,468.98158294974684,62314.42685919877,62314.42685919877,294.86600474621025,0.07281639333673469,3.7888461826886197,94.0,0.6984573261952681
1306893896.42,2.0596027,6.8902835,17615.5845532,1.7,6.5,133.0,-1.0,468.66100419064423,66111.19376484642,66111.19376484642,295.0432571537067,0.07281394107969615,3.7697058799818572,93.30000000000001,0.6990675296073416
1306893897.92,2.062662,6.8882522,17699.7052908,1.7,6.5,133.1,-1.0,467.1654402656714,64888.99192515239,64888.99192515239,294.6795249541879,0.07296426084667558,3.8662890775431116,91.99999999999999,0.6997914906747081
1306893898.76,2.0643795,6.8871054,17747.0806204,1.2,6.5,133.1,-1.0,469.59603615430296,60502.95291453235,60502.95291453235,292.6872410387686,0.07206759403522361,3.8479158012516668,92.80000000000001,0.7005427045854694
1306893899.18,2.0652257,6.8865387,17770.505817999998,1.1,6.5,133.1,-1.0,463.02419700437576,57532.69242815931,57532.69242815931,293.74701290646914,0.07212525208307109,3.9241675160658867,95.30000000000001,0.701319946492731
1306893900.02,2.0669401,6.8853874,17818.012381200002,0.9,6.5,133.2,-1.0,469.8350995384633,54551.80648718277,54551.80648718277,296.01498033038945,0.07420758008327291,4.020810861425751,92.6,0.7021516175338508
1306893900.24,2.0673845,6.8850884,17830.381148,0.9,6.5,133.2,-1.0,465.40013002050966,50998.756216177564,50998.756216177564,297.15753296447014,0.07153282640373511,3.9839288712271395,92.4,0.702956571602092
1306893900.67,2.0682529,6.884504,17854.2328548,-0.4,5.4,133.0,-1.0,465.0163912080417,52663.325641069394,52663.325641069394,297.17774873212335,0.07068692554249009,3.9566918490842653,90.10000000000002,0.7037905392311384
1306893900.88,2.0686944,6.8842085,17865.5189444,-3.8,4.8,132.9,-1.0,483.97762820311556,53156.76982860161,53156.76982860161,297.92091876759315,0.0703495845374947,3.8428282153372373,90.60000000000002,0.7045679342442619
1306893901.52,2.0699897,6.8833447,17893.4717012,-5.6,4.2,132.9,-1.0,463.7423028755649,49219.36466108,49219.36466108,297.74337518604403,0.07345617418660892,3.878695146753789,88.30000000000001,0.7053279517420746
1306893901.73,2.0704156,6.8830597,17901.280100400003,-5.7,4.2,133.0,-1.0,465.22380260174083,46460.45094616462,46460.45094616462,297.77558963782695,0.07540997286039508,3.8093493911128804,89.80000000000001,0.7060786297823198
1306893902.15,2.0712754,6.8824805,17915.650179599998,-6.1,4.4,133.2,-1.0,470.9519399405552,43302.936925195696,43302.936925195696,297.74811884472086,0.07421170602702808,3.6962335335929546,91.10000000000002,0.7067787828881815
1306893902.37,2.0717131,6.8821835,17922.605560400003,-6.5,4.5,133.3,-1.0,458.6354308968131,39736.46640999209,39736.46640999209,300.15131634297563,0.07483230520456403,3.576267746370242,89.9,0.7072988835006049
1306893903.0,2.0729859,6.8813111,17942.5202592,-7.5,5.0,133.7,-1.0,468.10500045981405,41221.42041365115,41221.42041365115,300.2332812578321,0.07635180780933468,3.613547663143405,89.7,0.7077549093098788
1306893903.42,2.073834,6.8807252,17956.3982124,-8.1,5.3,133.8,-1.0,469.5817839587619,45385.52318276414,45385.52318276414,300.29199466820836,0.07725876897563072,3.56336489383953,86.89999999999999,0.7081886582162653
1306893904.06,2.0751153,6.8798364,17979.1016252,-8.7,5.7,133.8,-1.0,466.2924730682432,48824.289057732785,48824.289057732785,299.45524549213445,0.07625997965441048,3.5127366402632254,88.8,0.7085645331069039
1306893904.27,2.0755323,6.8795472,17987.008449599998,-8.8,5.7,133.8,-1.0,462.226042576094,53942.08053314322,53942.08053314322,298.2797479905145,0.07562341743221465,3.4887687129565568,88.60000000000001,0.7089299967989426
1306893904.71,2.0764227,6.8789333,18004.5609436,-8.7,5.7,133.4,-1.0,470.6074029776514,57879.881634849604,57879.881634849604,298.7422858540322,0.0751062677748666,3.4629028663019095,91.0,0.7092807623282514
1306893905.13,2.077282,6.8783485,18022.0150124,-8.4,5.7,133.1,-1.0,473.2087647946785,54581.10963867948,54581.10963867948,299.34072075027206,0.07771233320347799,3.5789904595223865,89.6,0.7096459198085664
1306893905.34,2.077706,6.8780622,18030.67643,-7.8,5.6,132.9,-1.0,464.7993890626256,52398.835415357666,52398.835415357666,301.17501160823895,0.07632328527206857,3.5636618190069953,88.7,0.7099660641655217
1306893905.99,2.0790182,6.8771787,18057.2840424,-6.7,5.2,132.9,-1.0,464.4121577314259,51020.59541443665,51020.59541443665,300.45171846610924,0.07732760634611158,3.677378321784157,86.19999999999999,0.7103300733518734
1306893906.63,2.0803145,6.8763008,18082.3824684,-6.9,5.2,132.9,-1.0,467.12819313655154,48261.904949368676,48261.904949368676,301.5131957993002,0.07794263644341798,3.693401633660813,83.5,0.710719115346624
1306893906.84,2.0807331,6.8760162,18090.0924424,-7.1,4.8,132.9,-1.0,459.82043990172843,48306.22199826472,48306.22199826472,299.14005677250816,0.07599451787327553,3.7309076986644576,83.69999999999999,0.7111099180587851
1306893907.47,2.0820149,6.8751445,18112.8942804,-3.8,5.2,132.9,-1.0,470.09749169379074,51155.0884662169,51155.0884662169,299.7887763739627,0.07636791345031183,3.625484382158245,83.29999999999998,0.7115074574288639
1306893908.1,2.0832823,6.8742797,18135.597693199998,9.8,5.2,133.3,-1.0,465.30459006572255,52447.628309501946,52447.628309501946,297.4493477334493,0.07795377667300424,3.70025969052319,84.8,0.7119255895373502
1306893908.31,2.0837123,6.8739838,18143.4389008,14.1,6.2,133.5,-1.0,475.95084636963765,52935.25775901046,52935.25775901046,295.9031997061248,0.07999569232118314,3.630686248051886,82.8,0.7123090431681465
1306893908.95,2.0849894,6.8730906,18174.6396892,16.1,8.2,134.2,-1.0,466.9986943838841,52676.556824321284,52676.556824321284,296.7150012626536,0.08219649450509925,3.616648536141247,82.60000000000001,0.7127468493798699
1306893909.58,2.0862228,6.8722054,18213.780110400003,5.1,9.4,134.6,-1.0,464.2094951553824,50999.76876487465,50999.76876487465,298.43289991668775,0.08304982949100762,3.6186570032368266,82.50000000000001,0.713235027420115
1306893909.79,2.0866304,6.8719115,18228.675124,4.6,12.4,134.5,-1.0,461.33643477462516,48911.549526700364,48911.549526700364,298.1105693478695,0.08018526548880367,3.5043941910029854,83.9,0.713717234331751
1306893910.21,2.0874564,6.8713204,18267.7827368,2.3,17.9,134.1,-1.0,468.071768790592,49072.42541311809,49072.42541311809,296.24503959589987,0.07905696884629665,3.477534011557858,84.10000000000001,0.7142704823632471
1306893910.43,2.0878795,6.8710206,18294.2591156,1.1,20.3,133.9,-1.0,458.3587337878402,49221.32499942524,49221.32499942524,295.373788233255,0.07913939829023937,3.3456623466543096,86.60000000000002,0.7148234241830196
1306893911.07,2.0891129,6.8701635,18400.59114,-3.8,26.4,132.8,-1.0,461.780592497123,50717.23810014991,50717.23810014991,293.96145162252606,0.08102786346172323,3.397607923315501,87.30000000000001,0.71556591105966
1306893911.29,2.0895256,6.8698834,18446.457283199998,-4.7,28.3,132.4,-1.0,453.4260231317597,52356.25770216448,52356.25770216448,294.3464508289627,0.08126998732003983,3.4648543742458555,88.60000000000002,0.7163974289949181
1306893911.72,2.090325,6.8693482,18550.919228799998,-2.4,32.0,131.8,-1.0,454.9954162673027,54817.58253773745,54817.58253773745,295.2673752682097,0.0803759117867314,3.5219104546724544,90.4,0.7174194871751456
1306893912.14,2.0910807,6.8688483,18670.1449544,-1.1,35.5,131.4,-1.0,450.8769145422377,59364.50061011173,59364.50061011173,297.48302696366306,0.08075669807659837,3.426729378131276,90.30000000000003,0.7186667640780329
1306893912.35,2.0914354,6.8686148,18733.5635916,-0.4,37.5,131.3,-1.0,432.3069978952379,62782.153962032346,62782.153962032346,297.9110182253393,0.07959871891993808,3.459873622242983,91.00000000000003,0.7200437216458367
1306893912.98,2.0924651,6.8679329,18949.0163544,2.0,42.8,131.4,-1.0,435.5233445852837,70553.78053938977,70553.78053938977,298.220451907605,0.079864309185355,3.519447762063597,93.80000000000001,0.7218506004734833
1306893913.61,2.0934083,6.8672861,19197.5399844,4.3,47.8,132.2,-1.0,433.55460656351363,75467.169465703,75467.169465703,295.53452263321356,0.0816615105910372,3.5753041285177343,92.4,0.7241460401060291
1306893913.82,2.0936931,6.8670831,19285.039987199998,5.2,49.5,132.6,-1.0,421.4108037550659,78148.91534282574,78148.91534282574,294.9153733444891,0.0828688406554528,3.594786171058529,90.2,0.7266108913746208
1306893914.46,2.0944907,6.866485,19571.03081,7.9,54.4,134.0,-1.0,421.0718471174485,82739.57000247671,82739.57000247671,294.91846378899294,0.08462549490913407,3.6592169841897864,91.0,0.7296518034481116
1306893915.09,2.0951525,6.8659364,19873.7211084,11.0,59.0,136.0,-1.0,414.30036037683425,82873.55951357959,82873.55951357959,296.27763127321526,0.08074597619850829,3.750893568820837,87.80000000000001,0.7333372146467115
1306893915.3,2.0953424,6.8657648,19977.1659936,12.2,60.6,136.8,-1.0,404.5176579129839,77823.86161754832,77823.86161754832,297.1092279112072,0.08081089020518588,3.750174830370089,89.7,0.7370158891873939
1306893915.94,2.0958322,6.865271,20299.6725656,16.2,65.1,139.8,-1.0,397.18645961197535,77573.84822421132,77573.84822421132,297.74036564607576,0.07930786283752755,3.6601665148019826,90.10000000000001,0.7413400580412873
1306893916.58,2.0961948,6.8648128,20635.2040724,21.3,69.3,143.7,-1.0,393.5498342452884,71142.57167701646,71142.57167701646,297.71295252408015,0.07994383779052262,3.6700415457047337,89.5,0.746203389187394
1306893916.79,2.0962868,6.8646683,20748.917986800003,23.1,70.5,145.2,-1.0,396.5830116662733,61586.679904822966,61586.679904822966,296.83239946613475,0.0789316262093335,3.7577405988372794,88.89999999999999,0.7510538594411124
1306893917.22,2.0964269,6.8643925,20977.198834000003,27.2,73.4,148.9,-1.0,382.53160570694524,57767.27198838549,57767.27198838549,298.03606624758487,0.07742055295784699,3.768100535082337,88.39999999999999,0.7562890081725209
1306893917.65,2.0965114,6.8641295,21209.5807312,31.7,75.7,153.2,-1.0,383.4125989647863,51904.70157596493,51904.70157596493,295.85798637011294,0.07735702932996741,3.66719758775747,88.5,0.7615636582162654
1306893917.86,2.0965318,6.864009,21321.2277164,34.4,76.8,155.7,-1.0,373.67018685538164,46173.47994663835,46173.47994663835,296.6073172803542,0.07701117828842749,3.7163009667546594,88.60000000000001,0.7665189294323633
1306893918.5,2.096515,6.8636604,21663.9114544,43.6,79.6,164.4,-1.0,373.60634391654287,46528.49501123107,46528.49501123107,295.4795819680992,0.07657946310355321,3.7816600797826316,88.30000000000001,0.7720696293448746
1306893918.93,2.0964397,6.8634468,21889.4035876,50.7,81.1,171.3,-1.0,364.3761180239487,49996.98538126135,49996.98538126135,297.84723798744625,0.07458505811632098,3.773756821369709,90.00000000000001,0.7774791656528359
1306893919.56,2.0962364,6.8631527,22221.3261704,63.2,82.5,183.4,-1.0,367.112168577134,56531.68811678875,56531.68811678875,297.52032460811114,0.07536768485084196,3.809975714495008,92.30000000000001,0.7829569106222148
1306893919.77,2.0961493,6.8630647,22325.919349599997,67.3,82.7,187.5,-1.0,348.69972022272816,62290.23389706131,62290.23389706131,298.04520712737684,0.07264758885318363,3.760591426809442,91.2,0.7884373349441745
1306893920.19,2.0959344,6.8628898,22541.3064956,76.3,82.7,196.2,-1.0,361.7750803986861,71788.14820556669,71788.14820556669,297.3400950412727,0.0733524169075915,3.7479109207207952,90.3,0.7936678139467992
1306893920.4,2.0958119,6.8628076,22646.293375600002,80.9,82.7,200.8,-1.0,355.60993240286706,77086.8747237819,77086.8747237819,296.34705868865916,0.07225708891237752,3.7959917072767135,90.8,0.7983603555041044
1306893921.03,2.0953867,6.8625787,22951.8051964,93.4,81.6,212.9,-1.0,349.786176865253,80596.82749893579,80596.82749893579,296.21920986743316,0.07246550962368019,3.701933105172785,90.5,0.8035004254953555
1306893921.24,2.0952285,6.8625088,23049.2461444,97.4,81.0,216.9,-1.0,340.35833356983295,84997.98128939398,84997.98128939398,294.3575171562804,0.0749118730396502,3.684726692365751,92.8,0.8083352023982426
1306893921.66,2.0948814,6.8623745,23242.1923448,104.4,79.6,223.7,-1.0,342.2030911746857,86775.67780620436,86775.67780620436,295.5985845251111,0.07545656394690428,3.6843828602607043,89.7,0.8130779626782075
1306893921.88,2.0946832,6.8623071,23342.028306,107.7,78.7,226.9,-1.0,343.97717129913,86515.1262484352,86515.1262484352,296.36849999309817,0.0748242774610581,3.6854212462281843,90.6,0.8177931639030543
1306893922.54,2.0940366,6.8621205,23629.0361892,116.1,75.6,235.1,-1.0,338.5895656087869,85836.79250248741,85836.79250248741,298.8034866256453,0.07459968913909744,3.7009207036024594,92.69999999999999,0.8223784548041917
1306893922.76,2.093803,6.8620628,23721.129367999998,118.5,74.4,237.4,-1.0,336.2378515123728,83643.57008098954,83643.57008098954,296.9771015999471,0.07557428249147101,3.587703534909996,93.29999999999998,0.8266524814883565
1306893923.19,2.0933186,6.8619556,23896.7199248,122.6,72.1,241.3,-1.0,336.44458714509545,79478.35731110648,79478.35731110648,296.1639296650187,0.07600185574310281,3.483713086243204,92.39999999999999,0.8305617334568605
1306893923.4,2.0930666,6.8619058,23981.0703212,124.9,70.8,243.3,-1.0,340.2629754561483,77388.98150875306,77388.98150875306,296.60711475432663,0.0768069513422806,3.488948935016211,89.99999999999999,0.834423752267009
1306893924.05,2.0922721,6.8617712,24222.3761032,130.6,66.5,248.1,-1.0,326.3551289600704,74064.34679586778,74064.34679586778,297.11756655314986,0.07676485636057895,3.5327081283132076,88.99999999999999,0.8383462478925559
1306893924.26,2.0919964,6.8617312,24298.6884416,132.3,65.0,249.5,-1.0,332.72524741820644,72395.06245883733,72395.06245883733,296.4101012392724,0.07680759477049494,3.4668214401700466,89.99999999999999,0.8422018362565103
1306893924.69,2.0914179,6.8616562,24448.196320400002,135.5,62.4,251.9,-1.0,328.93851401287577,69937.1931630226,69937.1931630226,297.10494963960764,0.0758571107458978,3.447915749214585,89.29999999999998,0.845693415434113
1306893924.91,2.0911234,6.8616222,24519.2593148,137.0,61.0,253.0,-1.0,316.4218974749538,68545.02035646145,68545.02035646145,299.3128992967926,0.07235023308022398,3.419718953596486,87.2,0.8491234460552854
1306893925.33,2.0905224,6.8615602,24654.7251984,139.7,59.6,255.0,-1.0,328.1660359097678,67223.89195861411,67223.89195861411,299.4614724067995,0.07088536030829565,3.506723590099616,90.0,0.8524193559415498
1306893925.54,2.0902232,6.8615331,24717.4548592,140.7,58.1,256.1,-1.0,317.1179773938323,65106.472964121436,65106.472964121436,298.027860219382,0.06859471089230228,3.4385987558815754,87.20000000000002,0.8556286844629847
1306893925.97,2.0895842,6.8614825,24841.864312,142.2,55.1,257.9,-1.0,321.6368166099938,62794.461559106094,62794.461559106094,297.8934790683805,0.06779573631434936,3.404818688276296,87.2,0.8584586166589601
1306893927.25,2.0875709,6.8613943,25166.962747600002,69.9,48.1,264.6,-1.0,321.45865665859446,61261.21854759452,61261.21854759452,297.85582754483676,0.06768791196607102,3.463258565394421,83.89999999999999,0.8618322277700712
1306893927.47,2.0872199,6.8613922,25217.979809599998,66.6,45.6,265.6,-1.0,319.24544886981846,57997.635862633266,57997.635862633266,298.8669679251148,0.06968674651757065,3.522388445357326,84.30000000000001,0.8649151674026173
1306893927.68,2.0868858,6.861393,25265.650414800002,62.9,42.4,266.4,-1.0,317.4571695458161,55590.63497557215,55590.63497557215,297.89188393424337,0.0699641843999553,3.4975623184709965,84.3,0.8679125208584353
1306893928.1,2.0862045,6.8613995,25359.7777144,51.0,35.2,267.0,-1.0,321.8288619286759,51691.78892483126,51691.78892483126,298.3402191799886,0.07061495666690111,3.470509352851146,84.3,0.8705664578663093
1306893928.31,2.0858517,6.8614037,25406.660917999998,45.6,31.5,267.0,-1.0,330.54848116802214,47391.317613757215,47391.317613757215,298.7259910114841,0.06954296301044155,3.497005046754576,82.2,0.8731517268951805
1306893928.94,2.0848231,6.86141,25532.973257999998,37.5,18.8,265.8,-1.0,315.8939251154157,44376.80995609525,44376.80995609525,297.9330421932733,0.07050554254940931,3.614985199747906,84.3,0.8756828730019172
1306893929.15,2.0844661,6.8614086,25572.4089548,35.7,17.3,265.3,-1.0,321.99433993821606,41109.19019485239,41109.19019485239,297.9009527066881,0.0709627740264818,3.7136532702006875,85.5,0.8781402220832821
1306893929.36,2.0841213,6.8614052,25608.2029192,33.6,15.7,264.7,-1.0,307.8622850746742,39707.308380461734,39707.308380461734,296.5716529513379,0.07150554739693349,3.6704208861545595,84.3,0.8803650033606223
1306893930.21,2.0826537,6.8613722,25736.057254,28.4,9.2,262.9,-1.0,315.98710140423816,38653.974448892164,38653.974448892164,297.0542172586303,0.07201186355127709,3.68628033502528,85.50000000000001,0.8827417422057668
1306893930.64,2.0818952,6.8613445,25787.0086992,27.2,5.6,262.1,-1.0,314.9742627656941,37087.42815627417,37087.42815627417,294.8831293943418,0.07180940249844502,3.7119215247632553,85.90000000000002,0.8849470790386627
1306893930.86,2.0814924,6.8613272,25810.007387600002,26.6,3.9,261.7,-1.0,323.9280457711385,35520.446630874234,35520.446630874234,295.39716433998126,0.07259273974081444,3.7471886457824852,86.80000000000001,0.8864475164839821
1306893931.08,2.0811012,6.8613086,25829.692427600003,26.1,2.1,261.3,-1.0,312.4202892542058,36042.311653713536,36042.311653713536,294.4394907064349,0.0728347723751884,3.752298770170562,85.10000000000001,0.8878748458803075
1306893931.5,2.0803446,6.8612681,25860.433898400002,25.6,-1.4,260.6,-1.0,314.16487328523965,33611.85480428661,33611.85480428661,296.1789706793251,0.07407099850964821,3.876573644951437,87.20000000000002,0.8892626739642969
1306893931.71,2.0799559,6.861245,25872.540198,25.4,-3.0,260.3,-1.0,320.7576624557475,32551.398703903084,32551.398703903084,295.8842529882979,0.07350377180182416,3.915699225887165,88.00000000000001,0.8904591197210772
1306893931.92,2.0795745,6.8612209,25881.923400400003,25.3,-4.8,259.9,-1.0,313.83543084268445,33897.419507662446,33897.419507662446,297.83176470588506,0.07360569910071331,3.9269696594282886,86.30000000000001,0.8915680654778577
1306893932.55,2.0784068,6.8611387,25896.49033,24.9,-3.7,259.1,-1.0,318.9770624037186,30103.03485083852,30103.03485083852,297.85716733022105,0.07390574201376177,3.92210194665235,87.50000000000001,0.8924162719520484
1306893932.76,2.0780144,6.8611092,25897.2449232,24.9,-3.6,259.0,-1.0,320.8802320083103,28743.673588787817,28743.673588787817,295.67752908357033,0.076384890495673,3.920419281179955,87.10000000000001,0.8931742225207273
1306893932.97,2.0776238,6.8610791,25896.2278628,24.9,-5.8,258.8,-1.0,319.501565311319,27743.919836711728,27743.919836711728,295.92061845592576,0.07796785447108528,3.8558040011149317,86.5,0.8938462807009548
1306893933.61,2.0764042,6.8609796,25880.1189384,24.9,-16.5,258.0,-1.0,327.8096081177059,24652.445270920598,24652.445270920598,296.73899378459953,0.07746454351684735,3.8312705408086596,86.5,0.8941824246204649
1306893933.83,2.0759797,6.8609418,25869.095316,24.9,-18.6,257.6,-1.0,333.2115037997766,22512.048693217777,22512.048693217777,298.90589943205316,0.07882909422477484,3.7590198956186014,85.30000000000001,0.8943739600535358
1306893934.25,2.0751958,6.8608675,25840.945708799998,24.9,-21.9,256.9,-1.0,323.559817041386,25736.509004583797,25736.509004583797,299.8770790057373,0.07810181103207493,3.6940196418164652,84.60000000000001,0.8944461494673591
1306893934.46,2.074795,6.8608272,25822.6058132,24.9,-23.6,256.5,-1.0,332.73741266699847,24189.856775022872,24189.856775022872,301.64515715294414,0.07665845259058696,3.7286368900544162,86.60000000000001,0.8944296140342882
1306893935.11,2.0735455,6.8606919,25748.8197216,27.9,-21.5,255.6,-1.0,338.8758828800695,25107.49344768461,25107.49344768461,300.4460198845086,0.07530069449362896,3.6891450573020257,85.0,0.894169180963422
1306893935.32,2.0731464,6.8606467,25720.8341564,29.5,-19.6,255.5,-1.0,338.3455522105834,28423.07070842112,28423.07070842112,299.2881868347764,0.07454557730797445,3.7315586533215637,86.80000000000001,0.8938152002110161
1306893935.76,2.0722996,6.8605502,25656.792159599998,32.3,-14.8,255.7,-1.0,344.7745260963159,27661.055883195306,27661.055883195306,297.95640043119266,0.07460280152553926,3.742590868501858,88.20000000000002,0.8932898939992926
1306893935.97,2.0718814,6.8605037,25623.721292399998,33.4,-12.4,256.1,-1.0,358.5737755918605,28596.226629891735,28596.226629891735,298.154863517999,0.07312613321010114,3.728616602002678,86.4,0.892653432931926
1306893936.39,2.0710494,6.860417,25557.2842824,36.2,-8.0,257.2,-1.0,356.94919820375304,32974.84679851126,32974.84679851126,300.69427094709647,0.07161797640481414,3.7301477330319934,86.3,0.8918601914621097
1306893936.6,2.0706315,6.8603774,25524.1477984,37.7,-7.9,258.0,-1.0,358.57514080221983,34500.20316957649,34500.20316957649,300.5747377855511,0.07048609054638315,3.868930403940616,87.0,0.8909920046729582
1306893937.23,2.0693312,6.8602745,25422.7042256,41.7,-6.1,260.4,-1.0,371.9065718593318,37287.29340574493,37287.29340574493,301.6065242903421,0.07377109610073959,3.8717987754323433,89.0,0.8899247037105786
