timestamp,longitude,latitude,altitude,roll,pitch,yaw,heading,air_speed,engine_0,engine_1,temperature_in,humidity_in,pressure_in,heart_rate,oxygen_mask
1306893619.68,1.9873293,6.9620843,-3.28084,-1.0,0.0,-1.0,-1.0,65.73793555851795,2648.2295676863946,2648.2295676863946,297.69288179660384,0.07633350119850364,3.5397806765612496,82.80000000000001,0.3028323555144257
1306893621.59,1.9878503,6.9624803,-3.28084,-1.0,-0.1,-1.0,-1.0,65.73793555851795,2509.800170241965,2509.800170241965,298.92895151536544,0.07743198417254617,3.6477654207874854,84.30000000000001,0.3026569727497714
1306893622.87,1.9882671,6.9627971,-3.28084,-1.0,-0.2,-1.0,-1.0,79.26673861330622,1898.0177112720787,1898.0177112720787,301.55903564363376,0.07894240108696773,3.6445625186783666,83.2,0.3024815899851169
1306893623.95,1.9886582,6.9630943,-3.28084,-1.0,-0.3,-1.0,-1.0,88.6737540042431,1351.5529492133342,1351.5529492133342,302.6920661199176,0.08179988509263185,3.621014084335131,85.10000000000001,0.30230620722046253
1306893624.82,1.9890043,6.9633573,71.7847792,-1.0,-0.4,-1.0,-1.0,114.20286399333368,897.2523926538213,897.2523926538213,304.2578056247164,0.07909698150166844,3.535629117526228,86.9,0.30230605411460076
1306893625.46,1.9892703,6.9635595,71.8175876,-1.0,-0.5,-1.0,-1.0,102.46164674411722,897.2523926538213,897.2523926538213,304.2578056247164,0.07909698150166843,3.5356291175262284,86.9,0.30230605411460076
1306893626.1,1.9895512,6.963773,71.85039599999999,-1.0,-0.6,-1.0,-1.0,108.4184279917594,1351.5529492133342,1351.5529492133342,302.6920661199176,0.08179988509263185,3.6210140843351297,85.10000000000001,0.30230620722046253
1306893626.55,1.9897601,6.9639317,71.8832044,-1.0,-0.7,-1.0,-1.0,114.94250395749805,1898.0177112720787,1898.0177112720787,301.55903564363376,0.07894240108696772,3.6445625186783674,83.2,0.3024815899851169
1306893627.62,1.9902777,6.9643251,71.8832044,-1.0,-0.8,-1.0,-1.0,120.00930272897743,2509.800170241965,2509.800170241965,298.92895151536544,0.07743198417254617,3.647765420787486,84.3,0.3026569727497714
1306893628.7,1.9908326,6.9647468,71.8832044,-1.0,-0.9,-1.0,-1.0,127.78419119708964,2648.2295676863946,2648.2295676863946,297.69288179660384,0.07633350119850363,3.5397806765612496,82.8,0.3028323555144258
1306893629.57,1.9913132,6.965112,71.8832044,-1.0,-1.0,-1.0,-1.0,137.7528431299484,2393.5527084072855,2393.5527084072855,297.1712785598897,0.07342535479964671,3.4622148167062816,85.4,0.3030077382790801
1306893630.44,1.9918176,6.9654953,71.8832044,-1.0,-1.1,-1.0,-1.0,144.73265207115875,2187.661280043117,2187.661280043117,298.67872659220785,0.07492295650280573,3.350724325745989,83.7,0.30318312104373457
1306893631.32,1.9923479,6.9658983,71.8832044,-1.0,-1.2,-1.0,-1.0,150.68644256232056,1971.893343876287,1971.893343876287,297.22881705267145,0.07309578366035514,3.458581811389647,85.6,0.30335850380838897
1306893632.16,1.9928836,6.9663053,72.17848,-1.0,-0.4,-1.0,-1.0,159.79898096198394,1778.7215432797955,1778.7215432797955,295.5183425239923,0.0734671244779858,3.421601025506289,85.10000000000001,0.3035345755494213
1306893632.58,1.9931545,6.9665112,72.6377976,-1.0,3.2,-1.0,-1.0,161.61617302617123,1779.6669444705567,1779.6669444705567,294.3814403866748,0.07584317729499163,3.5420442511597465,84.89999999999999,0.3035365659256243
1306893633.01,1.9934417,6.9667294,72.96588159999999,-1.0,5.6,-1.0,-1.0,167.58475592043135,1626.4128758249472,1626.4128758249472,295.3228663212383,0.07543052401648055,3.5628212051868737,86.5,0.30353924527820525
1306893634.5,1.9944861,6.967523,73.55643280000001,-1.0,9.0,-1.0,-1.0,176.11592663643526,1541.0833653340287,1541.0833653340287,295.23667867076574,0.07241035603897145,3.528516313148353,87.3,0.30354322603061124
1306893634.92,1.9947897,6.9677537,73.6220496,-1.0,9.5,-1.0,-1.0,181.70688874089817,1505.599296393814,1505.599296393814,295.1017340796035,0.07217816933860408,3.478115481725183,90.80000000000001,0.303547283335948
1306893635.36,1.9951176,6.9680029,74.08136719999999,-1.0,9.9,-1.0,-1.0,187.56893956585384,1495.179529280928,1495.179529280928,296.06134428798975,0.07452769242590625,3.5809750348885623,89.4,0.3035524123823172
1306893635.79,1.9954441,6.968251,75.2296612,-1.0,10.4,-1.0,-1.0,191.13705029302744,1602.2262467147614,1602.2262467147614,297.0147427369171,0.07475793426257982,3.7095683913118163,90.10000000000001,0.3035602207812673
1306893636.22,1.9957748,6.9685024,77.3293988,-1.0,10.7,-1.0,-1.0,193.7775761093327,1709.5512813478144,1709.5512813478144,297.0524063055593,0.07833864489647147,3.8099949570402596,90.90000000000002,0.3035729285677941
1306893636.66,1.9961213,6.9687659,80.708664,-1.0,10.9,-1.0,-1.0,198.71142919604063,1684.8127704037952,1684.8127704037952,295.4683892101321,0.07768456769190571,3.936257823294125,94.10000000000002,0.30359352130620176
1306893637.09,1.9964649,6.9690274,85.3346484,-1.0,11.0,-1.0,-1.0,201.78329578840018,1639.5671636460202,1639.5671636460202,296.90014837991856,0.07763600179630666,3.9353138127432556,94.8,0.3036249080078641
1306893638.38,1.9975247,6.9698364,108.00525280000001,-1.0,11.3,-1.0,-1.0,208.07996141183798,1374.4545309796672,1374.4545309796672,298.70308339076036,0.07624767292912925,3.948206021720022,94.7,0.30370850380838904
1306893640.95,1.999775,6.9715756,195.5052556,0.3,11.3,-1.0,-1.0,224.45182527929836,826.6033555709499,826.6033555709499,299.1324306786662,0.07535494718951836,3.897622828691404,96.5,0.30399519453454826
1306893641.37,2.0001591,6.9718767,215.22310399999998,0.4,11.1,-1.0,-1.0,237.3914720677979,475.8721324943428,475.8721324943428,298.1902818400909,0.07507180397930417,3.9433452487840714,94.9,0.3043271280428597
1306893641.79,2.0005541,6.9721883,236.7454144,0.5,11.1,43.2,-1.0,245.41875815820538,608.6735092912887,608.6735092912887,297.1936462497844,0.07438796204970889,3.8870463309561045,94.7,0.3047079023210749
1306893642.22,2.0009563,6.9725077,259.9409532,0.6,11.0,43.2,-1.0,245.02376436204773,993.2427099796979,993.2427099796979,299.078351347388,0.07568390662828697,3.955538547437423,92.19999999999999,0.3051426464155631
1306893643.06,2.0017593,6.9731508,309.6784876,0.9,10.9,43.2,-1.0,252.25611225515266,1361.2128318231287,1361.2128318231287,299.2928687188431,0.073013676227844,3.938525977078114,94.7,0.3056923730122385
1306893643.48,2.0021643,6.9734783,336.2204832,1.1,10.8,43.2,-1.0,256.22930894384353,1811.327929766428,1811.327929766428,300.27949420601414,0.07178329535514232,3.860559679963852,97.2,0.30630135157741784
1306893643.9,2.0025765,6.9738136,363.6483056,1.3,10.5,43.2,-1.0,261.7478836719407,1946.6879595830976,1946.6879595830976,298.6189509368889,0.06845361200677759,3.753856881173786,94.30000000000001,0.3069694290052394
1306893644.33,2.0029981,6.9741588,391.56825399999997,1.6,10.2,43.4,-1.0,262.4542997137518,2125.699079502785,2125.699079502785,298.30382773882314,0.06789845572284751,3.639991221957929,91.70000000000002,0.30769476802536183
1306893644.75,2.0034207,6.974507,418.8648428,1.8,9.9,43.4,-1.0,270.2472615194745,2824.296167759109,2824.296167759109,296.0090804909545,0.06945230209735731,3.5194225821966163,91.80000000000001,0.30847300512072495
1306893645.18,2.0038608,6.9748717,446.1614316,2.1,9.5,43.5,-1.0,275.49559875459806,3419.0980819652973,3419.0980819652973,296.0079197866127,0.06928917192630452,3.564895228949711,93.60000000000002,0.3092620361793426
1306893645.62,2.0043101,6.9752461,472.44096,2.5,9.2,43.5,-1.0,275.4517249307659,3993.546928027695,3993.546928027695,295.3299886631323,0.06747556667446247,3.5359687497148506,90.90000000000002,0.30990821946893143
1306893646.04,2.0047471,6.9756119,496.19424160000005,2.8,9.0,43.6,-1.0,281.0007236478125,4408.018659567101,4408.018659567101,295.3915091088147,0.06950468794656936,3.478599573345587,90.30000000000001,0.3105638187690189
1306893646.47,2.0052015,6.9759935,518.7992292,3.2,8.8,43.6,-1.0,285.5376247880353,4434.104859050109,4434.104859050109,296.5767958731055,0.07066157837680957,3.571974570891907,90.20000000000002,0.31122194431582556
1306893646.89,2.0056601,6.9763798,539.370096,3.6,8.6,43.6,-1.0,295.2852898248254,4640.784541193433,4640.784541193433,297.0685539314218,0.07114315271305591,3.463711804776548,90.5,0.31187394562816145
1306893647.31,2.0061155,6.976764,557.5459496,4.1,8.6,43.8,-1.0,293.15001151247094,4774.626823823517,4774.626823823517,297.31979715250424,0.0709465526330096,3.461472700509906,87.8,0.3124523030209874
1306893647.73,2.0065848,6.9771593,574.4094672,4.4,8.7,43.9,-1.0,301.7150533268615,5066.460370967786,5066.460370967786,297.69178838865656,0.07434324683629824,3.4949845690705694,86.30000000000001,0.3130080772992026
1306893648.15,2.00706,6.9775576,590.1903076,4.4,8.9,44.0,-1.0,304.4432850382768,4873.959366265339,4873.959366265339,297.9854367928187,0.07717248617441089,3.548863071542208,87.9,0.31353667528695417
1306893648.58,2.007562,6.9779761,606.13519,4.7,9.2,44.1,-1.0,313.3544216320882,5098.029935854895,5098.029935854895,297.58016229244845,0.07769598424347982,3.551351477136242,89.5,0.3140373314549332
1306893649.0,2.0080502,6.9783805,621.4239044,4.8,9.5,44.1,-1.0,310.69558193867397,5277.784966435127,5277.784966435127,297.2223482486723,0.0764382400181116,3.5425068304415968,87.4,0.31450996925020874
1306893649.44,2.0085801,6.9788168,638.287422,4.8,9.8,44.4,-1.0,321.1306453688218,5988.465469488619,5988.465469488619,296.9466143807339,0.07624082339308368,3.5531357338621956,84.70000000000002,0.3149582632134633
1306893649.86,2.0090954,6.9792385,655.2821732,4.8,10.0,44.4,-1.0,326.1197392068438,6535.395965758474,6535.395965758474,295.86887207690376,0.0785440039503484,3.591813986115743,84.0,0.3153848926972778
1306893650.29,2.0096437,6.9796843,674.21262,4.8,10.0,44.7,-1.0,338.2464115624141,7228.085552201389,7228.085552201389,294.2995823590019,0.07801821209866207,3.617783835073653,86.20000000000002,0.3158002689002525
1306893650.71,2.0101775,6.9801156,693.8320431999999,7.7,14.4,44.9,-1.0,335.8659926871076,7508.911516426745,7508.911516426745,294.57166411229446,0.0781558424361791,3.656392261070296,85.70000000000002,0.3162086787865167
1306893651.15,2.0107464,6.9805664,719.5538288,31.5,18.6,46.0,-1.0,339.1195782263977,7753.893093813287,7753.893093813287,293.9503688785006,0.07607463136137549,3.662011117077498,84.39999999999999,0.3166291074829297
1306893651.58,2.0113206,6.9809914,750.9514676,50.0,21.7,48.7,-1.0,339.213616181612,8670.927898348227,8670.927898348227,294.9091502872044,0.07617423196614888,3.5826518797525133,85.0,0.31708038701048874
1306893652.0,2.0119157,6.9813877,786.3517312,53.7,20.4,51.7,-1.0,343.41230650326213,10726.10256106625,10726.10256106625,294.467367054807,0.07478930295409425,3.567094095966881,84.2,0.31757491894399703
1306893652.43,2.0125559,6.9817709,825.4921524,59.9,23.1,54.8,-1.0,345.45638430914676,14609.003662101208,14609.003662101208,296.73992916263705,0.07413713153226249,3.5578678536571444,82.00000000000001,0.31812395656429454
1306893652.85,2.0132216,6.9821183,866.8307364,66.9,27.3,59.1,-1.0,350.5830233313234,19328.33605022187,19328.33605022187,298.68187790736187,0.07278461702073366,3.629457499061047,81.10000000000001,0.3187322461530959
1306893653.28,2.0139279,6.982425,910.7283755999999,69.7,26.5,64.1,-1.0,344.8302602332043,25144.097129588998,25144.097129588998,299.43139623412264,0.07292906670321857,3.753049134737359,81.19999999999999,0.31940728989762784
1306893653.72,2.0146927,6.9826954,957.3819204,71.7,27.6,68.9,-1.0,348.9976485590593,31170.516389388053,31170.516389388053,299.11046611326447,0.07259190742664731,3.7592754289832366,81.0,0.3201518437034021
1306893654.14,2.0154409,6.9829014,1002.0997696,74.2,30.7,74.3,-1.0,344.7871692246179,36113.25481210369,36113.25481210369,298.9268875892161,0.07007620700503182,3.7447936771306796,81.8,0.3209610847357731
1306893654.56,2.0162087,6.9830504,1047.2769363999998,75.6,30.4,80.1,-1.0,343.5491669004807,39032.19746953402,39032.19746953402,298.92336401292584,0.06782747502316434,3.7349587222042033,82.10000000000001,0.32183156811285085
1306893654.99,2.0169928,6.9831416,1092.51972,76.2,30.4,85.6,-1.0,336.093961329306,40256.724254515844,40256.724254515844,300.18798805276253,0.06806383201352753,3.6672465713237345,83.50000000000001,0.32276183932894886
1306893655.41,2.0177746,6.9831743,1136.7782516,77.0,31.0,91.5,-1.0,340.14237772016224,38381.92892323711,38381.92892323711,300.2907781562707,0.06824841834457449,3.6565811013035945,83.70000000000002,0.32373536295099614
1306893655.84,2.0185425,6.9831475,1179.8556808,77.5,31.0,97.4,-1.0,327.28561822304084,34564.18724901155,34564.18724901155,298.62965592511415,0.06826808375889615,3.679432812564811,83.69999999999999,0.324736139416438
1306893656.26,2.0192937,6.9830629,1221.7848159999999,77.5,30.4,103.1,-1.0,332.35620647430875,30030.527367866325,30030.527367866325,299.2421489038587,0.06865452902525357,3.648508167881298,82.6,0.3257521499151256
1306893656.68,2.0200231,6.9829228,1262.5000404,77.5,30.6,108.8,-1.0,330.91447504320354,26654.23509186778,26654.23509186778,297.00718021107025,0.06865513801518318,3.641966970234571,83.89999999999999,0.3267718349544957
1306893656.89,2.0203783,6.9828322,1282.480356,77.8,30.8,111.5,-1.0,331.03241017467326,26758.483189248447,26758.483189248447,294.5813804925926,0.067298703180907,3.6643415636439776,85.6,0.3277416840358605
1306893657.32,2.0210646,6.9826097,1321.6535855999998,77.7,30.8,117.6,-1.0,323.9570816113345,32702.452645144946,32702.452645144946,295.5496258173668,0.07023065571451251,3.599429302415573,86.2,0.3287005094951781
1306893657.74,2.0217049,6.9823377,1359.3504372,77.4,29.9,123.4,-1.0,328.31952921299154,40916.12423711528,40916.12423711528,295.2772086029626,0.07226909342579269,3.5455255164986603,86.9,0.3296384360043645
1306893658.18,2.0223184,6.9820103,1396.9160551999998,69.0,24.6,128.5,-1.0,323.0040909811674,49195.606171803585,49195.606171803585,296.17311955058886,0.07318614676907904,3.5774469404914475,86.50000000000001,0.3305596739746182
1306893658.61,2.0228751,6.9816622,1432.9724867999998,49.4,18.7,131.6,-1.0,320.01053367088815,57699.88815513511,57699.88815513511,296.5841601298865,0.07546278016135284,3.6152307568092024,87.20000000000002,0.3314596302300863
1306893659.05,2.0234426,6.9812781,1471.3255064,29.5,14.1,132.9,-1.0,330.400022986268,63932.156047838325,63932.156047838325,295.43936535497227,0.07370304126714283,3.5961417108793317,88.4,0.33234351037006876
1306893659.48,2.0239928,6.9808937,1508.4318068,16.1,14.5,133.5,-1.0,332.6953187582201,65018.40538439041,65018.40538439041,293.59745865268684,0.07735492713666656,3.60840403259854,90.5,0.3332107019711186
1306893659.9,2.0245389,6.9805057,1545.7349576,5.4,15.0,133.8,-1.0,340.89273413209213,63581.497665951196,63581.497665951196,295.02819393836097,0.08099340508804433,3.622206550133788,92.1,0.334064420256333
1306893660.33,2.0250976,6.9801062,1585.0066124,-3.4,15.4,133.8,-1.0,341.7623082080147,57456.19840580197,57456.19840580197,292.4650137756812,0.08049677617698084,3.5801268249710847,94.60000000000001,0.33491193775414574
1306893660.75,2.0256452,6.9797164,1624.6063512,-9.2,15.4,133.6,-1.0,353.8460076341507,48363.259602008024,48363.259602008024,294.36969208873006,0.07795818470538293,3.5837688908791288,96.7,0.3357568524523085
1306893661.17,2.0262056,6.9793217,1666.010552,-12.6,15.4,133.3,-1.0,360.07442074663163,39489.69677487682,39489.69677487682,296.22497250150826,0.0774413275504181,3.567819231756047,94.60000000000001,0.33665175621433824
1306893661.6,2.0267913,6.9789152,1709.8097659999999,-14.6,15.4,132.9,-1.0,364.841441212235,31512.97557531635,31512.97557531635,295.71544945076255,0.07647238307798043,3.507251644645034,92.9,0.33755745393962255
1306893662.03,2.0273898,6.9785067,1754.8556992,-15.1,15.2,132.5,-1.0,369.57657944599043,25421.61053385543,25421.61053385543,296.13266828273663,0.07594620687312179,3.493861899980085,92.5,0.33848029952142483
1306893662.5,2.0280572,6.978059,1805.0853596000002,-14.4,15.0,132.0,-1.0,373.7608238670497,21637.13799992744,21637.13799992744,297.1281877023635,0.07645876675751741,3.382899063185863,94.89999999999999,0.3394326945345483
1306893662.94,2.0286931,6.9776392,1852.8215816,-13.1,15.0,131.7,-1.0,377.2670509196892,19664.988316149895,19664.988316149895,296.8508680754204,0.07426327918782843,3.3436934459293703,93.39999999999999,0.3404123423910661
1306893663.36,2.0293095,6.9772379,1898.9173835999998,-11.6,14.7,131.4,-1.0,380.4878263228095,18741.743160751532,18741.743160751532,296.6591881000383,0.07455322081280887,3.375603384680287,91.8,0.3414100567392726
1306893663.79,2.0299528,6.976824,1946.8176475999999,-9.8,14.6,131.1,-1.0,385.5365350968295,18247.496466887595,18247.496466887595,298.3168398911299,0.07227109671473006,3.3518359135054236,90.29999999999998,0.3424329570017398
1306893664.22,2.0306031,6.9764114,1994.8819535999999,-8.0,14.6,130.7,-1.0,387.0170131234212,18296.402899196328,18296.402899196328,296.78834620920065,0.0688261367810306,3.3220004149427482,90.5,0.3434809666255368
1306893664.65,2.0312707,6.975993,2043.8977032,-6.0,14.6,130.5,-1.0,394.6299281303557,18564.747383597052,18564.747383597052,298.5759163273381,0.06908800807233315,3.37231044694134,89.30000000000001,0.3445517124698063
1306893665.07,2.0319428,6.9755739,2093.17592,-4.1,14.3,130.5,-1.0,405.22561689155964,19066.41383430886,19066.41383430886,298.63548483690755,0.0703065267779772,3.4410915439719596,86.2,0.3456450414286864
1306893665.49,2.0326103,6.9751582,2142.1588612,-2.9,14.3,130.5,-1.0,402.4916262084009,19911.113969873673,19911.113969873673,298.15720230876207,0.07162859165701803,3.381197599435074,88.2,0.3467560541146007
1306893665.91,2.0332794,6.9747423,2191.2074192,-2.2,14.3,130.5,-1.0,403.0484164062817,21011.19945894955,21011.19945894955,299.4981317430376,0.07053229504258339,3.4319120412245443,88.2,0.34787931526945637
1306893666.35,2.0339973,6.9742967,2243.766476,-1.5,14.1,130.5,-1.0,411.95318550639524,22360.29747945087,22360.29747945087,298.29612178608204,0.0677628454368079,3.497239754943415,87.9,0.3490201070454843
1306893666.77,2.0346897,6.9738679,2294.4226456,-1.1,14.1,130.5,-1.0,415.69957764073484,23933.740491123324,23933.740491123324,299.10194424785686,0.06688926553836975,3.514463702142722,87.4,0.3501618940096138
1306893667.21,2.0354157,6.9734193,2347.4082116,-0.8,14.1,130.5,-1.0,415.6071217299984,25642.713953653794,25642.713953653794,301.45278763997885,0.0679153681653154,3.5063707959575496,86.30000000000001,0.35131592944268475
1306893667.65,2.0361579,6.9729618,2401.4436464,-0.6,13.9,130.5,-1.0,423.97739799520616,27296.516332542727,27296.516332542727,300.5059636758739,0.06890838543132197,3.4565593229426756,88.00000000000001,0.3524884906850294
1306893707.26,2.128124,6.9233428,8143.7994732,-0.6,13.4,130.5,-1.0,502.3048838683212,28440.31231649765,28440.31231649765,301.0705803834851,0.0673806089720315,3.5861606399171952,87.60000000000001,0.3669481144820548
1306893714.11,2.1449224,6.9145611,9153.2483244,-0.6,13.5,130.7,-1.0,525.970644496387,30246.242443435305,30246.242443435305,302.43593069987116,0.06943139590347655,3.6105223736478176,85.4,0.38365096881276345
1306893720.95,2.1616884,6.9057863,10161.3192228,-0.6,13.6,130.7,-1.0,525.9782312809602,33206.229257921834,33206.229257921834,303.3815394636117,0.06752765579836958,3.6131951563297213,86.00000000000001,0.4025916184190626
1306893727.33,2.1772853,6.897612,11099.9675468,-0.6,13.7,130.7,-1.0,524.8388887267902,37419.75205897916,37419.75205897916,302.30916210965137,0.06699738308910462,3.585559706943318,88.00000000000001,0.4236074648757555
1306893731.35,2.1871304,6.8924431,11693.3402692,0.8,13.7,130.7,-1.0,526.1784019699259,43969.92118967164,43969.92118967164,302.1482290614598,0.06604787685977105,3.62115302150845,87.9,0.4458935541146007
1306893731.56,2.1876237,6.8921838,11723.097488,4.2,13.7,130.7,-1.0,504.29166118960904,51784.13564698716,51784.13564698716,300.7257044589178,0.0679262508674771,3.6724420512693854,90.0,0.4681346302300863
1306893731.77,2.1881413,6.8919113,11754.3310848,9.4,13.7,130.8,-1.0,530.1530210550497,64106.10333343804,64106.10333343804,301.3204958642529,0.07089919789146183,3.6754361529806614,93.00000000000001,0.4903259469404974
1306893731.98,2.1886588,6.891638,11785.564681599999,15.4,13.7,130.9,-1.0,530.6760351830268,66544.7512233628,66544.7512233628,298.7330891088871,0.0717562319758775,3.7148211111306395,93.00000000000001,0.5124719443158255
1306893732.19,2.1891782,6.8913624,11816.9623204,23.1,13.8,131.1,-1.0,533.3711474494991,67156.13205153737,67156.13205153737,296.95512590136383,0.07099397635518755,3.7346274090728513,93.60000000000001,0.5345675698626322
1306893732.4,2.1896919,6.8910877,11848.0646836,33.0,14.0,131.3,-1.0,528.7690496714754,64904.551657894845,64904.551657894845,297.80786171560476,0.07116552185199945,3.7110215906624813,94.0,0.5566096849107512
1306893732.61,2.1901824,6.8908226,11877.789094,40.1,14.3,131.7,-1.0,505.56574779381856,58143.76497335849,58143.76497335849,295.92479686654247,0.07400162915121122,3.583503102258248,96.70000000000002,0.56532232708048
1306893732.82,2.1906905,6.8905443,11908.6617984,45.7,14.6,132.1,-1.0,526.7098586194913,60028.3799853164,60028.3799853164,295.55772202843747,0.0752302981340007,3.620686431173601,98.70000000000002,0.5717516249807425
1306893733.03,2.1911986,6.8902615,11939.632927999999,50.1,15.0,132.6,-1.0,529.4500816429921,64214.0167021817,64214.0167021817,293.6801946128792,0.0775009099772216,3.5899935777994534,99.20000000000002,0.5759010234934283
1306893733.24,2.1917035,6.8899749,11970.538440799999,54.3,15.4,133.3,-1.0,529.7750293273474,68911.42623576875,68911.42623576875,292.42207720701543,0.07732520898227356,3.529043910986799,97.50000000000001,0.5779323555144258
1306893733.45,2.1922071,6.8896827,12001.5751872,57.8,15.8,134.0,-1.0,532.7021336291782,73207.70752958441,73207.70752958441,292.5280166544925,0.07860024568024158,3.456957859680326,96.4,0.5786515703000775
1306893733.66,2.192692,6.8893941,12031.693298400001,61.2,16.4,134.8,-1.0,516.7202612749917,75481.8580480821,75481.8580480821,291.5561774572079,0.07578856532246789,3.4696232103272155,93.6,0.5793716271679691
1306893733.87,2.1931995,6.8890834,12063.484638,64.1,16.9,135.7,-1.0,547.8008958845647,74650.09282909134,74650.09282909134,293.3949705597186,0.07449999587755869,3.4459620348039475,93.19999999999999,0.5800929854356857
1306893734.08,2.1936751,6.8887827,12093.668366,67.0,17.6,136.7,-1.0,518.4935983759362,73677.03040556631,73677.03040556631,294.56209403550895,0.07446855826179981,3.4024568118246425,92.80000000000001,0.580811894009614
1306893734.29,2.1941433,6.888476,12123.7536688,69.5,18.4,137.8,-1.0,517.8532267678606,79055.06926408174,79055.06926408174,294.7499657457662,0.07686557964281299,3.3869873522974925,92.20000000000002,0.5815277404663068
1306893734.51,2.1946446,6.8881336,12156.5292604,72.0,19.4,139.2,-1.0,539.6978033973097,86247.98570301806,86247.98570301806,293.7061988735599,0.07620524210532084,3.5082841482808975,90.60000000000001,0.5822474911224748
1306893734.72,2.1950906,6.887814,12186.2864792,74.4,20.6,140.8,-1.0,512.6544217704015,92695.5558128996,92695.5558128996,295.54739791738325,0.07568943892745046,3.567077592203462,88.60000000000001,0.5829673183315736
1306893734.93,2.195541,6.887474,12217.0935668,76.5,22.0,142.4,-1.0,531.5276254184815,101818.56477294212,101818.56477294212,295.0602479658762,0.07475183185711662,3.4895971245142072,87.30000000000001,0.5836869924348107
1306893735.14,2.1959651,6.8871333,12247.0148276,78.6,24.0,144.5,-1.0,515.3863722230903,108883.97437055579,108883.97437055579,294.9799635113712,0.07549677938893613,3.578959276860187,86.69999999999999,0.5844042168442595
1306893735.35,2.1963648,6.8867888,12276.2799204,80.5,26.4,146.7,-1.0,503.8197900935752,113806.26140697258,113806.26140697258,296.8405561948073,0.07798812537204224,3.6213007047911403,86.79999999999998,0.5851176136071641
1306893735.56,2.1967469,6.8864301,12305.61063,82.6,29.5,149.6,-1.0,505.8981541541576,123271.25800621728,123271.25800621728,295.91656857175025,0.07983757665875764,3.7102211667659195,87.7,0.5858270296176629
1306893735.78,2.1971276,6.8860325,12336.77861,84.6,32.2,153.0,-1.0,514.1754989588379,136116.8524726963,136116.8524726963,298.4069687687635,0.08163801501972784,3.627631742789384,88.10000000000001,0.5865388953219498
1306893735.99,2.1974361,6.885668,12363.9439652,85.4,32.3,156.3,-1.0,471.4483050455565,143877.56787270773,143877.56787270773,296.45319126097223,0.08209070978220719,3.642352052831465,88.3,0.5872399670629822
1306893736.21,2.1977354,6.8852646,12392.5200816,84.5,31.2,159.8,-1.0,480.8216154676822,157414.72261957877,157414.72261957877,296.56750724107,0.08376475279781763,3.7305061430533395,85.89999999999999,0.5879372877104012
1306893736.44,2.1980071,6.8848413,12421.1946232,82.4,30.8,163.4,-1.0,465.7629285663027,168240.10676625412,168240.10676625412,296.03103233797844,0.08236460437001786,3.8125683227753977,86.10000000000001,0.5886313165817922
1306893736.66,2.1982334,6.8844291,12448.2615532,81.0,29.3,166.6,-1.0,460.86933999393386,172482.25233695825,172482.25233695825,297.49666528212816,0.08354769225371314,3.8072800393803825,85.80000000000001,0.5893120252432096
1306893736.87,2.1984227,6.8840255,12474.1473808,80.6,27.1,169.2,-1.0,462.64284282991616,175317.7586730905,175317.7586730905,295.9907144976684,0.08346584708426726,3.792372314200493,85.5,0.5899837006587828
1306893737.08,2.1985772,6.8836404,12498.35998,80.7,24.6,171.7,-1.0,431.4360749133132,171032.6029868956,171032.6029868956,295.3996061360504,0.08133760794025821,3.802417001722247,85.4,0.5906399889352482
1306893737.3,2.198723,6.8832138,12524.508274799999,80.9,23.7,174.1,-1.0,452.4330050953959,158313.59744471207,158313.59744471207,295.7716503304897,0.08024144876951665,3.781522022632534,86.2,0.5912874736246619
1306893737.51,2.1988344,6.8828237,12547.8350472,80.5,23.2,176.1,-1.0,426.0938398584786,145191.57405738955,145191.57405738955,296.39083484482194,0.0774914196667598,3.829153761304442,85.40000000000002,0.5919211022335858
1306893737.72,2.1989273,6.882425,12571.129011199999,78.6,21.6,178.2,-1.0,432.2280673223117,125912.90663439293,125912.90663439293,298.0934106555058,0.07748349579400093,3.7728904608087563,85.3,0.5925406451032271
1306893737.93,2.1990042,6.8820104,12594.8822928,74.6,19.3,179.9,-1.0,448.29477361894254,107243.06273043733,107243.06273043733,298.3288175717938,0.07563980343367517,3.7816575958324914,87.8,0.5931428870104888
1306893738.14,2.1990617,6.881616,12617.1591964,67.7,16.3,181.3,-1.0,421.56447736237124,96314.9256195188,96314.9256195188,299.43924792060875,0.07469233660711012,3.7218164331612678,86.7,0.5937337225310487
1306893738.35,2.1991083,6.8812188,12639.3704832,60.1,13.4,182.2,-1.0,423.7056615546031,83870.05501711386,83870.05501711386,299.84552888743417,0.07326885097739805,3.656435674885255,87.3,0.5943097067830172
1306893738.57,2.1991509,6.8807877,12663.058148,51.7,10.0,182.7,-1.0,439.86013175529547,73144.57756695106,73144.57756695106,301.48751267199515,0.07294676593766136,3.653463311849919,86.19999999999999,0.5948740549894914
1306893738.78,2.1991866,6.8803896,12684.1211408,44.5,6.5,182.8,-1.0,423.04444565715323,73979.59917209031,73979.59917209031,300.7872312560295,0.0725703164211898,3.650516404784796,86.39999999999999,0.5954243940096138
1306893739.0,2.199225,6.8799585,12705.380984,38.9,4.1,182.7,-1.0,438.4074757508235,65604.44090128386,65604.44090128386,301.35007479726835,0.07063873556501239,3.6930679009218093,85.4,0.5959639390664817
1306893739.22,2.1992645,6.8795289,12724.377047599999,34.5,2.7,182.5,-1.0,435.6802948644139,57624.778115081586,57624.778115081586,302.323082555518,0.07272025587567724,3.6637418760366867,85.7,0.5964913122073391
1306893739.44,2.1993063,6.8790951,12741.174948400001,31.1,1.7,182.3,-1.0,439.95627340402064,65104.98996290769,65104.98996290769,302.3428327035043,0.07244686765291317,3.601474618013847,84.5,0.5969968677628947
1306893739.65,2.1993471,6.8786865,12754.7248176,28.5,1.1,182.1,-1.0,432.5079309779872,61668.71541459207,61668.71541459207,300.267315157488,0.07450054915483842,3.609822522611629,87.80000000000001,0.5974796105450468
1306893739.86,2.1993913,6.878258,12766.6342668,26.0,0.6,182.0,-1.0,455.79831604615384,59405.97826610978,59405.97826610978,298.7986585380054,0.07284055610675731,3.7074807248855426,86.7,0.5979357894601826
1306893740.08,2.199437,6.8778253,12776.3783616,24.1,0.2,181.9,-1.0,436.78719789215194,74244.35984887072,74244.35984887072,296.9733432948378,0.07239517364626656,3.6643185553588364,87.60000000000001,0.5983592802738308
1306893740.29,2.1994818,6.8774065,12783.825868400001,22.8,-0.1,181.8,-1.0,443.4247798207857,69450.61938034826,69450.61938034826,295.87255672317474,0.07340898181499074,3.7159313257392665,88.5,0.5987481691627197
1306893740.5,2.1995281,6.8769777,12789.53453,21.6,-0.3,181.7,-1.0,455.0337121218958,67365.8411875596,67365.8411875596,295.98637122369894,0.07397715640280339,3.6828030638641938,91.4,0.5990985519273742
1306893740.71,2.1995747,6.8765468,12793.504346400001,20.7,-0.6,181.7,-1.0,457.30615501023544,76899.62652328171,76899.62652328171,294.5988021405062,0.07541534165737178,3.5914019023750696,94.10000000000001,0.5994029263805676
1306893740.92,2.1996207,6.876122,12795.8337428,19.9,-0.8,181.7,-1.0,449.99268353045954,75066.97292898838,75066.97292898838,295.52771850805726,0.07434275980978651,3.479358876714903,95.7,0.5996635891102262
1306893741.13,2.199666,6.8757014,12796.7195696,19.2,-1.0,181.7,-1.0,444.82299310505397,73445.32299507529,73445.32299507529,296.34162233961683,0.07617378522822095,3.425473755274972,96.2,0.5998767124698063
1306893741.34,2.1997126,6.8752645,12796.2274436,18.4,-1.1,181.7,-1.0,464.26847747187986,73184.53408682923,73184.53408682923,295.38169924247575,0.07469310670871643,3.466921083723209,98.30000000000001,0.6000443633884415
1306893741.56,2.1997593,6.8748214,12794.488598400001,17.8,-1.3,181.7,-1.0,447.57346692554347,75298.80447177382,75298.80447177382,295.0326810564515,0.07630233640270198,3.521241565244916,100.30000000000001,0.6001687619011273
1306893741.78,2.1998073,6.8743596,12791.4046088,17.2,-1.5,181.8,-1.0,468.8952632332441,62812.919654302495,62812.919654302495,295.17724516338393,0.07502269455460207,3.44908736525817,98.7,0.6002543480778553
1306893741.99,2.1998513,6.873929,12787.5004092,16.6,-1.6,181.8,-1.0,456.69166110440176,69709.9252165828,69709.9252165828,294.73067512680683,0.07594062536954503,3.429936217560357,99.0,0.6003030357418973
1306893742.2,2.1998961,6.8734817,12782.480724,16.0,-1.7,181.9,-1.0,476.72126269449086,69993.23111316995,69993.23111316995,295.69084281388893,0.07770728075593768,3.481441233728439,97.60000000000001,0.6003172745870416
1306893742.41,2.1999403,6.8730323,12776.5424036,15.4,-1.9,181.9,-1.0,479.0371265386901,75444.33916327707,75444.33916327707,296.3097558282399,0.07621752142814837,3.4983883206956903,96.7,0.6003002798363855
1306893742.62,2.1999817,6.8726019,12770.079148800001,14.8,-2.0,182.0,-1.0,456.55860597723927,85215.70812449006,85215.70812449006,295.64518937361936,0.07441818800270954,3.632517693475642,94.5,0.6002548839483716
1306893742.83,2.2000235,6.8721568,12762.6972588,14.2,-2.1,182.1,-1.0,474.04028831127295,85076.46481299256,85076.46481299256,296.80755320581795,0.07392334766264269,3.68114091328532,94.60000000000001,0.6001830007462717
1306893743.05,2.2000672,6.8716798,12754.0686496,13.6,-2.2,182.1,-1.0,486.33772466578955,85820.11022788515,85820.11022788515,296.24032318445484,0.07537583759874686,3.689111846430002,94.9,0.6000855488652569
1306893743.26,2.2001062,6.8712433,12745.5384656,13.0,-2.3,182.2,-1.0,463.88469486066333,86091.8989413577,86091.8989413577,296.2329078340049,0.07383342842498289,3.759639415979387,94.4,0.5999661262930783
1306893743.47,2.2001455,6.8707919,12736.1880716,12.4,-2.4,182.3,-1.0,481.71394864276164,75602.03038377094,75602.03038377094,296.8394421372544,0.07490536564593078,3.8279577051492644,93.6,0.5998260344295613
1306893743.69,2.2001863,6.8703103,12725.6565752,11.7,-2.5,182.3,-1.0,491.54682645956865,74043.97533149582,74043.97533149582,297.2668477490664,0.07338123422886761,3.808459584118464,91.7,0.5996654263805674
1306893743.91,2.2002258,6.8698305,12714.6657612,11.1,-2.6,182.4,-1.0,489.5150711269368,86800.28509191165,86800.28509191165,299.26670136258633,0.07417021516860609,3.895843952236018,89.9,0.5994863690752306
1306893744.13,2.2002642,6.8693507,12703.2156296,10.4,-2.7,182.5,-1.0,489.70447109362544,81856.91774877597,81856.91774877597,299.9409483572206,0.07391107137896999,3.7972377433822753,89.60000000000001,0.5992897045957907
1306893744.35,2.2003013,6.868875,12691.4046056,9.8,-2.8,182.6,-1.0,484.90932102885427,89449.42557202654,89449.42557202654,298.9106465404534,0.07502937450482157,3.8188599194653476,89.9,0.5990771936596576
1306893744.57,2.2003376,6.8683948,12679.134264,9.2,-2.9,182.6,-1.0,490.1175913664391,97988.44359188156,97988.44359188156,300.5658185941584,0.07538490322673858,3.6955436259358714,89.10000000000001,0.5988499080078641
1306893744.78,2.2003726,6.8679189,12666.634263599999,8.6,-3.0,182.7,-1.0,510.9661956128297,88117.62620131088,88117.62620131088,300.43810771987955,0.07485132859480195,3.576289765738992,91.30000000000001,0.5986085366167879
1306893745.0,2.200407,6.8674385,12653.707754,8.0,-3.0,182.7,-1.0,490.3614037375561,91409.76946473181,91409.76946473181,299.3630188577885,0.07603032433081712,3.551400093786699,90.20000000000002,0.5983542277803924
1306893745.21,2.2004408,6.8669535,12640.3547352,7.5,-3.1,182.8,-1.0,521.7780148024165,91972.65222397407,91972.65222397407,299.3539797992958,0.0775263696116157,3.5403891928016136,89.3,0.5980888953219498
1306893745.42,2.2004716,6.8664999,12627.625076,6.9,-3.2,182.8,-1.0,484.52955518410874,99783.1067495906,99783.1067495906,297.03725575017927,0.07983787528650255,3.4826744692099982,89.80000000000001,0.5978137640883538
1306893745.63,2.2005033,6.8660217,12614.00959,6.4,-3.2,182.9,-1.0,513.7485970864897,99196.46404615373,99196.46404615373,298.5595524052829,0.08092321768149377,3.4077878128825683,89.9,0.5975286809737433
1306893745.84,2.2005342,6.8655434,12600.1316368,5.9,-3.3,182.9,-1.0,513.8705555342922,104253.91621447683,104253.91621447683,298.65559842093046,0.08059743934114313,3.46760086025537,89.9,0.5972357894601825
1306893746.06,2.2005659,6.8650401,12585.3350484,5.4,-3.4,183.0,-1.0,516.558472109552,107705.34695869141,107705.34695869141,296.2047273566377,0.08075457150363013,3.420252027879614,93.2,0.5969340178066392
1306893746.28,2.2005968,6.8645365,12570.3416096,5.0,-3.4,183.0,-1.0,516.7190999307284,106525.53490194444,106525.53490194444,297.3777845173526,0.07885525101442055,3.4819958214847,93.8,0.5966239784365606
1306893746.5,2.2006272,6.8640305,12555.0857036,4.5,-3.5,183.0,-1.0,519.5631156660852,104780.41197352545,104780.41197352545,297.80019123808,0.07838585180212922,3.4953045895052433,94.2,0.5963059010087389
1306893746.72,2.2006569,6.8635243,12539.665755600001,4.1,-3.5,183.1,-1.0,519.7705446560034,109142.51666485936,109142.51666485936,296.96809883525793,0.08020207515526132,3.595571160971621,93.60000000000001,0.5959804744995525
1306893746.94,2.2006861,6.8630156,12524.016148800001,3.7,-3.6,183.1,-1.0,522.5944335803055,109930.92255179129,109930.92255179129,296.30556893704767,0.08074653574450612,3.616668481915128,93.80000000000001,0.5956476989090013
1306893747.16,2.2007149,6.8625021,12508.1040748,3.3,-3.6,183.1,-1.0,528.0042476283273,102144.5725667234,102144.5725667234,296.8148019153886,0.07979547405816291,3.610852033117822,92.5,0.5953079570017398
1306893747.38,2.2007434,6.8619838,12491.863916799999,3.0,-3.7,183.2,-1.0,533.6220127810656,109841.98752654399,109841.98752654399,298.0390230301065,0.07828544088221107,3.623656218326652,92.60000000000001,0.5949614784365604
1306893747.6,2.2007716,6.8614605,12475.3941,2.7,-3.7,183.2,-1.0,539.1506567621518,102976.2503272688,102976.2503272688,299.44891797847674,0.07683937163392582,3.597577231024426,92.1,0.5946062728372604
1306893748.04,2.2008266,6.860411,12441.9951488,2.1,-3.8,183.2,-1.0,540.8926663084865,110384.23794662283,110384.23794662283,298.1343114409323,0.07598214581167062,3.5687147094557967,90.5,0.5942049058206375
1306893748.46,2.2008773,6.8594091,12409.7773,1.6,-3.8,183.2,-1.0,541.0119507512989,117257.21147205321,117257.21147205321,296.8472270501524,0.07631712463880168,3.572486770714401,91.39999999999999,0.5937607457156505
1306893748.89,2.2009283,6.8583712,12376.115881599999,1.2,-3.8,183.3,-1.0,547.9838160462904,121956.67391832003,121956.67391832003,299.3231211803167,0.07475142802427698,3.5791781161838734,89.60000000000001,0.5932725676754055
1306893749.33,2.2009793,6.8573018,12341.1749356,0.8,-4.0,183.3,-1.0,552.2305451666952,123671.63102808435,123671.63102808435,298.3009285857089,0.07810240331523301,3.5573497321122893,87.70000000000002,0.5927378454531833
1306893749.76,2.2010293,6.8562329,12306.0371392,0.5,-4.0,183.3,-1.0,566.0956462003555,122700.71059679969,122700.71059679969,299.6452472646462,0.07650844348311957,3.5285996316312978,88.40000000000002,0.5921567321548455
1306893750.2,2.2010789,6.8551648,12270.7024924,0.2,-4.0,183.3,-1.0,551.4398828362308,122490.50923328745,122490.50923328745,299.11457891570984,0.07488330159064023,3.5479770999797013,88.70000000000002,0.5915291512274616
1306893750.63,2.2011285,6.8540928,12235.105378400001,-0.1,-4.0,183.3,-1.0,567.9727962551536,119613.43791447581,119613.43791447581,300.00816414810555,0.07759582068839445,3.5968535417422007,85.4,0.5908550261181003
1306893751.49,2.2012278,6.8519772,12164.4688932,-0.4,-4.0,183.3,-1.0,559.6645690358747,121577.27859960179,121577.27859960179,299.1357422458295,0.07562467562382928,3.663227933338175,88.2,0.5900532107200249
1306893751.91,2.201277,6.8509522,12130.08569,-0.5,-4.0,183.3,-1.0,554.9170802628618,122294.76638155125,122294.76638155125,299.0594525203524,0.07600286425056905,3.768530980719945,88.7,0.5892090615511711
1306893752.34,2.2013285,6.8499035,12094.81666,-0.5,-4.0,183.3,-1.0,554.5171168649307,119388.57345639591,119388.57345639591,297.6199095877656,0.07641014336869136,3.7615622735036762,90.6,0.5883210475529208
1306893753.2,2.2014341,6.8478241,12024.672300799999,-0.5,-4.0,183.2,-1.0,549.3381868165269,116173.95012072436,116173.95012072436,296.8045600024985,0.07576143770746911,3.7508995487081425,90.0,0.587347294272081
1306893754.48,2.201599,6.8447548,11920.7352896,-0.5,-3.9,183.2,-1.0,544.4191008424842,110965.86114906867,110965.86114906867,298.3471627917238,0.07723857007448667,3.6369007267079527,88.2,0.5862061962843295
1306893756.19,2.2018288,6.8407933,11786.122424399999,-0.5,-3.8,183.2,-1.0,524.223314025253,103059.11514941206,103059.11514941206,297.8128248268339,0.07714764968676015,3.6332355846840696,89.6,0.5848295449282489
1306893757.45,2.202007,6.8379213,11688.1893504,-0.2,-3.8,183.2,-1.0,515.0296405185417,96100.3876884457,96100.3876884457,299.3405366156746,0.07336926927809129,3.7040191661724804,92.00000000000001,0.5833059119448718
1306893759.13,2.202254,6.8341711,11560.006931599999,-0.2,-3.6,183.2,-1.0,503.3504899849595,92279.4024521314,92279.4024521314,297.3914120570707,0.0742162425804856,3.685786340542453,90.69999999999999,0.5815651748495089
1306893763.79,2.2029807,6.8242576,11221.1617764,-0.2,-3.2,183.2,-1.0,477.32308571197456,84013.52582122585,84013.52582122585,296.29081990385725,0.07428679681720629,3.6744219761450676,92.5,0.5791162465905412
1306893765.07,2.2031906,6.8216424,11131.857311599999,-0.2,-3.1,183.2,-1.0,456.4488767326843,79111.63312274059,79111.63312274059,297.7120915707982,0.0742217584552517,3.6483476714347374,92.89999999999999,0.576542001183717
1306893766.33,2.2034013,6.8191092,11045.3743692,-0.2,-3.0,183.2,-1.0,448.3513959348772,72333.48512575566,72333.48512575566,300.22273556603966,0.07647039918630613,3.5802783242808442,93.30000000000001,0.5739307807112761
1306893766.76,2.2034736,6.8182589,11016.3717436,-0.1,-3.0,183.2,-1.0,440.14477224271434,65082.20338095542,65082.20338095542,299.4199815039388,0.07533087837189827,3.571458593449676,90.1,0.5713321149195001
1306893767.18,2.203546,6.8174172,10987.6643936,-0.1,-2.9,183.2,-1.0,446.81175414458664,57259.34865205521,57259.34865205521,301.91785300742436,0.07619391223278156,3.5930461604242545,91.19999999999999,0.5687487597139008
1306893768.02,2.2036892,6.8157808,10931.955730399999,-0.2,-2.9,183.1,-1.0,432.9092952414507,51716.1521768752,51716.1521768752,302.3632025219695,0.07687743671336046,3.7267573999072408,93.10000000000002,0.5661990877978903
1306893768.44,2.203762,6.8149623,10904.101398800001,-0.2,-3.0,183.1,-1.0,433.071898304963,47454.07985211102,47454.07985211102,300.9803370202061,0.07698375181335758,3.7089059498455037,93.40000000000002,0.5638269421285991
1306893768.86,2.203835,6.8141482,10875.8533664,-3.7,-4.6,183.1,-1.0,430.54383168798256,45137.24716624968,45137.24716624968,298.9619660928592,0.08031695248125698,3.6788425154977413,94.20000000000003,0.5617029810612325
1306893769.28,2.2039057,6.8133312,10845.308746,-5.7,-5.4,183.5,-1.0,432.60650310541604,44903.205482998615,44903.205482998615,296.91273441576436,0.0829076905292184,3.6537582641824935,92.7,0.5597362597139008
1306893769.7,2.2039687,6.8125421,10813.2877476,-5.2,-5.7,183.8,-1.0,416.2591263884494,45650.407480272435,45650.407480272435,298.9178891630317,0.08317886055395407,3.6283115714311585,92.2,0.5579939150069891
1306893770.12,2.2040263,6.8117406,10778.37961,-4.9,-5.9,184.2,-1.0,423.9341093020858,43383.80879989576,43383.80879989576,300.7651327999699,0.08311939581286708,3.5732060498587934,90.2,0.5569607566517836
1306893770.54,2.2040773,6.8109455,10741.7326272,-4.9,-5.9,184.5,-1.0,420.31756019279857,42676.40221716062,42676.40221716062,298.1428245246069,0.08089880607710553,3.622267673652005,90.9,0.5560504657506461
1306893770.97,2.2041234,6.8101398,10702.92029,-4.9,-5.9,184.8,-1.0,415.67982621862495,41376.92505829178,41376.92505829178,296.213014724877,0.08014605341746135,3.6600895214209044,89.0,0.5552514062580827
1306893771.39,2.2041641,6.8093476,10663.4845932,-4.7,-5.8,185.1,-1.0,418.9718473072438,37830.63247147951,37830.63247147951,296.94611991273734,0.08117729480114648,3.6464370138841478,91.7,0.5544280029334984
1306893771.81,2.2042,6.8085761,10624.18013,-4.6,-5.8,185.3,-1.0,406.77910135404977,38934.372626151686,38934.372626151686,294.97463901170886,0.08074304496720423,3.7217718776060105,90.69999999999999,0.5535798730122384
1306893772.24,2.2042341,6.8077694,10582.2838032,-4.4,-5.9,185.5,-1.0,416.62713111901144,38212.64725985333,38212.64725985333,294.15715341126946,0.08054246745839537,3.6578535429034122,90.7,0.5527639718748807
1306893772.66,2.2042632,6.8069924,10541.306111599999,-4.0,-6.0,185.7,-1.0,410.2499282408042,38558.145061414805,38558.145061414805,296.6961752898143,0.07817896912959259,3.776389791461299,92.3,0.5519174495651693
1306893773.08,2.2042876,6.8062278,10500.361228400001,-3.4,-6.2,186.0,-1.0,402.82779276035365,38851.89264390986,38851.89264390986,296.74328550635516,0.07754546982580952,3.8256126902532235,90.89999999999999,0.5510413012712061
1306893773.5,2.2043063,6.8054695,10458.989836,-3.4,-6.6,186.4,-1.0,399.15446389738435,38498.46564130704,38498.46564130704,296.29902785513116,0.07589050396363263,3.722891920467528,92.39999999999999,0.5501398905100512
1306893773.93,2.2043206,6.8046788,10414.698496,-4.6,-7.0,186.4,-1.0,407.80453702748883,36032.41686277149,36032.41686277149,294.97562797906187,0.07397473010053073,3.809886049161578,91.1,0.5492098489527459
1306893774.35,2.2043348,6.803917,10370.6368148,-5.3,-7.0,186.4,-1.0,401.8668021057677,36887.75445194525,36887.75445194525,293.22046840320576,0.07295510310458479,3.763657710813871,93.6,0.5482584491277241
1306893774.79,2.2043532,6.8031198,10323.1958684,-5.3,-7.0,186.2,-1.0,401.79707313002484,35390.79543693162,35390.79543693162,294.0553380779147,0.07223578441135169,3.713249011614995,94.6,0.5472818633884414
1306893775.21,2.2043742,6.8023572,10276.7719824,-5.4,-7.0,186.0,-1.0,403.2406053441041,35401.40274546071,35401.40274546071,295.6921837992899,0.07060336593918799,3.6789658234581357,94.0,0.5462875173691938
1306893775.64,2.2044023,6.8015808,10228.740484799999,-4.9,-7.1,185.6,-1.0,400.963920931806,38275.411545643496,38275.411545643496,293.657129303659,0.07011146556942079,3.590045897658669,91.7,0.5452731144820547
1306893776.07,2.2044366,6.8007923,10179.4294596,-4.8,-7.0,185.6,-1.0,408.4115415774467,37787.24147783338,37787.24147783338,295.15414108785336,0.0712613695750119,3.5862888127127897,90.5,0.5442353629509962
1306893776.5,2.2044707,6.8000137,10130.6433688,-4.8,-6.7,185.5,-1.0,402.6221954400631,39959.43724775041,39959.43724775041,295.58317246553344,0.0708069828783842,3.519031443420586,88.7,0.543181535304452
1306893776.92,2.2045006,6.7992342,10082.2181704,-5.7,-6.4,185.8,-1.0,413.8034664805146,41368.907026859204,41368.907026859204,294.8932861949589,0.07238838336898476,3.406985276119512,88.7,0.5421103301425972
1306893777.34,2.2045262,6.7984756,10035.8599012,-7.1,-5.9,185.8,-1.0,400.9324625510576,43617.63237500078,43617.63237500078,296.5637689778856,0.07097556916836747,3.379431440458344,89.0,0.5410264937471466
1306893777.77,2.2045531,6.7976792,9988.3861464,-7.8,-5.3,185.8,-1.0,412.1529415691671,43431.181296516246,43431.181296516246,297.85534930793943,0.07257469315533797,3.506372227576811,87.10000000000001,0.5399284185065517
1306893778.2,2.2045826,6.7969012,9944.22604,-7.9,-2.7,185.5,-1.0,400.8328249625142,46108.16118433854,46108.16118433854,298.52513069669595,0.07282110899579117,3.4647927055548484,90.20000000000002,0.5388306494776803
1306893778.63,2.204618,6.7961047,9903.4451988,-7.1,-1.6,185.2,-1.0,410.6071643688463,45657.86887018999,45657.86887018999,299.3428278422966,0.07261571998391034,3.4690080444467855,87.70000000000002,0.5377405357418974
1306893779.05,2.2046571,6.7953287,9868.4714444,-6.1,-0.8,185.0,-1.0,408.41250605289457,45842.513995153095,45842.513995153095,298.80553021702536,0.07287190480478575,3.4783255806444537,85.3,0.5366795121198501
1306893779.47,2.2046996,6.7945645,9838.3861416,-5.0,-0.1,184.8,-1.0,400.5003032181196,46051.20741597735,46051.20741597735,297.6934937068053,0.0728549901086648,3.4861072969980262,87.1,0.5356566118573828
1306893779.9,2.2047479,6.7937555,9811.0895528,-3.7,1.0,184.6,-1.0,415.3716702334245,44583.12910774082,44583.12910774082,299.27344465807937,0.07447586877845161,3.5668141842948407,88.8,0.5346820930472341
1306893780.32,2.2047963,6.7929908,9789.9609432,-2.6,3.0,184.5,-1.0,399.56621074875653,46989.709193245086,46989.709193245086,298.52351797048834,0.07316583319147647,3.496374975953807,90.4,0.5337733332047144
1306893780.53,2.2048218,6.7925993,9781.2667172,-2.0,5.2,184.5,-1.0,409.82840229516813,45722.42638915699,45722.42638915699,298.2560229495585,0.07265431342082275,3.5095046409200754,90.6,0.5329581210437344
1306893780.96,2.2048746,6.7918126,9771.457005600001,2.2,15.9,184.5,-1.0,400.6763110538747,48703.698141201116,48703.698141201116,296.52763296666274,0.07276900570752913,3.5653607011987933,90.1,0.5322330116824048
1306893781.38,2.2049271,6.7910405,9780.4793156,2.7,24.6,184.5,-1.0,402.8042139271903,49491.549241092835,49491.549241092835,295.0980401594113,0.07445609302909315,3.5406804087993415,91.1,0.5316371236684065
1306893781.8,2.204979,6.7902818,9813.845458400001,4.6,31.3,184.8,-1.0,398.3541043052086,51097.21537746578,51097.21537746578,294.1873925834797,0.07179943259879762,3.5083810531674464,90.3,0.5312298620761056
1306893782.22,2.2050232,6.7895516,9871.686667599999,6.5,37.1,185.6,-1.0,389.00087819305537,49160.6834379851,49160.6834379851,294.9111010252798,0.07502425133783883,3.4491358729070933,89.0,0.5310606035459218
1306893782.65,2.2050548,6.7888464,9953.4780088,7.8,42.1,186.7,-1.0,375.7366625603246,44873.14127442388,44873.14127442388,295.32809669827907,0.07610093074292411,3.45182300834023,89.69999999999999,0.5311773467655193
1306893783.07,2.2050715,6.7882022,10052.690610399999,8.9,47.2,188.0,-1.0,363.46739584262406,34121.83071375911,34121.83071375911,297.3928652687928,0.07759405824940535,3.4346024528391506,93.19999999999999,0.531607191472431
1306893783.5,2.2050751,6.7875797,10173.4583308,10.3,52.3,189.6,-1.0,359.4289818316971,20617.11806047093,20617.11806047093,296.809908299668,0.0774710499759725,3.503080359430021,92.19999999999999,0.5323890265555457
1306893783.92,2.2050655,6.787012,10308.071196,11.7,57.0,191.3,-1.0,355.3144005575555,16567.30163783183,16567.30163783183,297.4321447080936,0.07773962577451314,3.456561020335617,90.9,0.533548650352571
1306893784.34,2.2050443,6.7865013,10452.7890484,13.3,61.5,193.2,-1.0,340.3470186986606,27491.443520634413,27491.443520634413,296.6010577825692,0.07620291408487362,3.4112748921780343,89.10000000000001,0.5350952492152132
1306893784.76,2.2050118,6.7860302,10610.433410399999,15.2,65.7,195.5,-1.0,339.31346346723365,38213.828540339644,38213.828540339644,297.0184441668463,0.07730416518982242,3.501137479510046,91.4,0.5370299714374355
1306893785.18,2.2049708,6.785622,10770.505594,17.5,69.8,198.1,-1.0,319.32054217527576,45873.171750209396,45873.171750209396,297.63686745845104,0.07588616558576476,3.481187568248865,91.3,0.5393610847357732
1306893785.61,2.2049184,6.7852417,10945.1118988,20.3,73.7,201.2,-1.0,321.84156256601386,48600.92011068169,48600.92011068169,299.2563005756699,0.07597587177004173,3.4635459417960623,89.50000000000001,0.5420785606762805
1306893786.03,2.2048592,6.7849192,11119.258886,23.5,77.3,204.9,-1.0,313.4594139687144,48218.94806736791,48218.94806736791,300.3210505429159,0.07826146470315658,3.432691271482214,92.10000000000002,0.5451245252432098
1306893786.45,2.2047938,6.7846457,11293.5371068,27.5,80.7,209.3,-1.0,302.480909207063,45596.17662453507,45596.17662453507,300.05206137572645,0.07489894469723031,3.541720378687048,91.50000000000001,0.5484421761618448
1306893786.87,2.2047217,6.7844139,11469.7838316,32.4,83.8,214.6,-1.0,297.9901428342748,42410.86612162088,42410.86612162088,299.98361900720766,0.07551610500542827,3.5629472228207244,90.30000000000003,0.551980222968494
1306893787.3,2.2046439,6.7842237,11645.7680892,38.6,86.6,221.3,-1.0,284.9604838451048,39613.23157386869,39613.23157386869,298.3571543687034,0.07413067013294361,3.6423081332048133,90.30000000000001,0.5556974036334108
1306893787.72,2.204561,6.7840732,11820.341585600001,45.7,88.9,228.9,-1.0,286.3160165211171,37275.36973204572,37275.36973204572,300.05443819813934,0.07397931017510032,3.6019086164721226,89.4,0.5595401311049769
1306893788.15,2.2044728,6.7839592,11994.915082000001,54.1,90.6,237.8,-1.0,278.1618819445051,36482.783112710946,36482.783112710946,299.1688329665999,0.07295531060279177,3.688463463124662,89.0,0.5634761000463593
1306893788.57,2.2043829,6.7838831,12163.2549824,63.5,91.8,247.8,-1.0,274.9015506976634,37672.58349520566,37672.58349520566,299.08417643889317,0.07296883500894144,3.729322144061559,88.89999999999999,0.5674671870979777
1306893788.99,2.2042927,6.7838414,12324.0489508,73.5,92.3,258.4,-1.0,264.37898959494237,38824.790658936836,38824.790658936836,299.98002727781596,0.07326912308471771,3.6349213945988534,86.3,0.5714656232309611
1306893789.41,2.2042013,6.7838302,12480.3481684,83.7,92.0,269.1,-1.0,260.0994701225796,41655.232085088406,41655.232085088406,301.7281359276978,0.0737250305344215,3.642541489149496,84.4,0.5754552557768929
1306893789.83,2.2041068,6.7838483,12634.3179896,93.0,91.1,279.1,-1.0,260.50957599193316,43548.94249647912,43548.94249647912,300.42404303585255,0.07281157774312158,3.665545016191758,83.5,0.5793967365292988
1306893790.26,2.2040118,6.7838945,12782.480724,101.6,89.5,288.6,-1.0,250.907596176056,45273.82612208094,45273.82612208094,299.47884684455636,0.07211309067677867,3.6588460343017695,81.6,0.583277587360445
1306893790.69,2.2039167,6.7839677,12925.7550068,108.5,87.6,296.4,-1.0,249.43285265261534,47341.99252626863,47341.99252626863,299.2746071749589,0.07526831807243906,3.5607639540281086,83.19999999999999,0.587086095671906
1306893791.12,2.2038245,6.784065,13061.2208904,114.6,85.3,303.5,-1.0,244.20901935253892,47973.85290135629,47973.85290135629,297.686649089035,0.07309288123723852,3.6126570049232027,82.9,0.5907994486902788
1306893791.54,2.2037375,6.7841822,13187.1067212,119.4,82.8,309.3,-1.0,241.4877871802125,48301.65281918486,48301.65281918486,297.22200028718,0.07212929727212843,3.5685428764966693,80.10000000000001,0.5943959053831921
1306893791.96,2.2036555,6.7843184,13305.348194799999,123.3,80.1,314.4,-1.0,237.2446856557243,47756.50458437829,47756.50458437829,295.0708424951886,0.0747852460301976,3.5270515886590066,79.3,0.5978609206937783
1306893792.38,2.2035772,6.7844763,13418.8980672,126.6,77.3,318.9,-1.0,238.80279443726369,47010.508927977186,47010.508927977186,293.83570491812645,0.07449526275489143,3.512926638972533,80.8,0.6011835475529209
1306893792.8,2.2035063,6.7846497,13524.1474144,129.3,74.3,323.0,-1.0,234.4217606089054,45101.99718207227,45101.99718207227,293.50431700852926,0.07484073787411073,3.4885783356020963,83.2,0.6043589631259743
1306893793.22,2.2034428,6.7848392,13622.441380799999,131.6,71.3,326.7,-1.0,232.92065556704955,43614.83341026143,43614.83341026143,294.0469611456286,0.0725090443241844,3.5663372020166393,83.8,0.6073885453656943
1306893793.65,2.2033878,6.7850475,13715.650045199998,133.8,68.2,330.3,-1.0,231.068872773151,41646.35547351897,41646.35547351897,291.5699246852682,0.07060132328705064,3.5515033324099283,86.3,0.6102709163193251
1306893794.07,2.2033446,6.7852673,13801.017502,135.7,64.0,333.7,-1.0,232.74375257528408,38935.88170039867,38935.88170039867,293.57617989072725,0.07007845266270539,3.523298718393999,88.5,0.6129932150944782
1306893794.49,2.2033129,6.7854975,13879.1999192,137.2,59.5,336.8,-1.0,231.02877645556387,36626.0689944158,36626.0689944158,294.37803278383797,0.07092707904553414,3.6015846549809503,90.0,0.6155522264680564
1306893794.91,2.2032923,6.7857396,13951.4112076,138.5,54.8,339.5,-1.0,231.90560337139212,34082.004496490525,34082.004496490525,294.75877412170644,0.07134197223411676,3.618501574979392,88.60000000000001,0.6179454241933408
1306893795.33,2.2032825,6.7859916,14017.618558799999,139.3,50.2,342.1,-1.0,232.4298313099882,31442.895244289368,31442.895244289368,297.4164830553044,0.07348751616280276,3.6251171401050355,91.0,0.6201770186815297
1306893795.77,2.2032837,6.7862642,14080.479453199998,140.0,45.6,344.5,-1.0,232.51097190679567,28729.196284341622,28729.196284341622,297.59100211347743,0.07416834515693618,3.5954909829429487,93.2,0.6222615549894912
1306893796.19,2.2032943,6.7865377,14135.2366728,133.3,46.3,346.2,-1.0,236.52987314952026,26120.084399269734,26120.084399269734,297.7136003031467,0.0725127961872626,3.595911048791797,95.10000000000001,0.624197961376193
1306893796.63,2.2033145,6.786834,14184.7445484,102.8,45.3,348.5,-1.0,237.75101806980385,23448.26494829002,23448.26494829002,299.02332026707666,0.07227315244864353,3.486178815641726,96.0,0.6259849364418099
1306893797.07,2.2033504,6.7871366,14227.1658096,86.7,42.4,351.2,-1.0,238.38783233644148,21075.984071576182,21075.984071576182,300.48371346917173,0.0738152761259916,3.496931681816369,95.6,0.6276253126447845
1306893797.5,2.2034025,6.7874393,14263.3206664,92.7,39.5,353.7,-1.0,241.01400343583154,18838.5733148228,18838.5733148228,299.6105496042453,0.07490715523802312,3.413791097863887,97.6,0.6291206975966654
1306893797.92,2.2034683,6.7877352,14292.749801200001,84.6,36.7,356.2,-1.0,239.9205777544761,16747.402875309544,16747.402875309544,302.16146282483703,0.07646924216980383,3.430958250506999,97.4,0.6304672636509088
1306893798.34,2.2035523,6.7880432,14317.946652399998,69.1,34.4,358.5,-1.0,246.9798005431013,14605.74184169252,14605.74184169252,301.6429992429473,0.07766395657322614,3.495279406090028,96.69999999999999,0.6316734316299113
1306893798.77,2.2036518,6.788353,14339.075262,58.3,32.5,0.6,-1.0,243.85653475814303,12596.64134959143,12596.64134959143,301.9805768081288,0.07610395015422515,3.4925238272694568,95.0,0.6327464740621074
1306893799.2,2.203768,6.7886704,14357.316732399999,45.7,31.0,2.6,-1.0,249.07729878362625,10536.33918792303,10536.33918792303,302.08003985502313,0.07356729278309364,3.555423861504289,95.9,0.6336935869229996
1306893799.63,2.2038984,6.7889923,14373.0647644,32.9,27.2,4.2,-1.0,252.59774942019453,8777.377336861591,8777.377336861591,299.66661117373053,0.07208824036044642,3.5393331518735955,96.0,0.634522961376193
1306893800.05,2.2040352,6.7893038,14385.5319564,30.8,21.5,5.8,-1.0,251.5156929620847,7363.899451309734,7363.899451309734,299.91246739956074,0.07440204350643954,3.57773665259785,94.3,0.6352347505275492
1306893800.47,2.2041855,6.7896239,14394.849542,40.1,15.3,7.1,-1.0,257.70096182288296,6438.016768237012,6438.016768237012,301.7583920720994,0.07620632054715573,3.6339659829592654,95.00000000000001,0.6358405138696314
1306893800.9,2.2043493,6.7899539,14399.672376800001,56.5,8.2,8.4,-1.0,259.80767165116276,5837.478062024644,5837.478062024644,302.04990168529775,0.0743994203032488,3.753400801360663,93.10000000000002,0.63634201211985
1306893801.32,2.2045202,6.7902833,14398.6553164,77.0,8.9,9.6,-1.0,265.1268956873785,5399.277186570171,5399.277186570171,303.1081163049258,0.0734021827630524,3.8521998791145813,91.80000000000001,0.6367421542895788
1306893801.74,2.2047068,6.7906219,14390.9781508,97.7,13.3,11.4,-1.0,272.6804388066305,5056.954189060289,5056.954189060289,304.4294167586596,0.0718823285588909,3.849363850102396,90.30000000000001,0.6370400217436472
1306893802.17,2.2049132,6.7909655,14375.1973104,105.7,12.1,13.5,-1.0,274.02834597561855,4464.044380783551,4464.044380783551,301.67669598338915,0.07283809447070896,3.806289995078569,91.2,0.6372323992589577
1306893802.59,2.2051304,6.7912948,14351.5752624,106.5,9.2,15.8,-1.0,274.49431001378184,3865.360536300324,3865.360536300324,302.37198360224755,0.07340011904281915,3.757155028038837,89.00000000000001,0.6373108660131135
1306893803.01,2.2053748,6.7916317,14318.3403532,108.4,5.7,18.2,-1.0,285.59525542276737,4651.092855154998,4651.092855154998,303.12709014290107,0.0744841161623767,3.6302759740097725,89.5,0.6372624845607949
1306893803.44,2.2056389,6.7919624,14276.0175172,111.4,1.7,20.9,-1.0,283.4307955034965,5769.671403479772,5769.671403479772,300.4643607795719,0.07370230011959297,3.567095319673084,88.30000000000001,0.6370727863980653
1306893803.87,2.2059283,6.7922919,14223.228801599998,114.2,-2.1,23.4,-1.0,291.6871744289879,8560.864657286313,8560.864657286313,300.53277444862675,0.07342161277418563,3.5221762125811322,86.60000000000001,0.6367231691627196
1306893804.3,2.2062398,6.7926141,14159.941397999999,116.9,-6.1,26.2,-1.0,297.5239774483945,12216.441615343065,12216.441615343065,302.4668624452379,0.07301472030058313,3.427219041411415,86.00000000000001,0.6361967912099638
1306893804.73,2.2065673,6.7929216,14087.0739416,119.0,-10.0,28.9,-1.0,299.382333999389,15660.544825131463,15660.544825131463,300.62112627668847,0.07311599117600383,3.444273792989344,86.9,0.6354786481653443
1306893805.17,2.2069247,6.7932253,14000.7878496,120.7,-14.0,31.9,-1.0,306.52215082312165,19755.27175591734,19755.27175591734,299.9754249755087,0.07618102813973537,3.4530755000641484,86.1,0.634547917631661
1306893805.59,2.2072778,6.7934958,13909.285222,121.8,-17.8,35.0,-1.0,307.653517435418,23914.473699301398,23914.473699301398,299.84422062377996,0.07569100142210627,3.333870849900373,87.50000000000001,0.6334060541146006
1306893806.02,2.2076582,6.7937574,13804.1671084,122.3,-21.8,38.5,-1.0,314.7861252327136,27845.215971520087,27845.215971520087,299.6725797813976,0.07606229743239686,3.387704034480457,88.2,0.6320368283928158
1306893806.45,2.2080543,6.7939991,13687.861330400001,122.2,-25.4,42.2,-1.0,320.87031828592626,32210.235690096477,32210.235690096477,302.1956064251515,0.07364551379218705,3.4977248000211163,88.1,0.6304330444908035
1306893806.87,2.2084471,6.7942093,13565.8796992,121.4,-28.9,46.3,-1.0,321.17611764811966,36824.990932666624,36824.990932666624,300.2522390420476,0.0715531211526119,3.4421593723005794,88.20000000000002,0.6285997549020023
1306893807.3,2.2088724,6.7944048,13426.4439992,119.8,-32.5,51.3,-1.0,335.17092019643985,40929.39229720324,40929.39229720324,298.2799458941554,0.07186039502007638,3.4413300055978207,90.10000000000001,0.6265186634759305
1306893807.73,2.2092941,6.7945664,13280.676277999999,117.1,-35.7,56.8,-1.0,331.70431121878613,45734.59640171901,45734.59640171901,299.3177718872504,0.07339391942812432,3.434663535945739,88.40000000000002,0.6241962006587828
1306893808.18,2.2097372,6.7947008,13119.2917584,112.9,-39.0,63.9,-1.0,333.48301552810284,49842.03767808428,49842.03767808428,301.50860937728027,0.07585931625782816,3.3984896661075945,87.70000000000002,0.6216203476404101
