timestamp,longitude,latitude,altitude,roll,pitch,yaw,heading,air_speed,engine_0,engine_1,temperature_in,humidity_in,pressure_in,heart_rate,oxygen_mask
1306893619.68,1.9873293,6.9620843,-3.28084,-1.0,0.0,-1.0,-1.0,65.73793555851795,2648.2295676863946,2648.2295676863946,303.56657767883723,0.07933529728976421,3.6210732812579063,88.60000000000001,0.31321143342333685
1306893621.59,1.9878503,6.9624803,-3.28084,-1.0,-0.1,-1.0,-1.0,65.73793555851795,2509.800170241965,2509.800170241965,302.8809264102921,0.08050306468605475,3.696788405135271,89.20000000000002,0.3130360506586824
1306893622.87,1.9882671,6.9627971,-3.28084,-1.0,-0.2,-1.0,-1.0,79.26673861330622,1898.0177112720787,1898.0177112720787,301.198421683064,0.08140511783554634,3.6727177737062218,91.10000000000001,0.312860667894028
1306893623.95,1.9886582,6.9630943,-3.28084,-1.0,-0.3,-1.0,-1.0,88.6737540042431,1351.5529492133342,1351.5529492133342,302.9140904960682,0.07970301217676568,3.637323274305736,89.3,0.3126852851293736
1306893624.82,1.9890043,6.9633573,71.7847792,-1.0,-0.4,-1.0,-1.0,114.20286399333368,897.2523926538213,897.2523926538213,302.5089470796108,0.07940289365779085,3.5806999262329136,87.2,0.3126851320235118
1306893625.46,1.9892703,6.9635595,71.8175876,-1.0,-0.5,-1.0,-1.0,102.46164674411722,897.2523926538213,897.2523926538213,302.5089470796108,0.07940289365779085,3.5806999262329122,87.20000000000002,0.3126851320235119
1306893626.1,1.9895512,6.963773,71.85039599999999,-1.0,-0.6,-1.0,-1.0,108.4184279917594,1351.5529492133342,1351.5529492133342,302.9140904960682,0.07970301217676568,3.6373232743057353,89.30000000000001,0.31268528512937366
1306893626.55,1.9897601,6.9639317,71.8832044,-1.0,-0.7,-1.0,-1.0,114.94250395749805,1898.0177112720787,1898.0177112720787,301.198421683064,0.08140511783554634,3.6727177737062218,91.10000000000001,0.3128606678940281
1306893627.62,1.9902777,6.9643251,71.8832044,-1.0,-0.8,-1.0,-1.0,120.00930272897743,2509.800170241965,2509.800170241965,302.8809264102921,0.08050306468605475,3.696788405135271,89.20000000000002,0.3130360506586825
1306893628.7,1.9908326,6.9647468,71.8832044,-1.0,-0.9,-1.0,-1.0,127.78419119708964,2648.2295676863946,2648.2295676863946,303.56657767883723,0.07933529728976421,3.6210732812579063,88.60000000000001,0.31321143342333696
1306893629.57,1.9913132,6.965112,71.8832044,-1.0,-1.0,-1.0,-1.0,137.7528431299484,2393.5527084072855,2393.5527084072855,303.4246200227446,0.07858360226825191,3.521659431550034,91.00000000000001,0.31338681618799136
1306893630.44,1.9918176,6.9654953,71.8832044,-1.0,-1.1,-1.0,-1.0,144.73265207115875,2187.661280043117,2187.661280043117,303.3452605707502,0.08084381977763845,3.546335365617652,88.60000000000001,0.31356219895264575
1306893631.32,1.9923479,6.9658983,71.8832044,-1.0,-1.2,-1.0,-1.0,150.68644256232056,1971.893343876287,1971.893343876287,303.15830565267936,0.08044752229955135,3.518030003325622,85.60000000000001,0.31373758171730015
1306893632.16,1.9928836,6.9663053,72.17848,-1.0,-0.4,-1.0,-1.0,159.79898096198394,1778.7215432797955,1778.7215432797955,302.9043637562512,0.08279604656005242,3.466170113215627,85.80000000000001,0.3139136534583325
1306893632.58,1.9931545,6.9665112,72.6377976,-1.0,3.2,-1.0,-1.0,161.61617302617123,1779.6669444705567,1779.6669444705567,303.2874167769027,0.08322886216658631,3.4428539840012604,86.7,0.31391564383453546
1306893633.01,1.9934417,6.9667294,72.96588159999999,-1.0,5.6,-1.0,-1.0,167.58475592043135,1626.4128758249472,1626.4128758249472,302.4799271325702,0.08222552711629595,3.4666917254307035,87.4,0.31391832318711643
1306893634.5,1.9944861,6.967523,73.55643280000001,-1.0,9.0,-1.0,-1.0,176.11592663643526,1541.0833653340287,1541.0833653340287,299.9692670688333,0.08253865616233474,3.3786066266067483,87.00000000000001,0.3139223039395224
1306893634.92,1.9947897,6.9677537,73.6220496,-1.0,9.5,-1.0,-1.0,181.70688874089817,1505.599296393814,1505.599296393814,300.2380342130246,0.08208257287473306,3.2835985136911257,86.7,0.31392636124485923
1306893635.36,1.9951176,6.9680029,74.08136719999999,-1.0,9.9,-1.0,-1.0,187.56893956585384,1495.179529280928,1495.179529280928,298.3754266137445,0.0809324390548778,3.3045588195564086,87.30000000000001,0.3139314902912284
1306893635.79,1.9954441,6.968251,75.2296612,-1.0,10.4,-1.0,-1.0,191.13705029302744,1602.2262467147614,1602.2262467147614,296.67171575280196,0.08469475156102897,3.3506135319171784,88.1,0.31393929869017856
1306893636.22,1.9957748,6.9685024,77.3293988,-1.0,10.7,-1.0,-1.0,193.7775761093327,1709.5512813478144,1709.5512813478144,297.504543610217,0.08532025240296594,3.3420663371489367,89.0,0.3139520064767052
1306893636.66,1.9961213,6.9687659,80.708664,-1.0,10.9,-1.0,-1.0,198.71142919604063,1684.8127704037952,1684.8127704037952,296.2863431658797,0.08376990425981862,3.2836774945914557,88.60000000000001,0.31397259921511295
1306893637.09,1.9964649,6.9690274,85.3346484,-1.0,11.0,-1.0,-1.0,201.78329578840018,1639.5671636460202,1639.5671636460202,296.0120188363527,0.08061531621290229,3.353519625179592,91.5,0.31400398591677514
1306893638.38,1.9975247,6.9698364,108.00525280000001,-1.0,11.3,-1.0,-1.0,208.07996141183798,1374.4545309796672,1374.4545309796672,296.0632571861167,0.07814502301914886,3.4732031022397893,94.50000000000001,0.3140875817173001
1306893640.95,1.999775,6.9715756,195.5052556,0.3,11.3,-1.0,-1.0,224.45182527929836,826.6033555709499,826.6033555709499,295.123683417842,0.07799969017076924,3.4650018386679546,93.99999999999999,0.3143742724434594
1306893641.37,2.0001591,6.9718767,215.22310399999998,0.4,11.1,-1.0,-1.0,237.3914720677979,475.8721324943428,475.8721324943428,293.1748826859991,0.07847723666932206,3.4354774780291413,91.30000000000001,0.3147062059517708
1306893641.79,2.0005541,6.9721883,236.7454144,0.5,11.1,43.2,-1.0,245.41875815820538,608.6735092912887,608.6735092912887,292.9133505519245,0.0777319065837725,3.4625265204929914,89.60000000000001,0.315086980229986
1306893642.22,2.0009563,6.9725077,259.9409532,0.6,11.0,43.2,-1.0,245.02376436204773,993.2427099796979,993.2427099796979,293.18120381127846,0.07674193843297242,3.528608394173021,91.10000000000002,0.31552172432447423
1306893643.06,2.0017593,6.9731508,309.6784876,0.9,10.9,43.2,-1.0,252.25611225515266,1361.2128318231287,1361.2128318231287,294.27250466522503,0.07739574760549742,3.4946496367217414,90.30000000000001,0.31607145092114963
1306893643.48,2.0021643,6.9734783,336.2204832,1.1,10.8,43.2,-1.0,256.22930894384353,1811.327929766428,1811.327929766428,295.9936378495134,0.0749618307414905,3.4356930513618864,88.7,0.316680429486329
1306893643.9,2.0025765,6.9738136,363.6483056,1.3,10.5,43.2,-1.0,261.7478836719407,1946.6879595830976,1946.6879595830976,295.04276306293843,0.0750155614440694,3.46407514337886,87.70000000000002,0.31734850691415056
1306893644.33,2.0029981,6.9741588,391.56825399999997,1.6,10.2,43.4,-1.0,262.4542997137518,2125.699079502785,2125.699079502785,296.3528111067743,0.07342963092065294,3.4240463310815223,88.30000000000001,0.31807384593427307
1306893644.75,2.0034207,6.974507,418.8648428,1.8,9.9,43.4,-1.0,270.2472615194745,2824.296167759109,2824.296167759109,297.4858208115554,0.07464151990545878,3.418695699120539,86.30000000000001,0.31885208302963614
1306893645.18,2.0038608,6.9748717,446.1614316,2.1,9.5,43.5,-1.0,275.49559875459806,3419.0980819652973,3419.0980819652973,296.73926419464186,0.07658144278541609,3.293742900211,85.0,0.3196411140882538
1306893645.62,2.0043101,6.9752461,472.44096,2.5,9.2,43.5,-1.0,275.4517249307659,3993.546928027695,3993.546928027695,295.38931336178206,0.07511550798333053,3.403198889780466,85.9,0.3202872973778426
1306893646.04,2.0047471,6.9756119,496.19424160000005,2.8,9.0,43.6,-1.0,281.0007236478125,4408.018659567101,4408.018659567101,297.84239200562,0.07210728347108714,3.352415200233386,85.5,0.3209428966779301
1306893646.47,2.0052015,6.9759935,518.7992292,3.2,8.8,43.6,-1.0,285.5376247880353,4434.104859050109,4434.104859050109,299.1199269239159,0.07013414789894194,3.4538066440867854,88.0,0.3216010222247367
1306893646.89,2.0056601,6.9763798,539.370096,3.6,8.6,43.6,-1.0,295.2852898248254,4640.784541193433,4640.784541193433,300.3732433417842,0.07199190665547504,3.3876959729368514,88.4,0.32225302353707264
1306893647.31,2.0061155,6.976764,557.5459496,4.1,8.6,43.8,-1.0,293.15001151247094,4774.626823823517,4774.626823823517,299.63487831716026,0.0704870236956462,3.376549133473071,88.9,0.3228313809298986
1306893647.73,2.0065848,6.9771593,574.4094672,4.4,8.7,43.9,-1.0,301.7150533268615,5066.460370967786,5066.460370967786,297.9457481307522,0.07117185453865492,3.430452941244489,87.8,0.3233871552081138
1306893648.15,2.00706,6.9775576,590.1903076,4.4,8.9,44.0,-1.0,304.4432850382768,4873.959366265339,4873.959366265339,297.73279891319515,0.07098022405863681,3.453424446815098,88.39999999999999,0.3239157531958653
1306893648.58,2.007562,6.9779761,606.13519,4.7,9.2,44.1,-1.0,313.3544216320882,5098.029935854895,5098.029935854895,297.02798234064005,0.07300721626772051,3.4861099363926003,89.70000000000002,0.3244164093638443
1306893649.0,2.0080502,6.9783805,621.4239044,4.8,9.5,44.1,-1.0,310.69558193867397,5277.784966435127,5277.784966435127,295.9396211782037,0.07269764840662159,3.438103149097966,91.50000000000001,0.3248890471591199
1306893649.44,2.0085801,6.9788168,638.287422,4.8,9.8,44.4,-1.0,321.1306453688218,5988.465469488619,5988.465469488619,294.5534980841529,0.07126046790413888,3.5535002226420076,89.90000000000002,0.32533734112237445
1306893649.86,2.0090954,6.9792385,655.2821732,4.8,10.0,44.4,-1.0,326.1197392068438,6535.395965758474,6535.395965758474,294.79878089513664,0.07242646619764594,3.450468250282053,89.30000000000003,0.325763970606189
1306893650.29,2.0096437,6.9796843,674.21262,4.8,10.0,44.7,-1.0,338.2464115624141,7228.085552201389,7228.085552201389,293.1348469289656,0.07305105514497093,3.569561733845051,92.50000000000003,0.3261793468091636
1306893650.71,2.0101775,6.9801156,693.8320431999999,7.7,14.4,44.9,-1.0,335.8659926871076,7508.911516426745,7508.911516426745,294.27745443013526,0.07444355193906381,3.519700670257214,93.00000000000001,0.3265877566954279
1306893651.15,2.0107464,6.9805664,719.5538288,31.5,18.6,46.0,-1.0,339.1195782263977,7753.893093813287,7753.893093813287,293.0779569225819,0.0747197738428757,3.524756554889992,89.7,0.32700818539184084
1306893651.58,2.0113206,6.9809914,750.9514676,50.0,21.7,48.7,-1.0,339.213616181612,8670.927898348227,8670.927898348227,294.7048124292781,0.07698358757733698,3.49366950952665,90.69999999999999,0.32745946491939987
1306893652.0,2.0119157,6.9813877,786.3517312,53.7,20.4,51.7,-1.0,343.41230650326213,10726.10256106625,10726.10256106625,295.2517581357878,0.0786418280514819,3.4811719118182913,92.89999999999999,0.32795399685290816
1306893652.43,2.0125559,6.9817709,825.4921524,59.9,23.1,54.8,-1.0,345.45638430914676,14609.003662101208,14609.003662101208,296.85053798746094,0.07909085146542703,3.5105379881449417,91.60000000000001,0.3285030344732057
1306893652.85,2.0132216,6.9821183,866.8307364,66.9,27.3,59.1,-1.0,350.5830233313234,19328.33605022187,19328.33605022187,298.19981751955805,0.07812614635435358,3.514282391337576,91.60000000000002,0.32911132406200705
1306893653.28,2.0139279,6.982425,910.7283755999999,69.7,26.5,64.1,-1.0,344.8302602332043,25144.097129588998,25144.097129588998,298.37319646650667,0.08094239950997473,3.581478446594859,90.40000000000002,0.329786367806539
1306893653.72,2.0146927,6.9826954,957.3819204,71.7,27.6,68.9,-1.0,348.9976485590593,31170.516389388053,31170.516389388053,299.03864952375176,0.08069057775137432,3.5679446101130585,91.00000000000001,0.33053092161231334
1306893654.14,2.0154409,6.9829014,1002.0997696,74.2,30.7,74.3,-1.0,344.7871692246179,36113.25481210369,36113.25481210369,298.7223077916575,0.08104129229507918,3.6174902841133094,92.3,0.3313401626446842
1306893654.56,2.0162087,6.9830504,1047.2769363999998,75.6,30.4,80.1,-1.0,343.5491669004807,39032.19746953402,39032.19746953402,299.7427602954944,0.08261868837513484,3.6256340432041028,90.70000000000002,0.33221064602176215
1306893654.99,2.0169928,6.9831416,1092.51972,76.2,30.4,85.6,-1.0,336.093961329306,40256.724254515844,40256.724254515844,299.295497022311,0.08152887212996354,3.679979208782872,87.70000000000002,0.33314091723786005
1306893655.41,2.0177746,6.9831743,1136.7782516,77.0,31.0,91.5,-1.0,340.14237772016224,38381.92892323711,38381.92892323711,301.03837130919965,0.07889098791722539,3.7127896126167013,87.70000000000002,0.3341144408599073
1306893655.84,2.0185425,6.9831475,1179.8556808,77.5,31.0,97.4,-1.0,327.28561822304084,34564.18724901155,34564.18724901155,300.60065118840646,0.07758345108504752,3.787780936046179,87.50000000000001,0.33511521732534916
1306893656.26,2.0192937,6.9830629,1221.7848159999999,77.5,30.4,103.1,-1.0,332.35620647430875,30030.527367866325,30030.527367866325,299.07337202790023,0.07750808685421137,3.8056780088697666,86.10000000000002,0.33613122782403676
1306893656.68,2.0200231,6.9829228,1262.5000404,77.5,30.6,108.8,-1.0,330.91447504320354,26654.23509186778,26654.23509186778,298.8009022702844,0.07871144718094614,3.717889349697891,87.60000000000002,0.33715091286340687
1306893656.89,2.0203783,6.9828322,1282.480356,77.8,30.8,111.5,-1.0,331.03241017467326,26758.483189248447,26758.483189248447,298.51719038314934,0.0778586122992248,3.769442953640237,88.20000000000002,0.3381207619447717
1306893657.32,2.0210646,6.9826097,1321.6535855999998,77.7,30.8,117.6,-1.0,323.9570816113345,32702.452645144946,32702.452645144946,299.56099144992226,0.07451523888698784,3.7105357031238877,88.7,0.3390795874040893
1306893657.74,2.0217049,6.9823377,1359.3504372,77.4,29.9,123.4,-1.0,328.31952921299154,40916.12423711528,40916.12423711528,299.4316189263632,0.07675213477269945,3.6712348949191074,89.3,0.34001751391327567
1306893658.18,2.0223184,6.9820103,1396.9160551999998,69.0,24.6,128.5,-1.0,323.0040909811674,49195.606171803585,49195.606171803585,301.8022010318361,0.07645864584770203,3.72866987473006,88.19999999999999,0.3409387518835294
1306893658.61,2.0228751,6.9816622,1432.9724867999998,49.4,18.7,131.6,-1.0,320.01053367088815,57699.88815513511,57699.88815513511,302.1750865624998,0.07768227650885562,3.6527085167462423,86.7,0.34183870813899747
1306893659.05,2.0234426,6.9812781,1471.3255064,29.5,14.1,132.9,-1.0,330.400022986268,63932.156047838325,63932.156047838325,302.8064900310395,0.07818249050062068,3.5982999943564478,88.80000000000001,0.34272258827898
1306893659.48,2.0239928,6.9808937,1508.4318068,16.1,14.5,133.5,-1.0,332.6953187582201,65018.40538439041,65018.40538439041,300.64624442853284,0.07763934790574985,3.6305127832584088,89.2,0.3435897798800298
1306893659.9,2.0245389,6.9805057,1545.7349576,5.4,15.0,133.8,-1.0,340.89273413209213,63581.497665951196,63581.497665951196,300.577625119164,0.07958152714790587,3.657514537169066,87.8,0.34444349816524417
1306893660.33,2.0250976,6.9801062,1585.0066124,-3.4,15.4,133.8,-1.0,341.7623082080147,57456.19840580197,57456.19840580197,300.81342290698973,0.07853259893903534,3.6020727220805973,88.30000000000001,0.345291015663057
1306893660.75,2.0256452,6.9797164,1624.6063512,-9.2,15.4,133.6,-1.0,353.8460076341507,48363.259602008024,48363.259602008024,301.29433699677486,0.07600825345187535,3.60123099527284,84.9,0.34613593036121965
1306893661.17,2.0262056,6.9793217,1666.010552,-12.6,15.4,133.3,-1.0,360.07442074663163,39489.69677487682,39489.69677487682,299.18723522152715,0.07782776919976285,3.5219517128973648,83.89999999999999,0.34703083412324937
1306893661.6,2.0267913,6.9789152,1709.8097659999999,-14.6,15.4,132.9,-1.0,364.841441212235,31512.97557531635,31512.97557531635,298.5282578866565,0.07816788225436336,3.536683545091732,85.30000000000001,0.3479365318485337
1306893662.03,2.0273898,6.9785067,1754.8556992,-15.1,15.2,132.5,-1.0,369.57657944599043,25421.61053385543,25421.61053385543,300.1911155105967,0.07666621987828794,3.5291015851004413,87.39999999999999,0.348859377430336
1306893662.5,2.0280572,6.978059,1805.0853596000002,-14.4,15.0,132.0,-1.0,373.7608238670497,21637.13799992744,21637.13799992744,300.2709918081323,0.07494133944714776,3.4332690449295162,88.0,0.34981177244345935
1306893662.94,2.0286931,6.9776392,1852.8215816,-13.1,15.0,131.7,-1.0,377.2670509196892,19664.988316149895,19664.988316149895,300.9648155996407,0.07431143592082623,3.432454994895723,87.7,0.35079142029997734
1306893663.36,2.0293095,6.9772379,1898.9173835999998,-11.6,14.7,131.4,-1.0,380.4878263228095,18741.743160751532,18741.743160751532,300.18289298765706,0.07487902006616032,3.430288402674762,86.3,0.3517891346481838
1306893663.79,2.0299528,6.976824,1946.8176475999999,-9.8,14.6,131.1,-1.0,385.5365350968295,18247.496466887595,18247.496466887595,301.4997135798887,0.07559902045635565,3.4395442421990716,88.80000000000001,0.352812034910651
1306893664.22,2.0306031,6.9764114,1994.8819535999999,-8.0,14.6,130.7,-1.0,387.0170131234212,18296.402899196328,18296.402899196328,302.0632763632886,0.07421759957552843,3.3620471590220946,89.9,0.353860044534448
1306893664.65,2.0312707,6.975993,2043.8977032,-6.0,14.6,130.5,-1.0,394.6299281303557,18564.747383597052,18564.747383597052,302.29348803148986,0.07228250129726613,3.4235989365504644,90.6,0.35493079037871744
1306893665.07,2.0319428,6.9755739,2093.17592,-4.1,14.3,130.5,-1.0,405.22561689155964,19066.41383430886,19066.41383430886,300.9166962878705,0.07200256848449228,3.5337272312079158,93.19999999999999,0.3560241193375976
1306893665.49,2.0326103,6.9751582,2142.1588612,-2.9,14.3,130.5,-1.0,402.4916262084009,19911.113969873673,19911.113969873673,300.9134012935221,0.07149039471797505,3.512874740626906,91.5,0.3571351320235119
1306893665.91,2.0332794,6.9747423,2191.2074192,-2.2,14.3,130.5,-1.0,403.0484164062817,21011.19945894955,21011.19945894955,301.06753521534483,0.07448610873199762,3.531078536821057,90.5,0.35825839317836755
1306893666.35,2.0339973,6.9742967,2243.766476,-1.5,14.1,130.5,-1.0,411.95318550639524,22360.29747945087,22360.29747945087,301.16904349226184,0.0728863105560774,3.530063177408303,86.9,0.3593991849543955
1306893666.77,2.0346897,6.9738679,2294.4226456,-1.1,14.1,130.5,-1.0,415.69957764073484,23933.740491123324,23933.740491123324,300.1918107115459,0.07332965617506222,3.6346529668727774,86.5,0.36054097191852497
1306893667.21,2.0354157,6.9734193,2347.4082116,-0.8,14.1,130.5,-1.0,415.6071217299984,25642.713953653794,25642.713953653794,299.5549767701797,0.07098092206207653,3.664369551512538,89.2,0.3616950073515958
1306893667.65,2.0361579,6.9729618,2401.4436464,-0.6,13.9,130.5,-1.0,423.97739799520616,27296.516332542727,27296.516332542727,299.7932841215625,0.07200888773802969,3.684104065509108,88.30000000000001,0.36286756859394054
1306893707.26,2.128124,6.9233428,8143.7994732,-0.6,13.4,130.5,-1.0,502.3048838683212,28440.31231649765,28440.31231649765,299.3225285431074,0.07276166658366179,3.6126002464843903,85.2,0.3773271923909659
1306893714.11,2.1449224,6.9145611,9153.2483244,-0.6,13.5,130.7,-1.0,525.970644496387,30246.242443435305,30246.242443435305,296.5962034735088,0.07107383125951879,3.6764267638412735,86.50000000000001,0.39403004672167463
1306893720.95,2.1616884,6.9057863,10161.3192228,-0.6,13.6,130.7,-1.0,525.9782312809602,33206.229257921834,33206.229257921834,297.4303959303865,0.07128183461088355,3.6186074906193113,85.4,0.4129706963279738
1306893727.33,2.1772853,6.897612,11099.9675468,-0.6,13.7,130.7,-1.0,524.8388887267902,37419.75205897916,37419.75205897916,296.9841782693019,0.07179644634526748,3.6082770199712044,86.4,0.43398654278466675
1306893731.35,2.1871304,6.8924431,11693.3402692,0.8,13.7,130.7,-1.0,526.1784019699259,43969.92118967164,43969.92118967164,297.543221731074,0.07314331546003636,3.649893246889933,88.30000000000001,0.45627263202351187
1306893731.56,2.1876237,6.8921838,11723.097488,4.2,13.7,130.7,-1.0,504.29166118960904,51784.13564698716,51784.13564698716,296.49773707816576,0.0726325105612231,3.7207756441366198,89.0,0.4785137081389974
1306893731.77,2.1881413,6.8919113,11754.3310848,9.4,13.7,130.8,-1.0,530.1530210550497,64106.10333343804,64106.10333343804,296.0428090721357,0.07372480538185956,3.7502648535361667,88.99999999999999,0.5007050248494086
1306893731.98,2.1886588,6.891638,11785.564681599999,15.4,13.7,130.9,-1.0,530.6760351830268,66544.7512233628,66544.7512233628,296.8588567585133,0.07485662845503976,3.755089664112389,87.60000000000001,0.5228510222247367
1306893732.19,2.1891782,6.8913624,11816.9623204,23.1,13.8,131.1,-1.0,533.3711474494991,67156.13205153737,67156.13205153737,296.5414293207497,0.07443450411482345,3.7659196290889394,85.7,0.5449466477715434
1306893732.4,2.1896919,6.8910877,11848.0646836,33.0,14.0,131.3,-1.0,528.7690496714754,64904.551657894845,64904.551657894845,295.96347147381107,0.07296171141055072,3.6859866517540256,86.9,0.5669887628196624
1306893732.61,2.1901824,6.8908226,11877.789094,40.1,14.3,131.7,-1.0,505.56574779381856,58143.76497335849,58143.76497335849,295.06623996230974,0.07225896827930742,3.721417322979973,90.4,0.5757014049893912
1306893732.82,2.1906905,6.8905443,11908.6617984,45.7,14.6,132.1,-1.0,526.7098586194913,60028.3799853164,60028.3799853164,295.60345671314377,0.07350981545426125,3.7531452875883384,88.4,0.5821307028896536
1306893733.03,2.1911986,6.8902615,11939.632927999999,50.1,15.0,132.6,-1.0,529.4500816429921,64214.0167021817,64214.0167021817,295.5769703605804,0.07250202360568894,3.8349939710343257,89.2,0.5862801014023395
1306893733.24,2.1917035,6.8899749,11970.538440799999,54.3,15.4,133.3,-1.0,529.7750293273474,68911.42623576875,68911.42623576875,297.3635487654098,0.07147638982674959,3.848147444897069,88.4,0.5883114334233369
1306893733.45,2.1922071,6.8896827,12001.5751872,57.8,15.8,134.0,-1.0,532.7021336291782,73207.70752958441,73207.70752958441,297.35151427632155,0.07010862315963114,3.8953695339093235,88.5,0.5890306482089886
1306893733.66,2.192692,6.8893941,12031.693298400001,61.2,16.4,134.8,-1.0,516.7202612749917,75481.8580480821,75481.8580480821,297.58538738238383,0.06869364764426261,3.788862917637025,88.29999999999998,0.5897507050768802
1306893733.87,2.1931995,6.8890834,12063.484638,64.1,16.9,135.7,-1.0,547.8008958845647,74650.09282909134,74650.09282909134,297.9467291729294,0.07029801094762028,3.769635216674399,91.19999999999999,0.5904720633445968
1306893734.08,2.1936751,6.8887827,12093.668366,67.0,17.6,136.7,-1.0,518.4935983759362,73677.03040556631,73677.03040556631,297.3814767654079,0.06936592862505249,3.641267501480431,92.1,0.591190971918525
1306893734.29,2.1941433,6.888476,12123.7536688,69.5,18.4,137.8,-1.0,517.8532267678606,79055.06926408174,79055.06926408174,295.545378016302,0.0728009912245752,3.685118459235752,93.2,0.591906818375218
1306893734.51,2.1946446,6.8881336,12156.5292604,72.0,19.4,139.2,-1.0,539.6978033973097,86247.98570301806,86247.98570301806,294.1770258060799,0.07286661388576442,3.7382516923010325,91.6,0.5926265690313859
1306893734.72,2.1950906,6.887814,12186.2864792,74.4,20.6,140.8,-1.0,512.6544217704015,92695.5558128996,92695.5558128996,295.3023229226634,0.07503337799453798,3.7105162873151083,92.0,0.5933463962404848
1306893734.93,2.195541,6.887474,12217.0935668,76.5,22.0,142.4,-1.0,531.5276254184815,101818.56477294212,101818.56477294212,297.03334363596315,0.07367004422622074,3.68653505606903,91.80000000000001,0.5940660703437218
1306893735.14,2.1959651,6.8871333,12247.0148276,78.6,24.0,144.5,-1.0,515.3863722230903,108883.97437055579,108883.97437055579,297.4953249594135,0.07476267037684398,3.721203036708734,91.7,0.5947832947531707
1306893735.35,2.1963648,6.8867888,12276.2799204,80.5,26.4,146.7,-1.0,503.8197900935752,113806.26140697258,113806.26140697258,298.12182638250084,0.07471411584030023,3.6964419016275842,89.5,0.5954966915160753
1306893735.56,2.1967469,6.8864301,12305.61063,82.6,29.5,149.6,-1.0,505.8981541541576,123271.25800621728,123271.25800621728,299.31955830367684,0.0754166095435502,3.7295247124597966,88.4,0.596206107526574
1306893735.78,2.1971276,6.8860325,12336.77861,84.6,32.2,153.0,-1.0,514.1754989588379,136116.8524726963,136116.8524726963,299.305303145861,0.07665561180044872,3.8223230263006784,86.39999999999999,0.5969179732308609
1306893735.99,2.1974361,6.885668,12363.9439652,85.4,32.3,156.3,-1.0,471.4483050455565,143877.56787270773,143877.56787270773,297.2747493420182,0.07565688288945965,3.880516527028563,85.2,0.5976190449718932
1306893736.21,2.1977354,6.8852646,12392.5200816,84.5,31.2,159.8,-1.0,480.8216154676822,157414.72261957877,157414.72261957877,296.26832620107893,0.07426628174682665,4.010192083862673,87.5,0.5983163656193123
1306893736.44,2.1980071,6.8848413,12421.1946232,82.4,30.8,163.4,-1.0,465.7629285663027,168240.10676625412,168240.10676625412,296.1809659751543,0.07218922956096621,3.908621514449103,87.6,0.5990103944907034
1306893736.66,2.1982334,6.8844291,12448.2615532,81.0,29.3,166.6,-1.0,460.86933999393386,172482.25233695825,172482.25233695825,296.0171035929797,0.0744007884864988,3.9471450631864555,89.5,0.5996911031521208
1306893736.87,2.1984227,6.8840255,12474.1473808,80.6,27.1,169.2,-1.0,462.64284282991616,175317.7586730905,175317.7586730905,295.6719960912844,0.07386692107563281,3.9980320724049916,89.30000000000001,0.6003627785676938
1306893737.08,2.1985772,6.8836404,12498.35998,80.7,24.6,171.7,-1.0,431.4360749133132,171032.6029868956,171032.6029868956,293.388482447355,0.07575139705921323,4.0169016646682465,92.00000000000001,0.6010190668441594
1306893737.3,2.198723,6.8832138,12524.508274799999,80.9,23.7,174.1,-1.0,452.4330050953959,158313.59744471207,158313.59744471207,293.9961242224831,0.0772871302948609,3.9041229573598404,93.20000000000002,0.6016665515335732
1306893737.51,2.1988344,6.8828237,12547.8350472,80.5,23.2,176.1,-1.0,426.0938398584786,145191.57405738955,145191.57405738955,292.68130176977616,0.08006515897295209,3.9301729217479022,95.50000000000001,0.602300180142497
1306893737.72,2.1989273,6.882425,12571.129011199999,78.6,21.6,178.2,-1.0,432.2280673223117,125912.90663439293,125912.90663439293,292.58674971267834,0.07978460736815998,3.8968530436914652,97.00000000000001,0.6029197230121384
1306893737.93,2.1990042,6.8820104,12594.8822928,74.6,19.3,179.9,-1.0,448.29477361894254,107243.06273043733,107243.06273043733,292.2675236639073,0.07793920739959376,3.818060363948325,96.60000000000001,0.6035219649193998
1306893738.14,2.1990617,6.881616,12617.1591964,67.7,16.3,181.3,-1.0,421.56447736237124,96314.9256195188,96314.9256195188,292.15064771274194,0.07903716590162467,3.766569267718846,95.50000000000001,0.6041128004399599
1306893738.35,2.1991083,6.8812188,12639.3704832,60.1,13.4,182.2,-1.0,423.7056615546031,83870.05501711386,83870.05501711386,293.24870977844927,0.08231782284696922,3.750001113706839,92.10000000000001,0.6046887846919283
1306893738.57,2.1991509,6.8807877,12663.058148,51.7,10.0,182.7,-1.0,439.86013175529547,73144.57756695106,73144.57756695106,294.11227426350956,0.08268678869077195,3.7522141182094626,91.0,0.6052531328984025
1306893738.78,2.1991866,6.8803896,12684.1211408,44.5,6.5,182.8,-1.0,423.04444565715323,73979.59917209031,73979.59917209031,296.3674306054134,0.08050318942268485,3.692926675367394,90.8,0.605803471918525
1306893739.0,2.199225,6.8799585,12705.380984,38.9,4.1,182.7,-1.0,438.4074757508235,65604.44090128386,65604.44090128386,295.72588821505286,0.07855295655040738,3.6915342561312228,89.2,0.606343016975393
1306893739.22,2.1992645,6.8795289,12724.377047599999,34.5,2.7,182.5,-1.0,435.6802948644139,57624.778115081586,57624.778115081586,296.8658790033409,0.07908081973825809,3.6585404350172412,88.4,0.6068703901162502
1306893739.44,2.1993063,6.8790951,12741.174948400001,31.1,1.7,182.3,-1.0,439.95627340402064,65104.98996290769,65104.98996290769,294.9167421938944,0.0768068082258457,3.685894007366077,88.4,0.6073759456718058
1306893739.65,2.1993471,6.8786865,12754.7248176,28.5,1.1,182.1,-1.0,432.5079309779872,61668.71541459207,61668.71541459207,295.3298408054655,0.07792965998545447,3.6845682303793175,88.00000000000001,0.6078586884539581
1306893739.86,2.1993913,6.878258,12766.6342668,26.0,0.6,182.0,-1.0,455.79831604615384,59405.97826610978,59405.97826610978,293.80016015869273,0.07623527132455928,3.6439206816215166,88.70000000000002,0.6083148673690937
1306893740.08,2.199437,6.8778253,12776.3783616,24.1,0.2,181.9,-1.0,436.78719789215194,74244.35984887072,74244.35984887072,295.0305045062852,0.0779470381125712,3.6281722139149575,89.5,0.608738358182742
1306893740.29,2.1994818,6.8774065,12783.825868400001,22.8,-0.1,181.8,-1.0,443.4247798207857,69450.61938034826,69450.61938034826,296.56869594099453,0.07696683491521872,3.6202694133306217,89.5,0.6091272470716309
1306893740.5,2.1995281,6.8769777,12789.53453,21.6,-0.3,181.7,-1.0,455.0337121218958,67365.8411875596,67365.8411875596,297.02965102742615,0.07510239473288884,3.5377001162699058,92.1,0.6094776298362854
1306893740.71,2.1995747,6.8765468,12793.504346400001,20.7,-0.6,181.7,-1.0,457.30615501023544,76899.62652328171,76899.62652328171,298.7801978870966,0.07456329117766523,3.5378047852383094,93.69999999999999,0.6097820042894786
1306893740.92,2.1996207,6.876122,12795.8337428,19.9,-0.8,181.7,-1.0,449.99268353045954,75066.97292898838,75066.97292898838,298.84408184369306,0.0731456305200648,3.6018705607522166,93.4,0.6100426670191375
1306893741.13,2.199666,6.8757014,12796.7195696,19.2,-1.0,181.7,-1.0,444.82299310505397,73445.32299507529,73445.32299507529,300.52007647236326,0.07225603918834815,3.559973152845893,92.20000000000002,0.6102557903787175
1306893741.34,2.1997126,6.8752645,12796.2274436,18.4,-1.1,181.7,-1.0,464.26847747187986,73184.53408682923,73184.53408682923,301.84886559307665,0.0715469706474973,3.535046859266123,91.90000000000002,0.6104234412973526
1306893741.56,2.1997593,6.8748214,12794.488598400001,17.8,-1.3,181.7,-1.0,447.57346692554347,75298.80447177382,75298.80447177382,302.02399036035206,0.07431851533175038,3.6221932680979667,88.7,0.6105478398100386
1306893741.78,2.1998073,6.8743596,12791.4046088,17.2,-1.5,181.8,-1.0,468.8952632332441,62812.919654302495,62812.919654302495,303.2771353303521,0.07299627271768147,3.560775961569253,86.8,0.6106334259867664
1306893741.99,2.1998513,6.873929,12787.5004092,16.6,-1.6,181.8,-1.0,456.69166110440176,69709.9252165828,69709.9252165828,303.82136093413385,0.07511809113700335,3.6444254092528174,85.89999999999999,0.6106821136508085
1306893742.2,2.1998961,6.8734817,12782.480724,16.0,-1.7,181.9,-1.0,476.72126269449086,69993.23111316995,69993.23111316995,305.0129586989224,0.0732139145364902,3.703795382906109,87.19999999999999,0.6106963524959529
1306893742.41,2.1999403,6.8730323,12776.5424036,15.4,-1.9,181.9,-1.0,479.0371265386901,75444.33916327707,75444.33916327707,303.8733260914791,0.07421987559399171,3.7753188369974002,89.80000000000001,0.6106793577452967
1306893742.62,2.1999817,6.8726019,12770.079148800001,14.8,-2.0,182.0,-1.0,456.55860597723927,85215.70812449006,85215.70812449006,304.04475978243784,0.07409143542038427,3.8005914050031837,90.1,0.6106339618572827
1306893742.83,2.2000235,6.8721568,12762.6972588,14.2,-2.1,182.1,-1.0,474.04028831127295,85076.46481299256,85076.46481299256,304.1373246209886,0.07436155199934151,3.796000162917162,88.2,0.6105620786551829
1306893743.05,2.2000672,6.8716798,12754.0686496,13.6,-2.2,182.1,-1.0,486.33772466578955,85820.11022788515,85820.11022788515,301.84738581841765,0.07805462450921245,3.6993786221519103,86.8,0.610464626774168
1306893743.26,2.2001062,6.8712433,12745.5384656,13.0,-2.3,182.2,-1.0,463.88469486066333,86091.8989413577,86091.8989413577,300.74287666833067,0.0786208508321486,3.7759913243026677,87.8,0.6103452042019896
1306893743.47,2.2001455,6.8707919,12736.1880716,12.4,-2.4,182.3,-1.0,481.71394864276164,75602.03038377094,75602.03038377094,300.7546863327995,0.0773175169423519,3.8279483249297206,87.40000000000002,0.6102051123384724
1306893743.69,2.2001863,6.8703103,12725.6565752,11.7,-2.5,182.3,-1.0,491.54682645956865,74043.97533149582,74043.97533149582,300.09951451271377,0.07667645705538163,3.7169589082729746,89.50000000000001,0.6100445042894787
1306893743.91,2.2002258,6.8698305,12714.6657612,11.1,-2.6,182.4,-1.0,489.5150711269368,86800.28509191165,86800.28509191165,299.45704118392626,0.0752443818609368,3.661349437155071,91.30000000000001,0.6098654469841418
1306893744.13,2.2002642,6.8693507,12703.2156296,10.4,-2.7,182.5,-1.0,489.70447109362544,81856.91774877597,81856.91774877597,300.10657390293323,0.075055815446313,3.5904232782429277,89.20000000000002,0.6096687825047017
1306893744.35,2.2003013,6.868875,12691.4046056,9.8,-2.8,182.6,-1.0,484.90932102885427,89449.42557202654,89449.42557202654,299.58698625519446,0.07730642863268612,3.6125042010378117,87.60000000000001,0.6094562715685687
1306893744.57,2.2003376,6.8683948,12679.134264,9.2,-2.9,182.6,-1.0,490.1175913664391,97988.44359188156,97988.44359188156,300.76444783601755,0.0759194739291516,3.5066978463111482,86.5,0.6092289859167753
1306893744.78,2.2003726,6.8679189,12666.634263599999,8.6,-3.0,182.7,-1.0,510.9661956128297,88117.62620131088,88117.62620131088,300.38435051976927,0.07779414616457174,3.496410191028859,86.60000000000001,0.6089876145256992
1306893745.0,2.200407,6.8674385,12653.707754,8.0,-3.0,182.7,-1.0,490.3614037375561,91409.76946473181,91409.76946473181,300.3023952391418,0.07951221658697805,3.6012001233479523,86.60000000000001,0.6087333056893037
1306893745.21,2.2004408,6.8669535,12640.3547352,7.5,-3.1,182.8,-1.0,521.7780148024165,91972.65222397407,91972.65222397407,302.22651147549647,0.07868252487565673,3.5927540089120082,88.70000000000002,0.6084679732308609
1306893745.42,2.2004716,6.8664999,12627.625076,6.9,-3.2,182.8,-1.0,484.52955518410874,99783.1067495906,99783.1067495906,302.73905808891345,0.07873670899397509,3.5495165342919557,89.10000000000001,0.6081928419972652
1306893745.63,2.2005033,6.8660217,12614.00959,6.4,-3.2,182.9,-1.0,513.7485970864897,99196.46404615373,99196.46404615373,302.9203433658315,0.07819415599353223,3.4806635222641114,87.9,0.6079077588826546
1306893745.84,2.2005342,6.8655434,12600.1316368,5.9,-3.3,182.9,-1.0,513.8705555342922,104253.91621447683,104253.91621447683,303.49355369398376,0.07619407235622884,3.5030404192649027,88.00000000000003,0.6076148673690936
1306893746.06,2.2005659,6.8650401,12585.3350484,5.4,-3.4,183.0,-1.0,516.558472109552,107705.34695869141,107705.34695869141,301.74357790406935,0.07501355435514369,3.5841250723779194,88.30000000000003,0.6073130957155505
1306893746.28,2.2005968,6.8645365,12570.3416096,5.0,-3.4,183.0,-1.0,516.7190999307284,106525.53490194444,106525.53490194444,300.7181308038595,0.07589193624687683,3.645405094299116,88.90000000000002,0.6070030563454716
1306893746.5,2.2006272,6.8640305,12555.0857036,4.5,-3.5,183.0,-1.0,519.5631156660852,104780.41197352545,104780.41197352545,299.25760116556586,0.07503071413655785,3.663271889607651,89.7,0.6066849789176502
1306893746.72,2.2006569,6.8635243,12539.665755600001,4.1,-3.5,183.1,-1.0,519.7705446560034,109142.51666485936,109142.51666485936,298.8178566202613,0.07519622184479957,3.706910897531962,90.70000000000002,0.6063595524084637
1306893746.94,2.2006861,6.8630156,12524.016148800001,3.7,-3.6,183.1,-1.0,522.5944335803055,109930.92255179129,109930.92255179129,298.6153919262795,0.07246453942885461,3.737679343330477,87.50000000000001,0.6060267768179126
1306893747.16,2.2007149,6.8625021,12508.1040748,3.3,-3.6,183.1,-1.0,528.0042476283273,102144.5725667234,102144.5725667234,297.7370102545142,0.06955751478088128,3.6925920076161334,89.4,0.6056870349106509
1306893747.38,2.2007434,6.8619838,12491.863916799999,3.0,-3.7,183.2,-1.0,533.6220127810656,109841.98752654399,109841.98752654399,297.8114774686609,0.06968770394370438,3.767145853337104,90.30000000000001,0.6053405563454716
1306893747.6,2.2007716,6.8614605,12475.3941,2.7,-3.7,183.2,-1.0,539.1506567621518,102976.2503272688,102976.2503272688,296.9968933316859,0.07154853386713306,3.7065190934557304,88.2,0.6049853507461715
1306893748.04,2.2008266,6.860411,12441.9951488,2.1,-3.8,183.2,-1.0,540.8926663084865,110384.23794662283,110384.23794662283,296.6726286066325,0.07317003224637376,3.782177165055813,87.30000000000001,0.6045839837295486
1306893748.46,2.2008773,6.8594091,12409.7773,1.6,-3.8,183.2,-1.0,541.0119507512989,117257.21147205321,117257.21147205321,296.42744672153054,0.07623871102575074,3.769641781655653,87.30000000000001,0.6041398236245616
1306893748.89,2.2009283,6.8583712,12376.115881599999,1.2,-3.8,183.3,-1.0,547.9838160462904,121956.67391832003,121956.67391832003,298.3577580472962,0.07704707149751716,3.751536826587688,86.7,0.6036516455843168
1306893749.33,2.2009793,6.8573018,12341.1749356,0.8,-4.0,183.3,-1.0,552.2305451666952,123671.63102808435,123671.63102808435,298.3286869676503,0.07478523202337618,3.731481212854897,89.2,0.6031169233620945
1306893749.76,2.2010293,6.8562329,12306.0371392,0.5,-4.0,183.3,-1.0,566.0956462003555,122700.71059679969,122700.71059679969,298.95306836358026,0.07413304516642108,3.6268111094016278,89.80000000000001,0.6025358100637569
1306893750.2,2.2010789,6.8551648,12270.7024924,0.2,-4.0,183.3,-1.0,551.4398828362308,122490.50923328745,122490.50923328745,298.18947491169473,0.0745600528871473,3.5842490573396057,89.8,0.6019082291363728
1306893750.63,2.2011285,6.8540928,12235.105378400001,-0.1,-4.0,183.3,-1.0,567.9727962551536,119613.43791447581,119613.43791447581,296.13136013420984,0.07435096335507184,3.573698340695962,93.1,0.6012341040270115
1306893751.49,2.2012278,6.8519772,12164.4688932,-0.4,-4.0,183.3,-1.0,559.6645690358747,121577.27859960179,121577.27859960179,294.97847947059086,0.07562260861951303,3.5451044035438564,92.6,0.6004322886289362
1306893751.91,2.201277,6.8509522,12130.08569,-0.5,-4.0,183.3,-1.0,554.9170802628618,122294.76638155125,122294.76638155125,295.77196396459726,0.07579392857155076,3.5543743363270153,92.0,0.5995881394600824
1306893752.34,2.2013285,6.8499035,12094.81666,-0.5,-4.0,183.3,-1.0,554.5171168649307,119388.57345639591,119388.57345639591,294.9738038579077,0.07522156149661383,3.6671671269309507,93.9,0.5987001254618322
1306893753.2,2.2014341,6.8478241,12024.672300799999,-0.5,-4.0,183.2,-1.0,549.3381868165269,116173.95012072436,116173.95012072436,294.5496155602095,0.07515589434083067,3.60418541408112,95.3,0.5977263721809922
1306893754.48,2.201599,6.8447548,11920.7352896,-0.5,-3.9,183.2,-1.0,544.4191008424842,110965.86114906867,110965.86114906867,295.4473957069211,0.07255696142753139,3.587115741152796,93.8,0.5965852741932407
1306893756.19,2.2018288,6.8407933,11786.122424399999,-0.5,-3.8,183.2,-1.0,524.223314025253,103059.11514941206,103059.11514941206,295.8361367525715,0.0728905773797061,3.568736407027182,93.00000000000001,0.5952086228371603
1306893757.45,2.202007,6.8379213,11688.1893504,-0.2,-3.8,183.2,-1.0,515.0296405185417,96100.3876884457,96100.3876884457,297.3480228637112,0.07202146778750519,3.589300818853522,91.8,0.5936849898537832
1306893759.13,2.202254,6.8341711,11560.006931599999,-0.2,-3.6,183.2,-1.0,503.3504899849595,92279.4024521314,92279.4024521314,296.7721716858418,0.07073029556413908,3.687419297236163,92.10000000000001,0.59194425275842
1306893763.79,2.2029807,6.8242576,11221.1617764,-0.2,-3.2,183.2,-1.0,477.32308571197456,84013.52582122585,84013.52582122585,298.98755480176834,0.06941618289954016,3.7175894011157364,88.9,0.5894953244994524
1306893765.07,2.2031906,6.8216424,11131.857311599999,-0.2,-3.1,183.2,-1.0,456.4488767326843,79111.63312274059,79111.63312274059,300.5989903022519,0.06974675534945993,3.7159999425099364,89.30000000000001,0.5869210790926281
1306893766.33,2.2034013,6.8191092,11045.3743692,-0.2,-3.0,183.2,-1.0,448.3513959348772,72333.48512575566,72333.48512575566,302.7062401341236,0.07178119832749448,3.696399930591612,89.60000000000001,0.5843098586201873
1306893766.76,2.2034736,6.8182589,11016.3717436,-0.1,-3.0,183.2,-1.0,440.14477224271434,65082.20338095542,65082.20338095542,302.40402710504384,0.0696893095954875,3.7037280823952745,88.4,0.5817111928284112
1306893767.18,2.203546,6.8174172,10987.6643936,-0.1,-2.9,183.2,-1.0,446.81175414458664,57259.34865205521,57259.34865205521,303.792539224141,0.06814103935631749,3.6866512219811196,88.5,0.5791278376228121
1306893768.02,2.2036892,6.8157808,10931.955730399999,-0.2,-2.9,183.1,-1.0,432.9092952414507,51716.1521768752,51716.1521768752,303.3155492534799,0.06844791481550482,3.6862511258928055,90.70000000000002,0.5765781657068014
1306893768.44,2.203762,6.8149623,10904.101398800001,-0.2,-3.0,183.1,-1.0,433.071898304963,47454.07985211102,47454.07985211102,303.8844905059873,0.06915094797623,3.7031710331491694,91.60000000000001,0.5742060200375101
1306893768.86,2.203835,6.8141482,10875.8533664,-3.7,-4.6,183.1,-1.0,430.54383168798256,45137.24716624968,45137.24716624968,303.62071481786506,0.0715519099448851,3.739873937374004,91.50000000000001,0.5720820589701435
1306893769.28,2.2039057,6.8133312,10845.308746,-5.7,-5.4,183.5,-1.0,432.60650310541604,44903.205482998615,44903.205482998615,303.72211244683086,0.07181671020378624,3.6686095729316164,92.2,0.5701153376228119
1306893769.7,2.2039687,6.8125421,10813.2877476,-5.2,-5.7,183.8,-1.0,416.2591263884494,45650.407480272435,45650.407480272435,305.11874112457417,0.07247110896598008,3.684834952382063,89.70000000000002,0.5683729929159004
1306893770.12,2.2040263,6.8117406,10778.37961,-4.9,-5.9,184.2,-1.0,423.9341093020858,43383.80879989576,43383.80879989576,302.8027251029353,0.07272408008022412,3.6507246328078593,90.7,0.5673398345606947
1306893770.54,2.2040773,6.8109455,10741.7326272,-4.9,-5.9,184.5,-1.0,420.31756019279857,42676.40221716062,42676.40221716062,303.33112121349967,0.07585200322946282,3.6341366320073596,89.60000000000002,0.5664295436595573
1306893770.97,2.2041234,6.8101398,10702.92029,-4.9,-5.9,184.8,-1.0,415.67982621862495,41376.92505829178,41376.92505829178,301.93697501997167,0.0722500222857912,3.712540154636814,87.19999999999999,0.5656304841669939
1306893771.39,2.2041641,6.8093476,10663.4845932,-4.7,-5.8,185.1,-1.0,418.9718473072438,37830.63247147951,37830.63247147951,300.8635453188232,0.07164412198009323,3.6115516488274086,89.30000000000001,0.5648070808424096
1306893771.81,2.2042,6.8085761,10624.18013,-4.6,-5.8,185.3,-1.0,406.77910135404977,38934.372626151686,38934.372626151686,301.7523165136434,0.07454142971230389,3.551143427147317,90.9,0.5639589509211497
1306893772.24,2.2042341,6.8077694,10582.2838032,-4.4,-5.9,185.5,-1.0,416.62713111901144,38212.64725985333,38212.64725985333,302.67993428238475,0.07320798366445774,3.5786410684050405,88.5,0.5631430497837918
1306893772.66,2.2042632,6.8069924,10541.306111599999,-4.0,-6.0,185.7,-1.0,410.2499282408042,38558.145061414805,38558.145061414805,303.8160681525085,0.07349049680278778,3.6051474228348663,86.7,0.5622965274740805
1306893773.08,2.2042876,6.8062278,10500.361228400001,-3.4,-6.2,186.0,-1.0,402.82779276035365,38851.89264390986,38851.89264390986,301.5760992022016,0.07117408728359091,3.543789928930752,87.3,0.5614203791801173
1306893773.5,2.2043063,6.8054695,10458.989836,-3.4,-6.6,186.4,-1.0,399.15446389738435,38498.46564130704,38498.46564130704,302.0168996365931,0.07338553709435888,3.569803088636003,86.2,0.5605189684189625
1306893773.93,2.2043206,6.8046788,10414.698496,-4.6,-7.0,186.4,-1.0,407.80453702748883,36032.41686277149,36032.41686277149,302.2043949013339,0.07353952778435029,3.4897102535335107,88.0,0.5595889268616571
1306893774.35,2.2043348,6.803917,10370.6368148,-5.3,-7.0,186.4,-1.0,401.8668021057677,36887.75445194525,36887.75445194525,304.4895217874571,0.07366437610419695,3.5076351768700547,88.1,0.5586375270366353
1306893774.79,2.2043532,6.8031198,10323.1958684,-5.3,-7.0,186.2,-1.0,401.79707313002484,35390.79543693162,35390.79543693162,303.4790841456866,0.07258466696410527,3.538098871447102,85.8,0.5576609412973527
1306893775.21,2.2043742,6.8023572,10276.7719824,-5.4,-7.0,186.0,-1.0,403.2406053441041,35401.40274546071,35401.40274546071,303.38232577536934,0.07497579494652845,3.4342778292567178,85.8,0.556666595278105
1306893775.64,2.2044023,6.8015808,10228.740484799999,-4.9,-7.1,185.6,-1.0,400.963920931806,38275.411545643496,38275.411545643496,302.4739067957402,0.07636055001281793,3.566304509705319,86.0,0.555652192390966
1306893776.07,2.2044366,6.8007923,10179.4294596,-4.8,-7.0,185.6,-1.0,408.4115415774467,37787.24147783338,37787.24147783338,301.87257235149235,0.07478710781613515,3.6538467633168805,83.10000000000002,0.5546144408599073
1306893776.5,2.2044707,6.8000137,10130.6433688,-4.8,-6.7,185.5,-1.0,402.6221954400631,39959.43724775041,39959.43724775041,302.02120920324916,0.0763167221489147,3.563263624319691,83.50000000000003,0.5535606132133631
1306893776.92,2.2045006,6.7992342,10082.2181704,-5.7,-6.4,185.8,-1.0,413.8034664805146,41368.907026859204,41368.907026859204,302.0166219118949,0.07653214798955837,3.5594622231566846,84.00000000000001,0.5524894080515084
1306893777.34,2.2045262,6.7984756,10035.8599012,-7.1,-5.9,185.8,-1.0,400.9324625510576,43617.63237500078,43617.63237500078,303.2015918478441,0.07921858110844344,3.6370603887564745,85.2,0.5514055716560577
1306893777.77,2.2045531,6.7976792,9988.3861464,-7.8,-5.3,185.8,-1.0,412.1529415691671,43431.181296516246,43431.181296516246,302.71818696823357,0.07839748146461333,3.653129244675186,85.6,0.5503074964154628
1306893778.2,2.2045826,6.7969012,9944.22604,-7.9,-2.7,185.5,-1.0,400.8328249625142,46108.16118433854,46108.16118433854,303.1708578695472,0.07904448807610287,3.7121560445858846,83.99999999999999,0.5492097273865915
1306893778.63,2.204618,6.7961047,9903.4451988,-7.1,-1.6,185.2,-1.0,410.6071643688463,45657.86887018999,45657.86887018999,301.19109435576286,0.07959433392455985,3.695308668260812,83.19999999999999,0.5481196136508085
1306893779.05,2.2046571,6.7953287,9868.4714444,-6.1,-0.8,185.0,-1.0,408.41250605289457,45842.513995153095,45842.513995153095,300.9031970197155,0.07996567033767485,3.6639512640094085,86.0,0.5470585900287612
1306893779.47,2.2046996,6.7945645,9838.3861416,-5.0,-0.1,184.8,-1.0,400.5003032181196,46051.20741597735,46051.20741597735,302.4009551359185,0.08080933521795057,3.78632398481289,88.1,0.546035689766294
1306893779.9,2.2047479,6.7937555,9811.0895528,-3.7,1.0,184.6,-1.0,415.3716702334245,44583.12910774082,44583.12910774082,304.41472087046395,0.0817703559296636,3.723810376188301,87.2,0.5450611709561453
1306893780.32,2.2047963,6.7929908,9789.9609432,-2.6,3.0,184.5,-1.0,399.56621074875653,46989.709193245086,46989.709193245086,302.47208531151216,0.08357526788289492,3.6452030474055275,88.4,0.5441524111136257
1306893780.53,2.2048218,6.7925993,9781.2667172,-2.0,5.2,184.5,-1.0,409.82840229516813,45722.42638915699,45722.42638915699,302.1868667161237,0.0844340843711072,3.660178959590115,87.4,0.5433371989526458
1306893780.96,2.2048746,6.7918126,9771.457005600001,2.2,15.9,184.5,-1.0,400.6763110538747,48703.698141201116,48703.698141201116,299.261290103784,0.08330735242619534,3.640617154386025,90.60000000000001,0.5426120895913159
1306893781.38,2.2049271,6.7910405,9780.4793156,2.7,24.6,184.5,-1.0,402.8042139271903,49491.549241092835,49491.549241092835,298.4355217234202,0.0822343905000612,3.623302482432845,90.50000000000001,0.5420162015773177
1306893781.8,2.204979,6.7902818,9813.845458400001,4.6,31.3,184.8,-1.0,398.3541043052086,51097.21537746578,51097.21537746578,297.9886321746397,0.08257052218012596,3.551980765873343,91.2,0.5416089399850166
1306893782.22,2.2050232,6.7895516,9871.686667599999,6.5,37.1,185.6,-1.0,389.00087819305537,49160.6834379851,49160.6834379851,296.43773367691495,0.08059359607661792,3.456622177283318,93.9,0.541439681454833
1306893782.65,2.2050548,6.7888464,9953.4780088,7.8,42.1,186.7,-1.0,375.7366625603246,44873.14127442388,44873.14127442388,297.08436489049683,0.07907863841357778,3.4952568602440706,94.60000000000001,0.5415564246744304
1306893783.07,2.2050715,6.7882022,10052.690610399999,8.9,47.2,188.0,-1.0,363.46739584262406,34121.83071375911,34121.83071375911,296.6501070333582,0.07663931070709898,3.481865837107037,91.9,0.5419862693813421
1306893783.5,2.2050751,6.7875797,10173.4583308,10.3,52.3,189.6,-1.0,359.4289818316971,20617.11806047093,20617.11806047093,295.5868641819798,0.07494644150543756,3.405704147419852,92.70000000000002,0.5427681044644568
1306893783.92,2.2050655,6.787012,10308.071196,11.7,57.0,191.3,-1.0,355.3144005575555,16567.30163783183,16567.30163783183,293.3573963401366,0.07361678435621956,3.3678431793632293,92.70000000000002,0.5439277282614822
1306893784.34,2.2050443,6.7865013,10452.7890484,13.3,61.5,193.2,-1.0,340.3470186986606,27491.443520634413,27491.443520634413,294.6720918964969,0.0707511509558248,3.4218205989079093,92.5,0.5454743271241244
1306893784.76,2.2050118,6.7860302,10610.433410399999,15.2,65.7,195.5,-1.0,339.31346346723365,38213.828540339644,38213.828540339644,294.7124477706679,0.06832967119748617,3.469044506909707,94.60000000000001,0.5474090493463466
1306893785.18,2.2049708,6.785622,10770.505594,17.5,69.8,198.1,-1.0,319.32054217527576,45873.171750209396,45873.171750209396,295.8901485953879,0.06956597935193821,3.4883414696973922,91.5,0.5497401626446842
1306893785.61,2.2049184,6.7852417,10945.1118988,20.3,73.7,201.2,-1.0,321.84156256601386,48600.92011068169,48600.92011068169,295.38340321738264,0.06845870080041046,3.5098398861131708,89.1,0.5524576385851917
1306893786.03,2.2048592,6.7849192,11119.258886,23.5,77.3,204.9,-1.0,313.4594139687144,48218.94806736791,48218.94806736791,294.8552882168814,0.06809248922725429,3.54730225218006,87.0,0.5555036031521208
1306893786.45,2.2047938,6.7846457,11293.5371068,27.5,80.7,209.3,-1.0,302.480909207063,45596.17662453507,45596.17662453507,296.55002263961217,0.06918383745591929,3.6150805211987267,87.2,0.5588212540707559
1306893786.87,2.2047217,6.7844139,11469.7838316,32.4,83.8,214.6,-1.0,297.9901428342748,42410.86612162088,42410.86612162088,297.36259648403745,0.07207782282139216,3.6751685661678155,88.9,0.562359300877405
1306893787.3,2.2046439,6.7842237,11645.7680892,38.6,86.6,221.3,-1.0,284.9604838451048,39613.23157386869,39613.23157386869,298.8795519353808,0.07424045519801088,3.7730075745001805,91.30000000000001,0.566076481542322
1306893787.72,2.204561,6.7840732,11820.341585600001,45.7,88.9,228.9,-1.0,286.3160165211171,37275.36973204572,37275.36973204572,298.88607711404427,0.07292977054581386,3.8130756121822698,88.5,0.569919209013888
1306893788.15,2.2044728,6.7839592,11994.915082000001,54.1,90.6,237.8,-1.0,278.1618819445051,36482.783112710946,36482.783112710946,301.1778056506247,0.07399418761973489,3.8603946332783754,87.89999999999999,0.5738551779552705
1306893788.57,2.2043829,6.7838831,12163.2549824,63.5,91.8,247.8,-1.0,274.9015506976634,37672.58349520566,37672.58349520566,300.4304292600389,0.07361192201859314,3.771350631866358,89.7,0.577846265006889
1306893788.99,2.2042927,6.7838414,12324.0489508,73.5,92.3,258.4,-1.0,264.37898959494237,38824.790658936836,38824.790658936836,299.2482495744739,0.07438837454760815,3.7354691784540903,88.0,0.5818447011398724
1306893789.41,2.2042013,6.7838302,12480.3481684,83.7,92.0,269.1,-1.0,260.0994701225796,41655.232085088406,41655.232085088406,298.89105240311164,0.07276195353435636,3.757747737008818,89.9,0.5858343336858041
1306893789.83,2.2041068,6.7838483,12634.3179896,93.0,91.1,279.1,-1.0,260.50957599193316,43548.94249647912,43548.94249647912,301.2411302727097,0.07382340657641334,3.7351948432149467,89.5,0.58977581443821
1306893790.26,2.2040118,6.7838945,12782.480724,101.6,89.5,288.6,-1.0,250.907596176056,45273.82612208094,45273.82612208094,300.2533335418172,0.07240484813951742,3.8113135009379926,92.3,0.5936566652693561
1306893790.69,2.2039167,6.7839677,12925.7550068,108.5,87.6,296.4,-1.0,249.43285265261534,47341.99252626863,47341.99252626863,300.0836336704131,0.07366566328692631,3.787095217871494,89.5,0.5974651735808172
1306893791.12,2.2038245,6.784065,13061.2208904,114.6,85.3,303.5,-1.0,244.20901935253892,47973.85290135629,47973.85290135629,300.24354807721585,0.07012660456639618,3.7834503154756427,86.8,0.6011785265991898
1306893791.54,2.2037375,6.7841822,13187.1067212,119.4,82.8,309.3,-1.0,241.4877871802125,48301.65281918486,48301.65281918486,299.6162794677345,0.06753700057866689,3.70207874225719,84.1,0.6047749832921032
1306893791.96,2.2036555,6.7843184,13305.348194799999,123.3,80.1,314.4,-1.0,237.2446856557243,47756.50458437829,47756.50458437829,298.051007400045,0.07087377948845167,3.657753612400696,86.0,0.6082399986026895
1306893792.38,2.2035772,6.7844763,13418.8980672,126.6,77.3,318.9,-1.0,238.80279443726369,47010.508927977186,47010.508927977186,296.6653233374971,0.07064576502317886,3.619546176556765,86.0,0.6115626254618322
1306893792.8,2.2035063,6.7846497,13524.1474144,129.3,74.3,323.0,-1.0,234.4217606089054,45101.99718207227,45101.99718207227,297.7269270904233,0.07258405690182733,3.662485822948872,84.10000000000001,0.6147380410348855
1306893793.22,2.2034428,6.7848392,13622.441380799999,131.6,71.3,326.7,-1.0,232.92065556704955,43614.83341026143,43614.83341026143,298.16182270941124,0.07304318082357188,3.7043347924295715,86.5,0.6177676232746054
1306893793.65,2.2033878,6.7850475,13715.650045199998,133.8,68.2,330.3,-1.0,231.068872773151,41646.35547351897,41646.35547351897,299.19265668329876,0.07384057401968765,3.643661524090208,84.7,0.6206499942282363
1306893794.07,2.2033446,6.7852673,13801.017502,135.7,64.0,333.7,-1.0,232.74375257528408,38935.88170039867,38935.88170039867,296.8057345864667,0.07260742950158235,3.5966194505418008,86.80000000000001,0.6233722930033894
1306893794.49,2.2033129,6.7854975,13879.1999192,137.2,59.5,336.8,-1.0,231.02877645556387,36626.0689944158,36626.0689944158,296.6085722252641,0.07284648320729345,3.529553141205729,85.80000000000001,0.6259313043769676
1306893794.91,2.2032923,6.7857396,13951.4112076,138.5,54.8,339.5,-1.0,231.90560337139212,34082.004496490525,34082.004496490525,296.1555321580242,0.07166031858374812,3.5735447812655217,87.50000000000001,0.628324502102252
1306893795.33,2.2032825,6.7859916,14017.618558799999,139.3,50.2,342.1,-1.0,232.4298313099882,31442.895244289368,31442.895244289368,294.0457271654865,0.07504570469476915,3.5372574020146486,89.40000000000002,0.630556096590441
1306893795.77,2.2032837,6.7862642,14080.479453199998,140.0,45.6,344.5,-1.0,232.51097190679567,28729.196284341622,28729.196284341622,293.7030119072193,0.07673089997025533,3.491812829226636,93.10000000000001,0.6326406328984026
1306893796.19,2.2032943,6.7865377,14135.2366728,133.3,46.3,346.2,-1.0,236.52987314952026,26120.084399269734,26120.084399269734,296.14486096891727,0.07557968406023254,3.5170547581643694,92.60000000000001,0.6345770392851042
1306893796.63,2.2033145,6.786834,14184.7445484,102.8,45.3,348.5,-1.0,237.75101806980385,23448.26494829002,23448.26494829002,294.97650920875327,0.07449449128670237,3.563043331593968,90.7,0.636364014350721
1306893797.07,2.2033504,6.7871366,14227.1658096,86.7,42.4,351.2,-1.0,238.38783233644148,21075.984071576182,21075.984071576182,294.96801251077375,0.07230542825752122,3.6471086367400978,92.2,0.6380043905536956
1306893797.5,2.2034025,6.7874393,14263.3206664,92.7,39.5,353.7,-1.0,241.01400343583154,18838.5733148228,18838.5733148228,295.11253670726876,0.07146160062733123,3.6112356673250856,92.2,0.6394997755055766
1306893797.92,2.2034683,6.7877352,14292.749801200001,84.6,36.7,356.2,-1.0,239.9205777544761,16747.402875309544,16747.402875309544,295.15020194762303,0.07150320511757251,3.6771834985695406,93.6,0.6408463415598198
1306893798.34,2.2035523,6.7880432,14317.946652399998,69.1,34.4,358.5,-1.0,246.9798005431013,14605.74184169252,14605.74184169252,295.7356152391586,0.0714272069083959,3.6526965895089725,92.89999999999999,0.6420525095388224
1306893798.77,2.2036518,6.788353,14339.075262,58.3,32.5,0.6,-1.0,243.85653475814303,12596.64134959143,12596.64134959143,297.11275695243575,0.0730401526940012,3.711421753621112,91.10000000000001,0.6431255519710184
1306893799.2,2.203768,6.7886704,14357.316732399999,45.7,31.0,2.6,-1.0,249.07729878362625,10536.33918792303,10536.33918792303,294.9938661226937,0.07279184188251298,3.6409391617312754,91.30000000000001,0.6440726648319108
1306893799.63,2.2038984,6.7889923,14373.0647644,32.9,27.2,4.2,-1.0,252.59774942019453,8777.377336861591,8777.377336861591,297.0048631620965,0.07142888988037226,3.6255504086683885,89.80000000000001,0.6449020392851043
1306893800.05,2.2040352,6.7893038,14385.5319564,30.8,21.5,5.8,-1.0,251.5156929620847,7363.899451309734,7363.899451309734,297.97775228505833,0.07197620160732988,3.690457069630465,89.80000000000001,0.6456138284364603
1306893800.47,2.2041855,6.7896239,14394.849542,40.1,15.3,7.1,-1.0,257.70096182288296,6438.016768237012,6438.016768237012,298.06506093030947,0.07066471729223667,3.6410409001434374,89.80000000000001,0.6462195917785425
1306893800.9,2.2043493,6.7899539,14399.672376800001,56.5,8.2,8.4,-1.0,259.80767165116276,5837.478062024644,5837.478062024644,299.0715995544135,0.07218588053871904,3.6023773558571293,92.80000000000001,0.6467210900287612
1306893801.32,2.2045202,6.7902833,14398.6553164,77.0,8.9,9.6,-1.0,265.1268956873785,5399.277186570171,5399.277186570171,300.23493557934745,0.0754654529512258,3.4852880078205386,91.2,0.64712123219849
1306893801.74,2.2047068,6.7906219,14390.9781508,97.7,13.3,11.4,-1.0,272.6804388066305,5056.954189060289,5056.954189060289,299.3876919495622,0.07560050680445267,3.4825697582679234,89.40000000000002,0.6474190996525583
1306893802.17,2.2049132,6.7909655,14375.1973104,105.7,12.1,13.5,-1.0,274.02834597561855,4464.044380783551,4464.044380783551,298.2723823952989,0.07745760059460662,3.4205066667718547,89.20000000000002,0.6476114771678688
1306893802.59,2.2051304,6.7912948,14351.5752624,106.5,9.2,15.8,-1.0,274.49431001378184,3865.360536300324,3865.360536300324,299.36945860430035,0.07644333130840537,3.471777203424507,91.00000000000001,0.6476899439220244
1306893803.01,2.2053748,6.7916317,14318.3403532,108.4,5.7,18.2,-1.0,285.59525542276737,4651.092855154998,4651.092855154998,300.3551473633512,0.07578736331629683,3.350908171777179,93.80000000000001,0.6476415624697062
1306893803.44,2.2056389,6.7919624,14276.0175172,111.4,1.7,20.9,-1.0,283.4307955034965,5769.671403479772,5769.671403479772,303.0217980933998,0.07716514481665826,3.3142730815684955,94.4,0.6474518643069763
1306893803.87,2.2059283,6.7922919,14223.228801599998,114.2,-2.1,23.4,-1.0,291.6871744289879,8560.864657286313,8560.864657286313,303.57145558091105,0.07665378954501771,3.2445002505656704,97.8,0.6471022470716308
1306893804.3,2.2062398,6.7926141,14159.941397999999,116.9,-6.1,26.2,-1.0,297.5239774483945,12216.441615343065,12216.441615343065,301.88674214225694,0.07519297164356192,3.259662389487929,95.0,0.6465758691188749
1306893804.73,2.2065673,6.7929216,14087.0739416,119.0,-10.0,28.9,-1.0,299.382333999389,15660.544825131463,15660.544825131463,300.12659350697965,0.07678845942468218,3.2777084270157015,97.3,0.6458577260742555
1306893805.17,2.2069247,6.7932253,14000.7878496,120.7,-14.0,31.9,-1.0,306.52215082312165,19755.27175591734,19755.27175591734,301.44797385241753,0.07579158124652194,3.3411404846154467,96.1,0.6449269955405722
1306893805.59,2.2072778,6.7934958,13909.285222,121.8,-17.8,35.0,-1.0,307.653517435418,23914.473699301398,23914.473699301398,298.6987268536905,0.07444657864310467,3.4090557952282676,97.7,0.6437851320235118
1306893806.02,2.2076582,6.7937574,13804.1671084,122.3,-21.8,38.5,-1.0,314.7861252327136,27845.215971520087,27845.215971520087,298.43201551452125,0.07510887137283617,3.39377132913574,98.0,0.6424159063017271
1306893806.45,2.2080543,6.7939991,13687.861330400001,122.2,-25.4,42.2,-1.0,320.87031828592626,32210.235690096477,32210.235690096477,298.1998425346997,0.07338699822303626,3.385096334954164,97.8,0.6408121223997147
1306893806.87,2.2084471,6.7942093,13565.8796992,121.4,-28.9,46.3,-1.0,321.17611764811966,36824.990932666624,36824.990932666624,298.3580032750653,0.07309864031886351,3.383938199516575,95.3,0.6389788328109135
1306893807.3,2.2088724,6.7944048,13426.4439992,119.8,-32.5,51.3,-1.0,335.17092019643985,40929.39229720324,40929.39229720324,297.79096033957364,0.07130808928209591,3.3907591807179935,92.6,0.6368977413848417
1306893807.73,2.2092941,6.7945664,13280.676277999999,117.1,-35.7,56.8,-1.0,331.70431121878613,45734.59640171901,45734.59640171901,295.15621617328975,0.06960780607862181,3.4807375903305076,91.2,0.6345752785676938
1306893808.18,2.2097372,6.7947008,13119.2917584,112.9,-39.0,63.9,-1.0,333.48301552810284,49842.03767808428,49842.03767808428,293.43103813974005,0.07054387117739214,3.4936225561907572,87.80000000000001,0.6319994255493212
