timestamp,longitude,latitude,altitude,roll,pitch,yaw,heading,air_speed,engine_0,engine_1,temperature_in,humidity_in,pressure_in,heart_rate,oxygen_mask
1306893631.32,6.4752918,4.1768605,155.7414748,-1.0,4.0,-1.0,-1.0,161.03081458591575,3064.291732113353,3064.291732113353,298.9263739178464,0.07692339493543594,3.673583521258799,86.4,0.3184401287588247
1306893631.74,6.475647,4.1769052,155.8399,-1.0,5.8,-1.0,-1.0,161.03081458591575,3111.3684292160838,3111.3684292160838,298.7704261217948,0.07598034066147273,3.7097511450774796,88.10000000000001,0.31829965413065325
1306893632.16,6.4760197,4.1769521,155.9383252,-1.0,6.9,-1.0,-1.0,169.02040226871742,3267.0748501443018,3267.0748501443018,300.25720873773037,0.07396702014740528,3.618128048716397,90.70000000000002,0.3182681143231291
1306893632.58,6.4763879,4.1769985,155.9711336,-1.0,7.7,-1.0,-1.0,166.9484099148005,3193.4259245284566,3193.4259245284566,300.4005284616005,0.07472961925397921,3.631158810785573,91.4,0.31824844021989207
1306893633.01,6.4767784,4.1770476,155.9711336,-1.0,8.2,-1.0,-1.0,172.80861031403637,3443.355840735891,3443.355840735891,301.9670933406111,0.07261205585937679,3.683359010686344,91.10000000000001,0.3182376462566375
1306893634.5,6.4781979,4.1772264,158.2021048,-1.0,9.7,-1.0,-1.0,181.18971502558833,3443.3558407358923,3443.3558407358923,301.9670933406111,0.07261205585937679,3.683359010686344,91.10000000000001,0.3182376462566375
1306893634.92,6.4786099,4.1772783,160.597118,-1.0,9.9,-1.0,-1.0,186.69430186524684,3193.4259245284557,3193.4259245284557,300.4005284616005,0.07472961925397922,3.631158810785573,91.4,0.31824844021989207
1306893635.36,6.4790541,4.1773343,164.40289239999998,-1.0,10.1,-1.0,-1.0,191.8589727311729,3267.074850144303,3267.074850144303,300.25720873773037,0.07396702014740529,3.618128048716397,90.7,0.3182681143231292
1306893635.79,6.4794954,4.1773901,169.455386,-1.0,10.3,-1.0,-1.0,195.35475884990876,3111.3684292160833,3111.3684292160833,298.7704261217948,0.07598034066147273,3.7097511450774796,88.1,0.31829965413065325
1306893637.95,6.4818114,4.1776862,216.04331399999998,0.1,10.3,-1.0,-1.0,204.32060098468077,3064.291732113353,3064.291732113353,298.9263739178464,0.07692339493543594,3.6735835212588,86.39999999999999,0.3184401287588246
1306893639.24,6.4833337,4.1778852,263.45145199999996,0.1,10.5,-1.0,-1.0,225.7161178437133,3422.140827142619,3422.140827142619,296.1190982975936,0.07373364874492,3.6056391990282117,83.19999999999999,0.31869145203091565
1306893640.09,6.4844059,4.1780283,304.69161080000003,0.3,10.4,-1.0,-1.0,241.9767730098737,3945.730851043502,3945.730851043502,293.9414028870896,0.07509893176806647,3.4986804775320497,82.5,0.3190387726783347
1306893640.51,6.4849556,4.1781027,328.0511916,0.3,10.4,-1.0,-1.0,251.45547462613632,4419.532978900504,4419.532978900504,292.0851165886793,0.07679758483048403,3.512640248000267,80.2,0.3194403693537503
1306893640.95,6.4855435,4.1781833,354.5275704,0.3,10.3,-1.0,-1.0,257.41887090741943,5141.89718286595,5141.89718286595,294.24193907902423,0.07710631756477787,3.4634746298008814,81.40000000000002,0.31990366769145806
1306893641.37,6.4861146,4.1782624,381.4960752,0.3,10.2,-1.0,-1.0,262.2633904636833,5812.161261140746,5812.161261140746,294.00509174264363,0.07771976875911854,3.4536377257983495,84.60000000000001,0.32042989253835225
1306893641.79,6.4867081,4.1783456,410.13780840000004,0.3,10.0,-1.0,-1.0,272.7887335141105,6753.481716229675,6753.481716229675,296.0529172763167,0.07930191976284678,3.520497152663212,82.30000000000001,0.32101774249460774
1306893642.22,6.4873195,4.1784323,439.5341348,0.8,9.6,-1.0,-1.0,274.2487010212896,7611.893357042005,7611.893357042005,296.07502000188526,0.0760080560226395,3.559242877292842,83.2,0.3216685955129804
1306893642.64,6.4879335,4.1785203,468.33991,0.9,9.2,-1.0,-1.0,282.0726459027381,9095.72821434238,9095.72821434238,298.1531361224661,0.07759286178043472,3.5183548539353513,86.60000000000001,0.32237778186468646
1306893643.06,6.4885637,4.1786115,496.4895172,1.1,8.8,-1.0,-1.0,289.2723946531708,10601.325887078707,10601.325887078707,298.17320007077376,0.07752278566630508,3.4232033503937718,89.00000000000001,0.32314086147973453
1306893643.48,6.4892046,4.1787051,523.29398,1.3,8.4,80.7,-1.0,293.5210470269512,11993.362542826837,11993.362542826837,298.2075868826893,0.07837917713241806,3.4699472999992738,90.4,0.3238577796774599
1306893643.9,6.4898662,4.1788024,548.72049,1.5,8.1,80.7,-1.0,302.67342233599254,13615.72256103937,13615.72256103937,298.70919649007476,0.08083485128247854,3.5476710081575247,92.70000000000002,0.32452340741149316
1306893644.33,6.4905527,4.178904,572.6050052,1.7,7.9,80.7,-1.0,306.2342528660674,14868.476022668157,14868.476022668157,300.5077685000214,0.08003061022456866,3.6615618886472783,91.00000000000001,0.3251485386450889
1306893644.75,6.4912504,4.1790077,594.2585492,2.0,7.7,80.7,-1.0,317.99110857529087,15983.07970692955,15983.07970692955,300.32424506864356,0.07981625466801519,3.724240418661408,91.2,0.32576968912627874
1306893645.18,6.491987,4.1791175,614.4029068,2.3,7.7,80.8,-1.0,327.7954061247394,17015.41265223309,17015.41265223309,299.29315233814333,0.07925820227921829,3.7722928016081236,90.8,0.32637606489180804
1306893645.62,6.4927483,4.179231,632.9396528,2.6,7.9,80.8,-1.0,330.40935273520176,17994.99744203231,17994.99744203231,299.35412876434026,0.07880346252686884,3.7756066247970423,88.1,0.3269627665541002
1306893646.04,6.4934965,4.1793424,650.0000208,2.9,8.2,80.9,-1.0,340.23574215015924,19305.01048261259,19305.01048261259,298.6861237850899,0.07679447655976977,3.813494858466907,88.0,0.32752244503179057
1306893646.47,6.494281,4.179458,667.7165568,3.1,8.6,81.0,-1.0,348.2506538100005,20892.284276477185,20892.284276477185,298.88039117020315,0.078399456519096,3.8663510777708385,90.6,0.3280548706660862
1306893646.89,6.4950781,4.1795742,686.2861112,3.4,9.0,81.1,-1.0,362.00739478023513,22705.517475170425,22705.517475170425,296.91190905788756,0.0777387143497344,3.9288645684916754,88.3,0.3285634117859463
1306893647.31,6.4958737,4.1796888,705.9055344,3.5,9.3,81.2,-1.0,361.5900576827767,24737.506260047932,24737.506260047932,295.5351558441646,0.07804500464085015,3.914123988690261,89.60000000000001,0.3290520491437765
1306893647.73,6.4966956,4.1798056,727.5918868,3.5,9.5,81.3,-1.0,373.42597377231624,27674.256634485737,27674.256634485737,293.17870058548465,0.07596235093647341,3.8548880961674725,89.00000000000001,0.32952874424438894
1306893648.15,6.4975283,4.1799223,751.0498928,3.5,9.7,81.4,-1.0,378.2932247321351,30011.470051145247,30011.470051145247,293.2371402125726,0.07618789641133138,3.877839856751431,90.00000000000001,0.3300008461691483
1306893648.58,6.4984081,4.1800441,777.3294212000001,3.5,9.7,81.5,-1.0,390.67548001563523,33301.7910422347,33301.7910422347,292.1024271844327,0.07476442858079199,3.801531775303347,89.4,0.33047853645786235
1306893649.0,6.4992633,4.1801609,804.1666924,3.5,9.7,81.6,-1.0,388.7758352821662,36474.23543248024,36474.23543248024,291.504170691788,0.07444263037230253,3.7899893275190384,89.3,0.3309683221096558
1306893649.44,6.5001866,4.1802856,834.8425464000001,3.3,12.8,81.7,-1.0,400.97926356189987,40274.1708146527,40274.1708146527,290.04976222604773,0.073497053161201,3.8138627707040067,90.1,0.33148268125226305
1306893649.86,6.5010667,4.1804032,868.2414976,2.1,9.8,81.7,-1.0,401.0581372633478,43769.26520899318,43769.26520899318,291.2129551069568,0.07524929933838465,3.851591921589203,90.8,0.3320317188725605
1306893650.29,6.5019877,4.1805257,902.1981916,-3.6,8.7,81.7,-1.0,409.6055063074067,47966.38611877345,47966.38611877345,290.58936448809806,0.07702159026201333,3.7284777457387666,92.80000000000001,0.33262018125226306
1306893650.71,6.5028745,4.1806455,933.4317884,-24.9,12.3,81.4,-1.0,403.5633950000233,52070.10627270035,52070.10627270035,292.9817159945221,0.07509783897944498,3.718067603174104,92.7,0.3332401834394896
1306893651.15,6.5038057,4.180784,969.9475375999999,-37.7,14.1,79.9,-1.0,406.43615324089893,56255.04882788818,56255.04882788818,292.90278455891126,0.07467425719443649,3.7288339489784854,91.80000000000001,0.33390206007990947
1306893651.58,6.5047129,4.1809395,1009.7441267999999,-41.5,14.3,78.3,-1.0,408.6811959607754,60976.123619827136,60976.123619827136,293.7836854818035,0.0725829396624441,3.7669333640221523,91.20000000000002,0.33461101677282284
1306893652.0,6.5056092,4.1811144,1052.2638132,-47.9,15.3,76.5,-1.0,416.291468058168,65269.06127416294,65269.06127416294,295.6062358773299,0.0739478986667371,3.797338237607054,89.70000000000002,0.3353685845768474
1306893652.43,6.5065295,4.18132,1099.0814,-52.5,15.7,74.4,-1.0,422.4649833560735,68984.44366341212,68984.44366341212,296.5739534668699,0.07200840406584003,3.8296795430664554,86.80000000000001,0.33618065806766106
1306893652.85,6.5074404,4.1815519,1147.9331075999999,-54.3,15.5,72.4,-1.0,433.3420038626676,71205.94443542804,71205.94443542804,296.6581792530124,0.07353831348822755,3.8129698745034215,87.90000000000002,0.33704539997492267
1306893653.28,6.5083609,4.1818147,1199.2454452,-56.3,15.8,70.3,-1.0,433.35694522167034,72371.3547776991,72371.3547776991,296.9355714656265,0.0713879694857046,3.7544427682344694,88.70000000000002,0.3379672503686234
1306893653.72,6.5093152,4.1821189,1254.3635571999998,-58.0,15.8,68.1,-1.0,445.9608402885215,72742.80136418843,72742.80136418843,297.9141110921025,0.07206147954663415,3.663696096248485,88.4,0.3389461326958325
1306893654.14,6.5102158,4.1824368,1308.0052912,-58.8,15.7,66.0,-1.0,448.1738291302565,72845.8672094376,72845.8672094376,295.9589899464587,0.07091201688407722,3.5737178227251363,87.5,0.3399722481813969
1306893654.56,6.5111175,4.1827856,1363.1562116,-59.5,15.7,64.0,-1.0,457.0886916712125,72954.22054374764,72954.22054374764,296.90957038987455,0.07052467861278207,3.6791454453500303,86.7,0.34104781686031194
1306893654.99,6.5120231,4.1831676,1419.9803604,-60.0,15.7,62.0,-1.0,456.56158945570485,73808.88369756893,73808.88369756893,296.39003572698886,0.07159253627006419,3.6258689217521005,83.2,0.34218309682531634
1306893655.41,6.5129188,4.1835774,1477.4934856,-58.8,14.9,60.0,-1.0,472.20971449511364,74704.30874370967,74704.30874370967,297.4491242278898,0.07048032388839748,3.61150286256542,84.8,0.34336737066608625
1306893655.84,6.5138047,4.1840098,1534.9738024,-53.0,13.5,58.6,-1.0,464.26291832797256,74720.84778430876,74720.84778430876,297.6546196168239,0.07131893808799136,3.6007054462319705,83.5,0.34459290653660246
1306893656.26,6.5146923,4.1844616,1591.8963764,-46.0,12.9,57.7,-1.0,481.9220471444685,74840.54841080365,74840.54841080365,296.01000376772885,0.06852333704786585,3.6013995406008856,85.4,0.34585204914377654
1306893656.68,6.5155857,4.184931,1648.458058,-40.1,12.9,56.9,-1.0,485.3059020525561,73077.65757577833,73077.65757577833,297.0117500806123,0.0686419855829806,3.507727824722929,85.80000000000001,0.34713392797142306
1306893656.89,6.5160354,4.1851726,1676.837324,-37.4,12.7,56.5,-1.0,492.312568464278,70046.85504602821,70046.85504602821,298.2495595858814,0.06668323619119412,3.506477643030959,86.10000000000001,0.34836803777019826
1306893657.32,6.5169408,4.1856687,1734.1535988,-31.0,12.6,55.8,-1.0,486.8023405822285,67039.97229002946,67039.97229002946,297.85536044856644,0.06994543411067493,3.5233100842628975,85.30000000000001,0.3496161567553251
1306893657.74,6.5178384,4.1861722,1791.4370652,-25.3,12.6,55.2,-1.0,498.44652816481175,64080.21203550916,64080.21203550916,299.01060771712525,0.07134451505846286,3.5169069314341606,85.2,0.3508693282338903
1306893658.18,6.5187593,4.1866989,1850.9186943999998,-20.1,12.6,54.7,-1.0,491.24649453715006,61613.538484234894,61613.538484234894,300.73790472834474,0.06964163769203675,3.537917940507749,85.4,0.3521361261341528
1306893658.61,6.51964,4.1872103,1908.5630532,-15.6,12.6,54.4,-1.0,483.20941188816636,61704.56124656859,61704.56124656859,299.0260696012281,0.06987960644479266,3.4987311396986023,85.70000000000002,0.3534087420571624
1306893659.05,6.5205566,4.1877484,1969.4554435999999,-11.5,12.6,54.1,-1.0,493.8493111230285,64572.96028312717,64572.96028312717,299.06802150237064,0.07156023399411979,3.4448763473234725,87.0,0.35469085054360155
1306893659.48,6.5214433,4.1882731,2029.1667316,-8.1,12.6,53.9,-1.0,490.4353081310985,66095.2400166039,66095.2400166039,298.1039604015549,0.07476443820501898,3.4532250924016576,85.80000000000001,0.35597808807640996
1306893659.9,6.5223187,4.1887913,2088.7795944,-5.6,12.6,54.0,-1.0,495.9705591533306,69141.63834707547,69141.63834707547,299.1202054246594,0.07499068011437596,3.4968556228065975,87.7,0.3572703015497257
1306893660.33,6.5232066,4.1893153,2149.8032184,-3.9,12.6,54.0,-1.0,491.0887267950625,70251.28172499327,70251.28172499327,300.75648054361744,0.07459162374076557,3.464700247520058,88.5,0.35857208413940206
1306893660.75,6.5240655,4.1898211,2209.2520392,-2.9,13.3,54.0,-1.0,486.05185559600244,69826.79669984116,69826.79669984116,300.77934292939165,0.07499986722269139,3.4625444999580073,87.4,0.3598806033869961
1306893661.17,6.5249307,4.1903296,2269.4226448,-2.1,13.3,54.0,-1.0,489.17513820240316,68977.19448659883,68977.19448659883,299.77987146657915,0.07705690623517052,3.533599432078466,86.39999999999999,0.3612633024246164
1306893661.6,6.5258191,4.1908508,2331.4633292,-1.4,13.3,54.0,-1.0,490.6135599229607,69072.28642467872,69072.28642467872,300.796772132579,0.07337563598989007,3.5871919209697203,89.0,0.3626570250842839
1306893662.03,6.5267107,4.1913726,2393.864906,-1.0,13.3,54.0,-1.0,491.98176526813245,68236.05556964526,68236.05556964526,299.86418598835945,0.07193626329729766,3.576784194717014,90.00000000000001,0.3640626900011693
1306893662.5,6.5276871,4.1919423,2462.3032284,-0.7,13.3,54.0,-1.0,492.345188842993,68114.17177688291,68114.17177688291,298.7676980447487,0.07254980246177317,3.5733843316594855,91.30000000000001,0.365489253868186
1306893662.94,6.5286018,4.1924742,2526.4436504,-0.5,13.3,54.0,-1.0,492.09414463539105,67809.91342406099,67809.91342406099,301.3475087419248,0.07158751796109744,3.506604286401031,89.4,0.36693097521551754
1306893663.79,6.5303755,4.1935,2650.6562528,-0.5,13.5,54.0,-1.0,493.20592617995413,66539.68788411141,66539.68788411141,302.12647463512604,0.07253195592046803,3.541581303416851,90.0,0.3685204437194545
1306893664.65,6.5321824,4.1945364,2776.6733172,-0.1,13.5,54.0,-1.0,495.02966283294614,66139.96712793273,66139.96712793273,302.1071391589736,0.070264456263895,3.5235203856836175,91.30000000000001,0.37026462569670743
1306893665.91,6.5348741,4.1960615,2962.9594124,-0.0,13.5,54.0,-1.0,501.2086671254517,65533.93375513462,65533.93375513462,302.10621364117344,0.07043475730654107,3.4869258913156265,89.2,0.37230437854010207
1306893709.42,6.6401801,4.2472353,9390.8795656,-0.0,14.0,54.0,-1.0,589.82392699929,65525.6345156697,65525.6345156697,302.2038558571515,0.07172741275674059,3.5046859422963053,88.70000000000002,0.38920022280956834
1306893711.54,6.6453928,4.2497116,9702.920258,-0.0,14.0,54.0,-1.0,594.1531581564744,66906.00043768845,66906.00043768845,300.7098315216628,0.07310819559491571,3.5729416407102725,88.8,0.4066854480939077
1306893717.96,6.6612379,4.2572425,10651.640760799999,-0.0,14.1,54.0,-1.0,596.3081393778339,68907.35948313758,68907.35948313758,299.6031196766625,0.0707165123202326,3.5083307741330447,88.4,0.42624395640536883
1306893726.26,6.6816655,4.2669703,11876.2470992,-0.0,14.2,54.0,-1.0,595.0619252162795,71808.06178756845,71808.06178756845,300.9343081457915,0.07388317736925143,3.496766011870672,88.5,0.4485151178226917
1306893733.45,6.6993031,4.2754187,12938.2550072,-0.0,14.2,54.0,-1.0,594.3293256304258,75466.80158295952,75466.80158295952,300.7448473961715,0.07615637405462135,3.594491942803318,87.10000000000001,0.47311869393817724
1306893733.87,6.700338,4.2759171,13000.8534344,-0.0,14.3,54.0,-1.0,597.6679083926671,78784.58287873503,78784.58287873503,301.6402831250702,0.07826877889378936,3.6356225110995655,88.80000000000001,0.49770864363196554
1306893741.34,6.718423,4.2847126,14102.920398799999,-0.0,14.4,54.0,-1.0,589.9266781981335,80412.456105159,80412.456105159,300.74294762926456,0.07897273424702407,3.645084216508855,89.30000000000001,0.5247204218471886
1306893743.91,6.7245592,4.2877481,14481.955844000002,-0.0,14.4,53.8,-1.0,585.6166579185424,80439.14731482959,80439.14731482959,297.8396590141413,0.07762407512879857,3.659011701065408,88.7,0.552326786676585
1306893753.2,6.7461783,4.2987828,15851.739352399998,-0.0,13.8,53.8,-1.0,577.8447427632874,78963.08161363125,78963.08161363125,298.3810082833122,0.08011215146308086,3.690037613954634,88.50000000000001,0.5828352731157801
1306893753.63,6.7471572,4.2992985,15913.812845199998,-0.0,11.7,53.8,-1.0,572.1310664751563,75984.2322885057,75984.2322885057,296.49918991091903,0.07814998918235419,3.706157286377732,90.4,0.6130539301586497
1306893754.06,6.748134,4.2998146,15971.7196712,-0.0,10.6,53.8,-1.0,570.3888817188149,73680.09396362981,73680.09396362981,296.7289449925591,0.0794818235881495,3.6669370315011913,88.80000000000001,0.6284092232470136
1306893754.48,6.7491069,4.3003301,16024.770854,-0.0,9.8,53.8,-1.0,580.0515874641746,71590.53939891743,71590.53939891743,297.3945789158564,0.07998425922536251,3.681298766219726,92.3,0.6431602074989823
1306893754.91,6.7500782,4.3008462,16073.2288608,-0.0,9.2,53.8,-1.0,566.3327100546682,68416.31740883173,68416.31740883173,298.1867414986268,0.08180412980029729,3.6652981378455296,94.90000000000002,0.6558105793275036
1306893755.34,6.7510503,4.3013639,16117.454584000001,-0.0,8.6,53.8,-1.0,566.3150139529599,67050.82155622731,67050.82155622731,296.9676283764863,0.08093322655738996,3.7144900417798006,93.8,0.6657067298086936
1306893755.76,6.7520207,4.3018818,16157.677682399999,-0.0,8.1,53.8,-1.0,577.4655777700557,65520.40214732803,65520.40214732803,296.04060794962544,0.08110469409332582,3.7205364540624055,94.2,0.6732187158104433
1306893756.19,6.7529802,4.302395,16193.865347600002,-0.0,7.6,53.8,-1.0,558.9793518544099,62358.41908469828,62358.41908469828,296.8131261038526,0.08161910749862775,3.652669899226649,91.0,0.6806690767028317
1306893756.61,6.7539355,4.3029068,16226.542514,-0.0,7.1,53.8,-1.0,568.7375455953792,62876.04536116482,62876.04536116482,295.0242946075738,0.08224518975204557,3.677775926301608,91.6,0.685624194813068
1306893757.03,6.7549139,4.3034319,16256.890284000001,-0.0,6.7,53.8,-1.0,581.2975371102444,62371.30944131535,62371.30944131535,297.9371299274171,0.08177243838208278,3.6149829020884767,92.5,0.6897657083738729
1306893757.45,6.7558558,4.3039382,16283.301045999999,-0.0,6.3,53.8,-1.0,561.3293177769417,59293.4376814152,59293.4376814152,299.33386673266654,0.07851501478930108,3.5340241267612886,92.80000000000001,0.6907726856267163
1306893757.87,6.7568252,4.3044598,16307.8417292,-0.0,6.0,53.8,-1.0,576.2348632732712,60612.685814419485,60612.685814419485,299.9158469801627,0.08027889631949656,3.5686337196799043,92.2,0.6916920863266288
1306893758.29,6.7577738,4.304971,16329.4624648,-0.0,5.7,53.8,-1.0,564.7882178724393,59631.58654321213,59631.58654321213,298.6809248205947,0.07901598122327601,3.635195902150072,93.7,0.6925268194849841
1306893758.71,6.7587337,4.3054887,16349.147504800001,-0.0,5.4,53.8,-1.0,570.9501039368788,58107.078736814015,58107.078736814015,299.7358262228627,0.07932242649837846,3.5875934242234724,90.8,0.6932836983126306
1306893759.13,6.7596932,4.3060067,16366.798424,-0.0,5.1,53.8,-1.0,570.6700608837995,59987.14752719316,59987.14752719316,299.81967551053134,0.08084719638412338,3.6625979037400205,89.30000000000001,0.6939686939381774
1306893759.55,6.7606456,4.3065213,16382.5136476,-0.0,4.9,53.8,-1.0,567.0296628675894,60923.93140032619,60923.93140032619,299.4840198850453,0.07844308771114086,3.5389537341896387,89.10000000000001,0.6945871650667863
1306893759.98,6.7616294,4.3070534,16396.9493436,-0.0,4.7,53.8,-1.0,571.5410215244248,60432.57734085052,60432.57734085052,301.93653767636755,0.07862793932411749,3.5469193401472765,89.80000000000001,0.6951454655917206
1306893760.4,6.7625764,4.3075658,16409.3181104,-0.0,4.5,53.8,-1.0,564.0785201182724,61842.414207582966,61842.414207582966,300.57167214906667,0.0748036364890961,3.6336312800826165,93.0,0.6956481886888335
1306893760.83,6.7635617,4.3080993,16420.768242000002,-0.0,4.3,53.8,-1.0,572.4399790441265,62258.833519763204,62258.833519763204,301.81312807801254,0.07447554899904514,3.6913433563850226,92.4,0.6961013820396648
1306893761.25,6.7645285,4.3086231,16430.6763788,-0.0,4.2,53.8,-1.0,574.7891658751396,60977.69849110204,60977.69849110204,299.8213278771091,0.07359080819815202,3.7028429914480183,91.5,0.6965068829145552
1306893761.68,6.7654995,4.3091494,16439.4362216,-0.0,4.0,53.8,-1.0,565.0922236335704,61310.34765363241,61310.34765363241,300.12746078360635,0.0765424895482755,3.6567983465132463,89.8,0.6968711983126306
1306893762.1,6.7664429,4.309661,16446.9493452,-0.0,3.9,53.8,-1.0,562.2537414957368,61076.55439249415,61076.55439249415,301.2796323615499,0.07443122091749377,3.636430360812503,90.1,0.6971957827395773
1306893762.52,6.7674021,4.3101812,16453.675067199998,-0.0,3.8,53.8,-1.0,570.7627033592772,62078.18556819505,62078.18556819505,299.9271044662153,0.07539579990294482,3.6578757472222225,88.0,0.6974856121359027
1306893762.95,6.7683792,4.3107114,16459.646195999998,-0.0,3.7,53.8,-1.0,568.3496293028193,61425.18088050358,61425.18088050358,297.4220419371798,0.07174577855449255,3.7155935264133144,87.70000000000002,0.6977434424071187
1306893763.37,6.7693495,4.311238,16464.7971148,-0.0,3.6,53.8,-1.0,577.1908773847099,62275.87403858188,62275.87403858188,296.4327163247549,0.07119414726495489,3.714101026809586,89.30000000000001,0.6979721060116683
1306893764.64,6.7722234,4.3127984,16476.2800548,-0.0,3.4,53.8,-1.0,566.1730739525099,61649.19621698261,61649.19621698261,296.57244375742886,0.072854690752088,3.8187159798476684,88.30000000000001,0.6981908942881335
1306893874.78,7.022944,4.4483943,16476.2800548,-0.0,3.4,54.1,-1.0,568.3130462214998,59562.45982249319,59562.45982249319,294.8798560959506,0.07114363629185444,3.732398920497991,85.80000000000001,0.6983759992750102
1306894046.29,7.415478,4.6582077,16476.2800548,-0.0,3.4,54.4,-1.0,568.3319046683009,59095.64143323196,59095.64143323196,293.8087329255425,0.07334466834490293,3.6749969369642073,83.20000000000002,0.6985322438069437
1306894102.92,7.5456524,4.7271251,16476.2800548,-0.0,3.4,54.5,-1.0,568.3510072111426,58400.36416988685,58400.36416988685,295.31351593083645,0.07221907913054974,3.6079576255276677,83.00000000000001,0.6986617713659987
1306894159.51,7.6760069,4.7958088,16476.2800548,-0.0,3.4,54.6,-1.0,568.3225300665586,58190.03086050547,58190.03086050547,296.0950738429202,0.07449645754880571,3.619989413983363,82.3,0.698768179939927
1306894306.87,8.0165903,4.9737151,16476.2800548,-0.0,3.3,54.6,-1.0,568.0635089373985,59653.2646135813,59653.2646135813,295.70330862391654,0.07201911559264501,3.625503923060884,84.30000000000001,0.6988541488813094
1306894328.3,8.0645805,4.998604,16476.2800548,-0.0,3.3,54.9,-1.0,550.247924341167,60945.42573395834,60945.42573395834,294.3217853510843,0.07262449526097722,3.6977725695761734,84.2,0.6989225872015193
1306894386.0,8.1940495,5.0655297,16476.2800548,-0.0,3.3,55.0,-1.0,550.5183573182112,60973.54177910939,60973.54177910939,297.22793937106735,0.07052748430117417,3.5619748972794625,84.6,0.6989753321708981
1306894410.62,8.2493571,5.094022,16476.2800548,-0.0,3.1,55.0,-1.0,550.3539251186835,61013.84109147432,61013.84109147432,297.44079631328276,0.07328868444050465,3.548044833345561,85.1,0.6990141445068562
1306894410.83,8.2498381,5.0942695,16482.8089264,-0.0,1.4,55.0,-1.0,560.2781036831518,59799.26573514944,59799.26573514944,297.9055678136618,0.07376397619846072,3.4757334950293224,85.70000000000002,0.6990561720659113
1306894411.04,8.2503034,5.094509,16481.857482800002,-0.0,-1.2,55.0,-1.0,543.4898260272888,56536.499967185504,56536.499967185504,298.6770175114782,0.07476277577884477,3.396449321340627,86.80000000000001,0.6990691860641616
1306894411.67,8.2517371,5.0952465,16467.848296,-0.0,-4.2,55.0,-1.0,556.8178425703513,57032.56135773179,57032.56135773179,300.1831474114864,0.0738487385426739,3.4338887380241814,88.7,0.6990495119609244
1306894411.88,8.2521976,5.0954832,16459.3837288,-0.0,-4.7,55.0,-1.0,538.688799777656,56800.55848985763,56800.55848985763,302.32723875596935,0.07517033288534666,3.4693435720323724,90.2,0.6990100872015194
1306894412.09,8.2526646,5.0957232,16449.0162744,-0.0,-5.0,55.0,-1.0,545.8578620761497,61055.19903993617,61055.19903993617,301.5110074051007,0.07636141015110001,3.505595426656635,91.60000000000002,0.698946471715955
1306894412.3,8.2531406,5.0959675,16436.7131244,-0.0,-5.3,55.0,-1.0,555.5153242638783,66082.96255499344,66082.96255499344,302.7418234221265,0.07623709206375501,3.5220377616449228,92.40000000000002,0.6988541488813095
1306894413.14,8.2550244,5.0969328,16374.016272,-0.0,-6.0,55.0,-1.0,550.7919115676605,67594.30127265453,67594.30127265453,301.8755762380269,0.07641271561250548,3.609590662631102,89.9,0.6986155333957452
1306894413.36,8.2555142,5.0971831,16354.757741200001,-0.0,-6.1,55.0,-1.0,547.7193297972908,66652.3043136186,66652.3043136186,302.45616277739003,0.07536683030895505,3.5627272444415876,89.6,0.6983319813397522
1306894413.78,8.256463,5.0976673,16314.731493199999,-0.0,-6.3,55.0,-1.0,555.2490632865808,63340.31639146575,63340.31639146575,300.0935506350502,0.07617562855428278,3.663547230819271,90.7,0.6979550347080812
1306894414.41,8.2578862,5.0983915,16249.409968799999,-0.0,-6.6,55.0,-1.0,555.3984025512252,56740.75010672144,56740.75010672144,299.84764935683233,0.0760325695773584,3.6708427263697643,93.10000000000002,0.6974256711910207
1306894415.88,8.2612214,5.1000778,16080.0858164,-0.0,-7.0,55.0,-1.0,557.4674846232291,51945.06086096331,51945.06086096331,299.392926101279,0.07278630864512901,3.725160592031309,92.60000000000002,0.6964859839644241
1306894416.51,8.2626507,5.1007957,16003.3797772,-0.0,-7.1,55.0,-1.0,556.887996560655,52794.82325198803,52794.82325198803,297.7011653233677,0.07110084975433612,3.7771577853287526,93.6,0.6953695360204171
1306894417.35,8.2645573,5.101749,15898.852214800001,-0.0,-7.2,55.0,-1.0,556.7083684729157,51654.58220701743,51654.58220701743,295.9773407160658,0.0725541693046649,3.83821023648506,94.80000000000001,0.694041878540102
1306894418.2,8.2665295,5.1027298,15789.1409252,-0.0,-7.3,55.0,-1.0,567.2603928407851,54694.483573810205,54694.483573810205,296.077589120465,0.07079637465797335,3.8021225441375717,94.5,0.6924779787150801
1306894419.04,8.2684493,5.1036797,15681.4637564,-0.0,-7.3,55.0,-1.0,558.611579311762,56384.517921679115,56384.517921679115,295.2839223155349,0.07204402854386383,3.7781738570054406,92.89999999999999,0.6906870228970574
1306894421.35,8.2737793,5.106291,15381.365321599998,-0.0,-7.2,54.9,-1.0,561.9301500322903,56408.20816794729,56408.20816794729,294.7717746936245,0.07253171672241868,3.834946975272675,94.3,0.6882245447693234
1306894423.03,8.2775952,5.1081374,15167.159278,-0.0,-7.1,54.9,-1.0,551.748631037145,56665.938150458285,56665.938150458285,293.3840994836314,0.07372592156225592,3.7834127991944446,97.80000000000001,0.6854085452067689
1306894424.71,8.2813693,5.1099459,14956.52935,-0.0,-7.0,54.9,-1.0,544.4864886991472,57878.31817422327,57878.31817422327,294.5536099015167,0.07613943824091149,3.792264069667793,97.2,0.6821460123983699
1306894427.05,8.2865468,5.1124003,14669.7511256,-0.0,-7.0,54.8,-1.0,535.1541488284415,58756.84784168716,58756.84784168716,296.96735066145726,0.07537438390912356,3.7869319256424467,98.0,0.6783077249967951
1306894429.78,8.2924825,5.1151802,14343.996522000001,-0.0,-6.7,54.8,-1.0,524.6954856557309,59518.523637956554,59518.523637956554,299.52483090995537,0.07466234693318223,3.756510714604575,96.5,0.673861760429866
1306894430.83,8.294737,5.1162276,14221.030638799999,-0.0,-6.7,54.7,-1.0,517.3446855388456,59490.24967982934,59490.24967982934,300.219792236552,0.07618614260913407,3.793919145296199,96.20000000000002,0.6695239651542753
1306894432.73,8.2987931,5.1181012,14000.7878496,-0.0,-6.7,54.7,-1.0,513.8330990654821,59128.03508545997,59128.03508545997,301.8340873277295,0.07774370771358004,3.8026934055960178,96.70000000000002,0.6648512508060688
1306894435.04,8.3036263,5.1203181,13739.797027600001,-0.0,-6.4,54.7,-1.0,503.3544178846173,58036.360327874005,58036.360327874005,303.7951706239822,0.07814649617095781,3.6762555039406495,95.3,0.6598134555304783
1306894436.96,8.3075881,5.122124,13526.8705116,-0.0,-6.3,54.5,-1.0,496.1636525160497,56049.274809509945,56049.274809509945,302.92807331854186,0.07928647627283632,3.642260536912098,93.3,0.6545348247343279
1306894438.23,8.3101852,5.1233031,13387.7300872,-0.0,-6.3,54.5,-1.0,491.45750595884,54317.82298170883,54317.82298170883,303.8570594856359,0.07718865560310034,3.6347413111749716,96.29999999999998,0.64918277967746
1306894438.65,8.3110352,5.1236883,13342.2576448,-0.0,-6.2,54.5,-1.0,486.6128853958756,52358.10450243221,52358.10450243221,301.4336894909916,0.07638940678022262,3.5987881204977423,95.59999999999998,0.6444248619171798
1306894439.7,8.3131642,5.1246515,13228.4781136,-0.0,-6.2,54.4,-1.0,487.1326997436246,50894.56470368151,50894.56470368151,301.616393609219,0.07832657300887116,3.690008340670316,92.3,0.6399012726783347
1306894440.54,8.3148637,5.125419,13137.7628876,-0.0,-6.1,54.4,-1.0,486.03458851356345,49508.32751486518,49508.32751486518,301.10597414234456,0.07851673152740485,3.638101537393444,92.3,0.6356574844018694
1306894440.75,8.3152726,5.1256035,13115.945301599999,-0.0,-6.1,54.4,-1.0,469.2519476733475,48257.404985618545,48257.404985618545,298.7284046876156,0.07898002167259462,3.55301070687388,93.0,0.6320319375952201
1306894442.23,8.3182209,5.1269319,12958.8586824,-0.0,-6.1,54.3,-1.0,478.8406199755862,50272.24081925467,50272.24081925467,297.606850269933,0.07787587808433977,3.4944323949981317,92.1,0.6287999494062437
1306894442.65,8.3190589,5.1273089,12914.2720668,-0.0,-6.0,54.3,-1.0,479.2941504496773,51876.05478046559,51876.05478046559,297.1112764358033,0.07669128659728089,3.450098392434892,92.0,0.6257508461691483
1306894446.65,8.326872,5.1308147,12499.18019,-0.0,-5.8,54.1,-1.0,469.8163506147719,53268.87252496692,53268.87252496692,297.29822317993927,0.07753683803697427,3.40282998888316,92.29999999999998,0.6222470950755351
1306894448.76,8.3309124,5.1326228,12284.9085296,-0.0,-5.7,54.0,-1.0,461.0696895081649,54947.193112125366,54947.193112125366,294.64306153920194,0.07662856583611312,3.4525947168464763,93.39999999999999,0.6188523553555
1306894449.39,8.3321128,5.1331596,12221.2602336,-0.0,-5.7,54.0,-1.0,458.8867420853763,53602.54572010515,53602.54572010515,294.5398466146784,0.07589216826472828,3.454997967931441,96.9,0.6158059314709855
1306894451.3,8.3357068,5.1347658,12030.7746632,-0.0,-5.7,54.0,-1.0,453.71948202637174,49545.65531585739,49545.65531585739,292.52689272329985,0.07771444833781425,3.5346166228581177,93.60000000000002,0.6126397022496384
1306894455.36,8.3432212,5.1381228,11632.4150704,-0.0,-5.4,54.0,-1.0,446.9185412914262,46250.16057007141,46250.16057007141,293.41888647967727,0.07871518965332051,3.4881652845802016,93.70000000000002,0.6086500697037066
1306894456.66,8.345591,5.1391818,11506.693281599999,-0.0,-5.4,53.6,-1.0,440.92859805870324,42812.982001954624,42812.982001954624,294.47699509806074,0.07484446799721212,3.4436056519578484,93.5,0.6046325718909331
1306894458.37,8.3486769,5.1405613,11342.8809404,-0.0,-5.4,53.5,-1.0,436.9486714925159,39319.01689736784,39319.01689736784,295.3877235467513,0.07334308173344845,3.4005651637301284,95.10000000000002,0.600444514148151
1306894458.59,8.3490774,5.1407404,11321.621097199999,-0.0,-5.4,53.5,-1.0,440.08740980845704,38797.633363482986,38797.633363482986,296.509276336619,0.07573655593466601,3.4205212807919385,92.3,0.5962577578051939
1306894463.02,8.3569287,5.1442561,10904.035782,-0.0,-5.1,53.5,-1.0,430.1651313572631,37269.02935766701,37269.02935766701,295.177111629633,0.07849187532089698,3.5204374308683137,94.7,0.5914631711910207
1306894463.65,8.3580244,5.1447476,10845.63683,-0.0,-5.1,53.2,-1.0,423.1462749070003,35705.909059812,35705.909059812,294.78124340764043,0.08155122828323663,3.5396201581934674,92.0,0.5866363557929454
1306894465.12,8.3605841,5.1458966,10709.121077599999,-0.0,-5.1,53.1,-1.0,423.6883197140128,34473.24717781369,34473.24717781369,295.2098550885974,0.0791978540253353,3.496122705108004,88.4,0.5824595513310031
1306894465.33,8.3609491,5.1460606,10689.632888,-0.0,-5.1,53.1,-1.0,423.0310750185724,33199.73220671708,33199.73220671708,297.40194965298986,0.0795746070805741,3.4528613510996173,85.2,0.5787372416197171
1306894465.75,8.3616727,5.1463858,10651.017401199999,-0.0,-5.0,53.1,-1.0,419.81484771584377,32699.888379796834,32699.888379796834,297.36091501504956,0.08072948440863151,3.4397862090167766,82.0,0.5750733417946952
1306894469.75,8.3684945,5.1494577,10285.9583344,-0.0,-5.0,53.1,-1.0,416.30098599973013,33077.78287368141,33077.78287368141,300.05539619251124,0.08111378040556802,3.422403661068604,81.8,0.5710021038244415
1306894469.96,8.3688558,5.1496208,10266.56857,-0.0,-5.0,52.8,-1.0,420.0026780808122,33150.33235775077,33150.33235775077,300.1132598322066,0.07909279050196143,3.4682253028063976,79.7,0.5678151287588247
1306894471.43,8.371326,5.1507367,10133.9570172,-0.0,-5.0,52.7,-1.0,411.2219776598388,32482.830281365423,32482.830281365423,300.0885392182997,0.07980845868346886,3.516705792102458,82.89999999999999,0.5646120775777222
1306894472.9,8.3737855,5.15185,10001.64074,-0.0,-5.0,52.6,-1.0,409.89382383221226,32032.124588303337,32032.124588303337,297.64023621413315,0.08127945878606341,3.652015598495076,80.6,0.5614825172102682
1306894474.16,8.3758858,5.1528033,9888.3205264,-0.0,-5.0,52.5,-1.0,408.8756948879716,30735.605160889467,30735.605160889467,297.07239145581593,0.07897552010238806,3.657348373949387,81.59999999999998,0.5581381493187546
1306894475.43,8.3780066,5.1537698,9773.458317999999,-0.0,-5.1,52.5,-1.0,409.990693796684,29281.24713811879,29281.24713811879,299.2840530708751,0.07753675917484142,3.5388584933326768,79.60000000000001,0.5555001353205045
1306894475.64,8.3783626,5.1539325,9754.1341704,-0.0,-5.1,52.4,-1.0,416.02903448529185,28800.673648470638,28800.673648470638,300.17487071366895,0.07461638696907608,3.5298660248821454,82.70000000000002,0.5529532958629366
1306894476.06,8.379073,5.1542576,9715.4858752,-0.0,-5.2,52.4,-1.0,415.39777310421306,27769.96320801544,27769.96320801544,300.2927803511056,0.0769156827981898,3.608026033404626,84.7,0.5506348137981948
1306894476.69,8.3801353,5.1547448,9657.5790492,-0.0,-5.3,52.4,-1.0,414.33549459112373,26833.856667599553,26833.856667599553,299.6216770465129,0.07768864918306193,3.7149924943764656,85.7,0.5482266882513881
1306894478.16,8.3826367,5.1558967,9520.702404399999,-0.0,-5.3,52.4,-1.0,418.2558262597771,26320.326297154475,26320.326297154475,300.90255523629486,0.0748442223055907,3.817448525654707,87.2,0.5455892866765849
1306894479.45,8.3848341,5.1569141,9399.8362588,-0.0,-5.3,52.4,-1.0,419.40392202933816,25902.332332823342,25902.332332823342,300.1844689633182,0.07205774748739173,3.842587088155734,89.30000000000001,0.5435216685663488
1306894480.08,8.3859155,5.1574166,9340.1249708,-0.0,-5.7,52.4,-1.0,422.6864517962927,26024.256041379045,26024.256041379045,300.9834954437256,0.07149281623835868,3.8405116666591703,92.50000000000001,0.5413599669040565
1306894480.71,8.3870052,5.1579241,9279.8231316,-0.0,-5.7,52.4,-1.0,425.8137586511063,27199.695560072672,27199.695560072672,302.3878053413966,0.07269617365246822,3.7643571504346642,90.10000000000001,0.5393669879014318
1306894481.97,8.3891881,5.1589446,9158.5960936,-0.0,-5.7,52.4,-1.0,427.04821709750007,28180.5920214032,28180.5920214032,302.3795223083115,0.06988167223915086,3.740189164453886,91.4,0.5373998837894459
1306894483.24,8.3913904,5.159978,9035.8270608,-0.0,-5.7,52.4,-1.0,427.9153099055943,29242.801024435183,29242.801024435183,301.9876867817266,0.07230559114630722,3.824498784039174,93.10000000000001,0.5354107324333655
1306894483.87,8.3924723,5.1604865,8975.426796400001,-0.0,-5.8,52.4,-1.0,424.36278804527973,30396.975733754254,30396.975733754254,299.5668948706463,0.07205948308402825,3.9055023295826854,92.3,0.5335486589425518
1306894484.31,8.3932272,5.1608417,8933.235193999999,-0.0,-5.8,52.4,-1.0,424.1618088406885,30915.794645516027,30915.794645516027,300.56709384121706,0.07335728546687034,3.8278909244327135,90.69999999999999,0.5316332280589122
1306894484.73,8.3939459,5.16118,8893.044904,-0.0,-5.8,51.7,-1.0,423.0879078944826,31789.62587214933,31789.62587214933,299.16799672110284,0.07021995639327079,3.7891015831031805,89.49999999999999,0.529714199187521
1306894486.62,8.3971665,5.1626991,8712.5658956,-0.0,-5.8,51.7,-1.0,421.9695931082862,32865.60497502807,32865.60497502807,297.8701042251978,0.06905125808687143,3.773422581159583,88.5,0.5275091685663487
1306894487.04,8.3978903,5.1630411,8671.9490964,-0.0,-5.7,51.5,-1.0,426.25066724620046,33757.430956714816,33757.430956714816,297.5761518006076,0.0695648686527588,3.7714147941060188,89.1,0.525528744244389
1306894487.81,8.3991778,5.1636502,8599.573766,-0.0,-5.7,51.5,-1.0,415.26037422643464,33967.18504134657,33967.18504134657,298.512466327779,0.07015261991612257,3.68650995862685,87.39999999999999,0.5236614651542753
1306894488.02,8.399534,5.1638188,8579.560642,-0.0,-5.7,51.4,-1.0,420.97504285956967,34154.86648588765,34154.86648588765,298.5606329255654,0.07092634962715905,3.662716162959249,83.9,0.5218868151105307
1306894490.12,8.4030306,5.1654778,8382.447774799999,-0.0,-5.7,51.4,-1.0,414.04595839244405,33018.67280469415,33018.67280469415,297.40819885785197,0.07274903435725112,3.632446904095268,86.5,0.5197929393450014
1306894490.33,8.4033788,5.1656434,8362.7955432,-0.0,-5.7,51.2,-1.0,412.8614413304769,31810.675922392496,31810.675922392496,299.1531639762545,0.07367680434394921,3.560387098766965,83.9,0.5179360714534879
1306894490.54,8.4037315,5.1658111,8342.848036,-0.0,-5.6,51.2,-1.0,417.6192617786098,31058.957977526105,31058.957977526105,299.87355191725453,0.07209389789075366,3.528957593633398,82.30000000000001,0.5163191204473635
1306894491.17,8.4047722,5.1663066,8283.9897664,-0.0,-5.6,51.2,-1.0,411.6878439500068,29550.581086306265,29550.581086306265,299.7533973197008,0.07039830538343526,3.5160280623027873,82.2,0.5147057674289909
1306894492.23,8.4065132,5.1671368,8185.367716000001,-0.0,-5.6,51.2,-1.0,409.74199294580126,28883.971622993045,28883.971622993045,299.4938993803657,0.06957748140385918,3.6053600177367677,84.4,0.5129607433694983
1306894493.49,8.4085728,5.1681214,8068.40577,-0.0,-5.6,50.9,-1.0,408.3134428056779,29234.220829634454,29234.220829634454,298.83519703120896,0.07307838098221767,3.6325466250239145,84.4,0.511036585451738
1306894494.12,8.4096062,5.1686164,8009.5803088,-0.0,-5.6,50.9,-1.0,409.70802304853356,29360.55264171415,29360.55264171415,299.89356597731853,0.07336517974502571,3.5972512550590827,85.0,0.5093962858016944
1306894494.54,8.4102769,5.168938,7971.3913311999995,-0.0,-5.6,50.8,-1.0,400.5501907775816,29715.88643599474,29715.88643599474,299.0358880576277,0.07588315243496135,3.524120485009198,83.2,0.507761651068536
1306894495.19,8.4113349,5.169446,7911.0238752000005,-0.0,-5.6,50.8,-1.0,407.3771514101557,31708.124151734915,31708.124151734915,297.0369670842904,0.07885223406377934,3.6226774296226947,85.7,0.5061550347080811
1306894496.46,8.4133694,5.1704249,7794.7180972,-0.0,-5.6,50.6,-1.0,401.8877966914701,31982.858026360707,31982.858026360707,297.1585167751577,0.07944484210079451,3.6997903241653125,85.7,0.5043237354954825
1306894497.09,8.4143846,5.1709145,7736.5816124,-0.0,-5.6,50.6,-1.0,404.2542488203096,32406.724878248446,32406.724878248446,296.73741212500244,0.07808183148370842,3.7156553037460167,82.3,0.5028167144981073
1306894497.3,8.41471,5.1710716,7717.9136328,-0.0,-5.6,50.5,-1.0,390.6149066049425,32928.424965457154,32928.424965457154,295.7723829624831,0.07827586925686739,3.7141825459646047,84.4,0.5013119900886585
1306894498.99,8.4173925,5.1723695,7563.7141528,-0.0,-5.6,50.5,-1.0,399.3924250196283,34148.85869352723,34148.85869352723,297.2419641637497,0.07703512193740357,3.706556424632973,82.50000000000001,0.4994940110860337
1306894499.86,8.4187595,5.1730331,7484.875567599999,-0.0,-5.6,50.5,-1.0,396.14118944139017,35171.54135561214,35171.54135561214,297.4788358466408,0.07690149098311168,3.66271281247447,85.40000000000002,0.49762941134850097
1306894500.07,8.4191022,5.1731997,7465.0921024,-0.0,-5.6,50.2,-1.0,410.2782205632594,36583.15213831543,36583.15213831543,296.82117168338766,0.07784582130240417,3.6509614138210664,82.60000000000001,0.4959487683038815
1306894500.7,8.4200827,5.1736769,7408.3991872,-0.0,-5.4,50.2,-1.0,393.20081983181166,35709.28732904638,35709.28732904638,297.1328271883196,0.07744829147947069,3.6267036151209915,85.00000000000001,0.49440875299329534
1306894501.12,8.420743,5.1739987,7370.1774012,-0.0,-5.4,50.1,-1.0,396.7943544700132,33676.7184032118,33676.7184032118,297.37541043919026,0.07867871074070092,3.6159795323156363,87.0,0.4929168129233041
1306894503.67,8.4247026,5.1759365,7139.960858400001,-0.0,-5.4,49.8,-1.0,393.17213918076516,30138.53415615205,30138.53415615205,295.7693153693146,0.07633779032014817,3.6032413635250005,89.50000000000001,0.4909768085488509
1306894504.51,8.4259881,5.1765688,7064.8624308,-0.0,-5.4,49.7,-1.0,388.7613593570753,26403.91544015991,26403.91544015991,297.64284346975114,0.07417056635192008,3.6073553426174274,89.7,0.489002431908431
1306894504.94,8.4266557,5.1768978,7025.7876264,-0.0,-5.4,49.7,-1.0,393.91579934554795,25131.915207177644,25131.915207177644,295.9575172664797,0.07206426462458135,3.5420757216744705,92.0,0.48720826086731106
1306894505.15,8.4269713,5.1770535,7007.2836888,-0.0,-5.4,49.6,-1.0,382.74195132800895,24739.644016761504,24739.644016761504,295.87772698062713,0.07111084071517287,3.4995019138718106,95.2,0.48550656576669865
1306894505.57,8.4276154,5.1773715,6969.5212204,-0.0,-5.4,49.6,-1.0,390.18737433694247,27537.19063663257,27537.19063663257,295.90966787068544,0.07097425851379598,3.5708977047492145,92.8,0.48376031686031196
1306894505.78,8.4279392,5.1775315,6950.492348400001,-0.3,-5.4,49.6,-1.0,391.913825503833,29805.390498939723,29805.390498939723,294.4539590005987,0.07104314958725556,3.5386972881936414,93.2,0.4823294660291658
1306894507.27,8.4302041,5.178654,6817.1590108,-0.3,-5.4,49.6,-1.0,387.41335050389415,31748.30852905347,31748.30852905347,295.87442447269547,0.07484343154051323,3.596554449552771,91.2,0.48077146077982197
1306894508.96,8.4327608,5.1799278,6665.8794784,-0.3,-5.4,49.1,-1.0,386.50794909526496,31755.806175259593,31755.806175259593,296.9713739902957,0.07420802290922969,3.60249101887319,92.80000000000001,0.47890663138349654
1306894510.43,8.4349549,5.181027,6535.3020464,-0.3,-5.4,48.9,-1.0,329.92273827546234,31370.612585328814,31370.612585328814,298.37895774739434,0.07243943606249811,3.6877161172397517,92.10000000000001,0.47686940478682105
1306894510.85,8.4355916,5.1813471,6497.3099192,-0.3,-5.4,48.9,-1.0,335.603447184142,29134.118745254033,29134.118745254033,298.1948870305335,0.07156677717207197,3.6796484307937987,91.40000000000002,0.47483271406066196
1306894511.27,8.4362075,5.1816572,6460.466086,-0.3,-5.4,48.8,-1.0,324.739976774051,26934.756155403666,26934.756155403666,299.64552579178064,0.07209953165504239,3.7897195108143116,88.2,0.47324722630913085
1306894512.53,8.4380718,5.1825989,6348.6550588,-0.3,-5.4,48.6,-1.0,327.8948733700832,25250.768961327074,25250.768961327074,299.0917400561434,0.0714374642316344,3.7594138707844547,87.10000000000001,0.4715760758279411
1306894512.95,8.4387006,5.1829175,6310.7941652,-0.3,-5.4,48.6,-1.0,332.20168843034315,22607.53042635307,22607.53042635307,300.81838900128787,0.07113772523969016,3.807127971807729,88.7,0.46990775780519384
1306894513.16,8.4389998,5.1830693,6292.7823536,-0.3,-5.4,48.5,-1.0,315.88275197338726,21511.745807113515,21511.745807113515,300.4922026001042,0.0702422825418763,3.9343965416651514,87.10000000000001,0.4682405880764099
1306894513.79,8.4399308,5.1835426,6236.5815644,-0.3,-5.4,48.4,-1.0,328.08625868580316,22736.48779949601,22736.48779949601,301.15756896003023,0.07142665319328292,3.894438713505123,89.80000000000001,0.46653039560046944
1306894514.21,8.4405455,5.1838557,6199.4096472,-0.3,-5.4,48.4,-1.0,325.07105502046477,23283.11327358171,23283.11327358171,302.6422391817848,0.07415476858320788,3.9020910990230795,91.5,0.4647778693537502
1306894515.05,8.4417859,5.1844892,6124.179986,-0.3,-5.4,48.2,-1.0,328.33219131513977,23870.286912953256,23870.286912953256,302.2483673709466,0.07412972940795672,3.855502321133318,94.00000000000001,0.46316091834762607
1306894515.47,8.4423896,5.1847983,6087.4673864,-0.3,-5.4,48.2,-1.0,319.79201606131556,25060.712965928476,25060.712965928476,300.3553327709893,0.07282441435419992,3.855174284046869,93.80000000000001,0.4618112901761475
1306894516.1,8.4433031,5.1852673,6031.7915316,-0.3,-5.4,48.2,-1.0,322.9754646924827,25046.917018473392,25046.917018473392,299.531153300112,0.07216499403164699,3.803199309437266,94.30000000000001,0.4606364323458763
1306894516.31,8.4436108,5.1854255,6012.9923184,-0.3,-5.4,48.0,-1.0,326.236044611037,23009.6473298948,23009.6473298948,299.81481048635055,0.07240772291841915,3.7542867783524976,93.7,0.45950635798017203
1306894516.73,8.4442225,5.1857405,5975.5907424,-0.3,-5.4,48.0,-1.0,324.7528955944245,21631.593182271357,21631.593182271357,298.7580256747258,0.07073388110064575,3.6719886144579594,94.60000000000001,0.4583749822146427
1306894517.57,8.4454362,5.1863675,5901.1484828,-0.3,-5.4,47.8,-1.0,322.3233075797866,20177.359759199,20177.359759199,297.4761213531172,0.07074626385213431,3.620949823587966,93.80000000000001,0.4573308002373899
1306894518.42,8.4466534,5.186999,5826.2140972,-0.3,-5.4,47.8,-1.0,319.88407461149336,18126.60744578603,18126.60744578603,296.2964530006468,0.07126625715545905,3.5702607970291975,92.10000000000001,0.4562001134482385
1306894518.84,8.4472543,5.1873118,5789.0749884,-0.3,-5.4,47.6,-1.0,319.95329513506056,17808.125076976783,17808.125076976783,297.94599960065756,0.07386938426704946,3.5240758853702085,91.5,0.45502479630038195
1306894519.27,8.447874,5.187635,5750.7219688,-0.3,-5.4,47.5,-1.0,322.2748434777912,17485.272174314854,17485.272174314854,297.39243890798633,0.07455607606881902,3.5271019294781514,90.3,0.45389112394692616
1306894519.9,8.4487673,5.1881024,5695.2429644,-0.3,-5.4,47.4,-1.0,317.6220074156631,17513.381771609707,17513.381771609707,295.99560816931603,0.07496413181458422,3.5746813064780816,91.1,0.4527147350580373
1306894520.53,8.4496677,5.1885751,5639.6327264,-0.3,-3.3,47.3,-1.0,320.36206465137343,17452.146760537045,17452.146760537045,296.5286088377806,0.07384324628396688,3.6100883624740767,87.3,0.45158412482181676
1306894520.95,8.4502707,5.1888928,5603.838761999999,-0.3,-3.0,47.2,-1.0,321.9299700594631,17653.575091215753,17653.575091215753,296.81269312877873,0.07558220574794913,3.637332665480499,85.0,0.4504556580676611
1306894521.16,8.4505611,5.1890461,5587.0736696,-0.3,-3.0,47.2,-1.0,309.50650342058054,17532.9471290153,17532.9471290153,295.46621123738873,0.07812404074368216,3.6201620319456334,83.20000000000002,0.4494179830895333
1306894521.37,8.4508568,5.1892023,5570.2429604,-0.3,-3.1,47.2,-1.0,315.0746491977871,18638.157392701556,18638.157392701556,296.3383092857103,0.07913410618618712,3.650885096775707,82.4,0.44838490128725866
1306894521.79,8.4514499,5.1895164,5537.1064764,-0.3,-3.1,47.2,-1.0,316.37206796327285,19046.624314508077,19046.624314508077,296.10272059592535,0.07960026917787807,3.649407963832885,83.00000000000001,0.44736177136599875
1306894522.21,8.4520484,5.1898341,5504.2980764,-0.3,-3.1,47.2,-1.0,319.1785005070445,19366.758009925717,19366.758009925717,297.1519867857607,0.080186304887697,3.664348174072193,83.1,0.4464357871140303
1306894523.06,8.4532372,5.1904676,5440.3545048,-0.3,-2.9,46.8,-1.0,313.46301213488687,19819.956748136447,19819.956748136447,297.569230812896,0.08176799151552978,3.7013079982205705,83.30000000000001,0.4455354480939077
1306894523.48,8.4538204,5.1907797,5409.5474171999995,-0.3,-2.7,46.8,-1.0,311.6032575447439,19037.997731165677,19037.997731165677,296.113766803838,0.08113738278037498,3.716738281922554,84.80000000000001,0.4446498837894458
1306894523.69,8.4541155,5.1909379,5394.061852399999,-0.3,-2.7,46.7,-1.0,315.42436249993386,17473.171296306486,17473.171296306486,296.000388744379,0.08180662585659325,3.6582886596250805,86.50000000000001,0.44381767687780976
1306894524.54,8.4552922,5.191571,5333.235078799999,-0.3,-2.3,46.5,-1.0,310.76749416303727,16479.86207112744,16479.86207112744,295.57013291288786,0.08105299674284075,3.6117225907748196,86.1,0.44297299183843974
1306894524.96,8.4558727,5.1918847,5303.7403272,-0.3,-2.2,46.5,-1.0,310.5336832205965,15773.178773083126,15773.178773083126,296.0874284194536,0.07870711516424782,3.5312640330963556,86.9,0.442189242932053
1306894525.17,8.4561642,5.1920425,5289.0421639999995,-0.3,-2.1,46.4,-1.0,312.3912271390748,14951.893048766311,14951.893048766311,296.0024340561124,0.0770022041209176,3.4913731883659174,87.9,0.4414547175602245
1306894525.38,8.4564456,5.1921951,5274.934552,-0.3,-2.0,46.4,-1.0,300.82881437855724,15118.291242917725,15118.291242917725,298.15077385543464,0.07595164490390002,3.4880423698482312,90.20000000000002,0.4407263929757976
1306894525.8,8.4570273,5.1925113,5246.0303516,-0.3,-1.9,46.4,-1.0,311.6838970517846,16296.945473026017,16296.945473026017,297.763817971872,0.07532618886768326,3.5164896581767238,90.40000000000002,0.43996989691280547
1306894526.22,8.4575918,5.1928191,5218.2744452,-0.3,-1.7,46.4,-1.0,302.50092330079667,17031.295683366727,17031.295683366727,298.78749578105607,0.07654781381275125,3.526239155668914,90.60000000000001,0.4392259555304782
1306894527.07,8.4587508,5.1934539,5162.3033148,-0.3,-1.4,46.0,-1.0,307.3237760751909,18002.75726138456,18002.75726138456,297.76872910157385,0.07859092618316757,3.5039762134853336,92.9,0.4384279677789471
1306894527.49,8.4593125,5.193763,5135.6300856,-0.3,-1.4,45.9,-1.0,301.4403592982557,19230.2258985224,19230.2258985224,297.45687986549564,0.07717984169947342,3.4191447651180926,90.50000000000001,0.43771694415689993
1306894527.91,8.4598759,5.1940741,5109.1537068,-0.3,-1.1,45.8,-1.0,302.8758689097397,19725.918189530184,19725.918189530184,298.12998332305756,0.07800518742760944,3.3726056927804304,88.7,0.43701602552172936
1306894528.54,8.4607205,5.1945424,5070.046093999999,-0.3,-0.9,45.8,-1.0,302.85471316708555,18902.19605317143,18902.19605317143,297.0402403950375,0.07728318286060012,3.3643303037827414,88.50000000000001,0.43625998877632244
1306894528.97,8.461291,5.1948601,5044.0290328,-0.3,-0.7,45.8,-1.0,300.05163881433936,18362.17627331616,18362.17627331616,296.21579563177755,0.07584461931213399,3.3464652443743392,86.8,0.43558517469058317
1306894529.18,8.4615621,5.1950114,5031.758691200001,-0.3,-0.6,45.5,-1.0,292.1771387833763,17583.719189200667,17583.719189200667,296.6854388922776,0.07869493152656833,3.3838351825292334,88.6,0.4349505508935577
1306894529.39,8.4618418,5.1951678,5019.1602656,-0.3,-0.6,45.5,-1.0,301.35084952141955,17264.740895784016,17264.740895784016,297.1943406447243,0.07875061539356076,3.3780971737975034,87.69999999999999,0.43432082648410897
1306894529.81,8.4623939,5.1954774,4994.5211572,-0.3,-0.4,45.5,-1.0,297.82301687930095,16982.423848529932,16982.423848529932,296.649606696327,0.07666461349481972,3.348459542042219,86.8,0.4336665285838465
1306894530.24,8.4629564,5.1957939,4969.7180068,-0.3,-0.2,45.5,-1.0,296.6318671809852,16323.057952080499,16323.057952080499,294.232164876498,0.07684682431694452,3.346331167983079,88.60000000000001,0.43302179979994454
1306894531.09,8.4640602,5.1964185,4921.8505512,-0.3,0.1,45.5,-1.0,294.91409973376005,16116.69224395278,16116.69224395278,292.8817080538513,0.0753679199497084,3.3033260880094146,90.2,0.4323301440694108
1306894531.52,8.4646118,5.1967324,4898.3597368,-0.3,0.2,45.5,-1.0,291.52602410998264,14748.404252574584,14748.404252574584,291.99231171456216,0.07281654828182167,3.2906152835298004,89.4,0.4317142757404519
1306894531.94,8.4651528,5.1970414,4875.5578988,-0.3,0.4,45.5,-1.0,293.2818939655553,14145.618046076183,14145.618046076183,291.98046882630933,0.07349931039655705,3.4225056612777616,93.0,0.43110744065733725
1306894532.15,8.4654209,5.197195,4864.337426,-0.3,0.5,44.8,-1.0,290.8691349070071,14239.00943086737,14239.00943086737,291.8674717261591,0.07155194403064206,3.4714392150826825,92.99999999999999,0.4305362026870836
1306894532.36,8.4656884,5.1973485,4853.2481867999995,-0.3,0.5,44.8,-1.0,290.0527582085384,14342.612726989377,14342.612726989377,293.44755327904306,0.07253048404492043,3.5158166475342534,91.19999999999999,0.4300303409198045
1306894532.78,8.4662224,5.1976559,4831.2337504,-0.3,0.7,44.8,-1.0,289.9628126200105,14584.096903784415,14584.096903784415,293.2642537089786,0.07491886502512385,3.6030331137845915,93.60000000000001,0.42953381861009327
1306894533.2,8.4667497,5.1979606,4809.7442484,-0.3,0.9,44.8,-1.0,286.65475744572524,15507.014289562218,15507.014289562218,290.45815555330427,0.07353656669981498,3.59188517367082,93.60000000000001,0.4290157849268037
1306894533.62,8.4672779,5.1982671,4788.4844052,-0.3,1.0,44.8,-1.0,287.2451942790505,15406.322119816828,15406.322119816828,291.55389261651897,0.0752996032140751,3.6412969384380105,95.90000000000002,0.42847754126976084
1306894533.83,8.467539,5.198419,4778.051334,-0.3,1.1,44.4,-1.0,284.6336077938768,15306.269209852644,15306.269209852644,290.59476492023214,0.07571871410290103,3.7041434380571845,95.50000000000001,0.4279724450317906
1306894534.25,8.4680602,5.1987233,4757.382042,-0.3,1.1,44.3,-1.0,283.9981353845586,15187.476507032845,15187.476507032845,291.8627448779625,0.07293004138505811,3.6661751973829846,93.20000000000002,0.42747699446311166
1306894535.09,8.4691023,5.1993353,4716.7652428,-0.3,1.6,44.3,-1.0,284.55559849078605,15053.454946973336,15053.454946973336,294.76469318933584,0.07488582654003025,3.6758322662849894,90.40000000000002,0.42699846209215797
1306894535.51,8.4696168,5.1996394,4697.0473944000005,-0.6,1.7,44.3,-1.0,281.3764160204876,14900.560147218144,14900.560147218144,294.8146971539716,0.0762421074350173,3.6979235769886043,88.10000000000001,0.42652873330825597
1306894535.93,8.4701222,5.1999394,4677.9200972,-0.6,1.9,44.3,-1.0,276.7006789870278,14669.548711675629,14669.548711675629,295.1004379277234,0.07745107725686343,3.697709623174548,88.1,0.4260675784526129
1306894536.15,8.4703846,5.2000957,4668.0447687999995,-0.6,2.0,43.8,-1.0,274.63714112939215,14713.554915774426,14713.554915774426,294.56352386694493,0.07811092045855368,3.7118065176754595,90.20000000000002,0.42560956226713614
1306894536.36,8.470639,5.2002475,4658.5303328,-0.6,2.0,43.7,-1.0,278.7972052059165,14721.123876572574,14721.123876572574,295.7524153228222,0.07790598633081097,3.688301561676992,90.8,0.4251552206223417
1306894536.78,8.4711452,5.2005506,4639.763928,-0.6,2.2,43.6,-1.0,277.99584632219353,14225.625305145135,14225.625305145135,297.3517900688204,0.07690408448163426,3.592538849567943,88.1,0.42470845771770477
1306894537.2,8.4716471,5.2008524,4621.3584156,-0.6,2.4,43.5,-1.0,275.73597546008904,13792.683193785308,13792.683193785308,299.09237678024726,0.07903649206384916,3.617369733722257,88.5,0.42426889078857094
1306894537.62,8.4721446,5.201153,4603.3137956,-0.6,2.5,43.4,-1.0,274.0571106558853,13027.251784805914,13027.251784805914,299.2888191523725,0.07777559817569496,3.4981394422654564,87.39999999999999,0.4238368260466637
1306894537.83,8.4723921,5.201303,4594.3899108,-0.6,2.6,43.3,-1.0,272.7621490147425,12202.272686813381,12202.272686813381,299.680441398403,0.08029310777744002,3.495367378941663,87.99999999999999,0.4234082827395771
1306894538.25,8.4728859,5.2016033,4576.7717999999995,-0.6,2.6,43.2,-1.0,272.2582347042012,11846.810644928953,11846.810644928953,299.56390781107297,0.08033518887377557,3.554112139925811,89.20000000000002,0.4229868588550626
1306894539.09,8.4738566,5.2021977,4542.651064,-0.6,2.2,43.2,-1.0,268.1907616529691,11943.87704342266,11943.87704342266,299.1489564238137,0.07948674355828084,3.555931330628549,91.70000000000002,0.42258059245086316
1306894539.51,8.4743429,5.2024975,4525.1313784,-0.6,-0.2,43.2,-1.0,269.6091692257652,12148.700575612424,12148.700575612424,301.91551236803537,0.07933018272842159,3.590600698704613,93.80000000000001,0.4221794550930328
1306894539.93,8.4748237,5.2027955,4506.430590399999,-0.6,0.3,42.7,-1.0,267.1453375063557,12305.865245381137,12305.865245381137,301.3732394170467,0.07815648053270795,3.5344172158770024,90.30000000000001,0.42177931292330406
1306894540.14,8.4750612,5.2029432,4496.7521123999995,-0.6,0.9,42.7,-1.0,264.11334252823366,12575.929573640437,12575.929573640437,300.63157922725276,0.07925471722025149,3.547545226444512,88.8,0.42137963007116064
1306894540.35,8.4752969,5.2030902,4487.040826,-0.6,1.3,42.6,-1.0,262.864531709278,12531.115799353747,12531.115799353747,298.3485897582972,0.07895425044613286,3.5255459290917774,90.7,0.4209794879014318
1306894540.77,8.4757793,5.2033925,4466.9948936,-0.7,2.2,42.6,-1.0,269.4584949492203,12525.652224006266,12525.652224006266,299.25379775186383,0.07952244205772092,3.5433695755776724,92.4,0.4205763601673986
1306894541.4,8.4764788,5.2038338,4438.320352,-0.7,2.9,42.6,-1.0,260.7964763728573,12288.194668627712,12288.194668627712,297.8376353328992,0.07805290845056764,3.605529426505825,89.39999999999999,0.4201492713659987
1306894541.82,8.4769433,5.2041289,4419.750797600001,-0.7,3.2,42.1,-1.0,260.2898676638574,12367.079902124826,12367.079902124826,295.81184778604205,0.0789716266106109,3.664074245532946,91.0,0.4197209577177048
1306894542.24,8.4774049,5.2044239,4401.738986,-0.7,3.4,42.0,-1.0,259.31825052865116,12112.550565735364,12112.550565735364,295.538453406585,0.07705801818516514,3.7167370581352643,88.0,0.419271438907556
1306894543.08,8.4783228,5.2050162,4367.1917408,-0.7,3.8,41.7,-1.0,258.57439764796237,11457.581352687701,11457.581352687701,295.1196742696906,0.07972371250477689,3.6818828122877916,90.00000000000001,0.4187824187850714
1306894543.5,8.4787796,5.2053138,4350.590690399999,-0.7,4.0,41.6,-1.0,258.3021656907551,11136.984424314356,11136.984424314356,295.1987946175595,0.07980723227505827,3.7735210526625713,88.6,0.4183342779276785
1306894543.92,8.4792347,5.2056124,4334.5145744,-0.7,4.2,41.6,-1.0,257.8019770271072,10795.894568786383,10795.894568786383,293.241550582175,0.08133844893022722,3.7531396015198584,88.30000000000001,0.41788950539924463
1306894544.13,8.4794616,5.2057619,4326.6733668,-0.7,4.3,41.4,-1.0,257.40267697496466,10319.478137488226,10319.478137488226,293.9274951532632,0.08289306340442786,3.7682734415664956,89.99999999999999,0.41747007189093316
1306894544.34,8.4796881,5.2059117,4318.9305844,-0.7,4.4,41.3,-1.0,257.6720781686043,10190.616897506292,10190.616897506292,294.7956320634819,0.08299534980408149,3.693001233382472,89.2,0.41705515500554385
1306894544.76,8.4801397,5.2062119,4303.8387204,-0.7,4.6,41.2,-1.0,257.0161571417598,10111.164522211486,10111.164522211486,295.62695370954236,0.0816615852431641,3.775073566532842,87.9,0.4166276834394895
1306894545.6,8.4810388,5.2068156,4275.0657536,-0.7,5.0,40.9,-1.0,256.940793472272,9719.91375493779,9719.91375493779,293.2030687062101,0.0805491519542382,3.7259917069805626,87.2,0.4161798487938203
1306894546.02,8.4814862,5.2071191,4261.4174592,-0.7,5.2,40.7,-1.0,256.650186771863,9616.349252020971,9616.349252020971,293.8569679306496,0.07981213746194694,3.608427785181882,90.39999999999999,0.41576707539049573
1306894546.44,8.4819329,5.2074242,4248.261290799999,-0.7,5.4,40.6,-1.0,256.97582029596776,9495.64108998506,9495.64108998506,295.5518565279476,0.07818586040550063,3.6240984527564986,88.8,0.41536693322076695
1306894546.65,8.4821492,5.2075727,4242.0276948,-0.8,5.5,40.5,-1.0,248.82382894859361,9404.460066788832,9404.460066788832,296.01247856932974,0.07700654340088822,3.6175776345793924,89.7,0.4149942735532253
1306894546.86,8.4823704,5.2077251,4235.7940988,-0.8,5.6,40.4,-1.0,255.65992506347393,10164.800597981874,10164.800597981874,297.50632578573374,0.07638674271089516,3.5641969149825354,87.89999999999999,0.4146876790650363
1306894547.28,8.4828146,5.2080326,4223.589373999999,-0.8,5.8,40.3,-1.0,256.64286649164853,10146.536193068294,10146.536193068294,295.8043311125053,0.07592149183177732,3.5485421925350114,88.2,0.41439134266958577
