timestamp,longitude,latitude,altitude,roll,pitch,yaw,heading,air_speed,engine_0,engine_1,temperature_in,humidity_in,pressure_in,heart_rate,oxygen_mask
1306893631.32,6.4752918,4.1768605,155.7414748,-1.0,4.0,-1.0,-1.0,161.03081458591575,3064.291732113353,3064.291732113353,297.04691406484653,0.07630495593018333,3.6738954157412644,100.50000000000001,0.29672133436271714
1306893631.74,6.475647,4.1769052,155.8399,-1.0,5.8,-1.0,-1.0,161.03081458591575,3111.3684292160838,3111.3684292160838,297.15810294615085,0.07502462554273681,3.699865061477158,101.50000000000001,0.2965808597345456
1306893632.16,6.4760197,4.1769521,155.9383252,-1.0,6.9,-1.0,-1.0,169.02040226871742,3267.0748501443018,3267.0748501443018,297.5750714009519,0.07573907276083147,3.756634687566237,101.9,0.29654931992702155
1306893632.58,6.4763879,4.1769985,155.9711336,-1.0,7.7,-1.0,-1.0,166.9484099148005,3193.4259245284566,3193.4259245284566,299.441505777749,0.07670957649868618,3.7929168605511463,102.00000000000001,0.2965296458237845
1306893633.01,6.4767784,4.1770476,155.9711336,-1.0,8.2,-1.0,-1.0,172.80861031403637,3443.355840735891,3443.355840735891,297.5665985993127,0.07764723154046645,3.774238797765767,103.00000000000003,0.2965188518605299
1306893634.5,6.4781979,4.1772264,158.2021048,-1.0,9.7,-1.0,-1.0,181.18971502558833,3443.3558407358923,3443.3558407358923,297.5665985993127,0.07764723154046643,3.774238797765767,103.00000000000001,0.2965188518605299
1306893634.92,6.4786099,4.1772783,160.597118,-1.0,9.9,-1.0,-1.0,186.69430186524684,3193.4259245284557,3193.4259245284557,299.441505777749,0.07670957649868618,3.7929168605511463,102.0,0.2965296458237845
1306893635.36,6.4790541,4.1773343,164.40289239999998,-1.0,10.1,-1.0,-1.0,191.8589727311729,3267.074850144303,3267.074850144303,297.5750714009519,0.07573907276083147,3.756634687566236,101.89999999999999,0.2965493199270216
1306893635.79,6.4794954,4.1773901,169.455386,-1.0,10.3,-1.0,-1.0,195.35475884990876,3111.3684292160833,3111.3684292160833,297.15810294615085,0.07502462554273681,3.6998650614771575,101.50000000000001,0.2965808597345457
1306893637.95,6.4818114,4.1776862,216.04331399999998,0.1,10.3,-1.0,-1.0,204.32060098468077,3064.291732113353,3064.291732113353,297.04691406484653,0.07630495593018333,3.6738954157412644,100.5,0.2967213343627171
1306893639.24,6.4833337,4.1778852,263.45145199999996,0.1,10.5,-1.0,-1.0,225.7161178437133,3422.140827142619,3422.140827142619,298.3757456337253,0.07287989696401122,3.6450180833909984,100.50000000000001,0.29697265763480807
1306893640.09,6.4844059,4.1780283,304.69161080000003,0.3,10.4,-1.0,-1.0,241.9767730098737,3945.730851043502,3945.730851043502,297.44721342289336,0.07196334747437054,3.6525499067523044,98.9,0.29731997828222717
1306893640.51,6.4849556,4.1781027,328.0511916,0.3,10.4,-1.0,-1.0,251.45547462613632,4419.532978900504,4419.532978900504,298.048749152351,0.07190537157558043,3.623031181091309,97.8,0.29772157495764273
1306893640.95,6.4855435,4.1781833,354.5275704,0.3,10.3,-1.0,-1.0,257.41887090741943,5141.89718286595,5141.89718286595,297.1674731369397,0.07373448903135009,3.675219174783123,98.1,0.29818487329535054
1306893641.37,6.4861146,4.1782624,381.4960752,0.3,10.2,-1.0,-1.0,262.2633904636833,5812.161261140746,5812.161261140746,296.40974172482424,0.07288304964456152,3.7260112397344827,97.3,0.29871109814224467
1306893641.79,6.4867081,4.1783456,410.13780840000004,0.3,10.0,-1.0,-1.0,272.7887335141105,6753.481716229675,6753.481716229675,296.7887947792786,0.07074168912382278,3.7176181125884065,97.0,0.2992989480985002
1306893642.22,6.4873195,4.1784323,439.5341348,0.8,9.6,-1.0,-1.0,274.2487010212896,7611.893357042005,7611.893357042005,295.7134686111432,0.07263010842968921,3.758145089172079,94.4,0.2999498011168729
1306893642.64,6.4879335,4.1785203,468.33991,0.9,9.2,-1.0,-1.0,282.0726459027381,9095.72821434238,9095.72821434238,297.19838485233333,0.07505431099991852,3.8209187308835304,94.50000000000001,0.3006589874685789
1306893643.06,6.4885637,4.1786115,496.4895172,1.1,8.8,-1.0,-1.0,289.2723946531708,10601.325887078707,10601.325887078707,296.9550215541443,0.07415748015798879,3.836189524127276,93.30000000000001,0.301422067083627
1306893643.48,6.4892046,4.1787051,523.29398,1.3,8.4,80.7,-1.0,293.5210470269512,11993.362542826837,11993.362542826837,297.513343741004,0.07408682628193675,3.840530274979959,91.10000000000001,0.3021389852813523
1306893643.9,6.4898662,4.1788024,548.72049,1.5,8.1,80.7,-1.0,302.67342233599254,13615.72256103937,13615.72256103937,297.25887932067104,0.07724671804478456,3.772623746280973,90.9,0.3028046130153855
1306893644.33,6.4905527,4.178904,572.6050052,1.7,7.9,80.7,-1.0,306.2342528660674,14868.476022668157,14868.476022668157,297.8198777009286,0.07750867374980219,3.828237588519422,92.6,0.30342974424898134
1306893644.75,6.4912504,4.1790077,594.2585492,2.0,7.7,80.7,-1.0,317.99110857529087,15983.07970692955,15983.07970692955,297.8600287884343,0.07770100600275288,3.83414452915889,90.1,0.30405089473017116
1306893645.18,6.491987,4.1791175,614.4029068,2.3,7.7,80.8,-1.0,327.7954061247394,17015.41265223309,17015.41265223309,297.52246008690196,0.07527747323840453,3.8128481571396806,89.3,0.30465727049570046
1306893645.62,6.4927483,4.179231,632.9396528,2.6,7.9,80.8,-1.0,330.40935273520176,17994.99744203231,17994.99744203231,298.38325841728806,0.0769767168153142,3.8297044634194113,87.8,0.3052439721579927
1306893646.04,6.4934965,4.1793424,650.0000208,2.9,8.2,80.9,-1.0,340.23574215015924,19305.01048261259,19305.01048261259,298.70595596167516,0.07926718459506527,3.8065499402807097,84.39999999999999,0.305803650635683
1306893646.47,6.494281,4.179458,667.7165568,3.1,8.6,81.0,-1.0,348.2506538100005,20892.284276477185,20892.284276477185,299.5223438242775,0.07863823367024507,3.740857010578596,85.89999999999999,0.3063360762699787
1306893646.89,6.4950781,4.1795742,686.2861112,3.4,9.0,81.1,-1.0,362.00739478023513,22705.517475170425,22705.517475170425,300.1274365499011,0.07686955456102845,3.765916683667476,86.4,0.3068446173898387
1306893647.31,6.4958737,4.1796888,705.9055344,3.5,9.3,81.2,-1.0,361.5900576827767,24737.506260047932,24737.506260047932,299.45192067339764,0.07762057022077143,3.802268611685689,87.50000000000003,0.307333254747669
1306893647.73,6.4966956,4.1798056,727.5918868,3.5,9.5,81.3,-1.0,373.42597377231624,27674.256634485737,27674.256634485737,298.5693188521178,0.07542755045966101,3.857362241317013,89.40000000000002,0.3078099498482814
1306893648.15,6.4975283,4.1799223,751.0498928,3.5,9.7,81.4,-1.0,378.2932247321351,30011.470051145247,30011.470051145247,296.6478247983905,0.07497886996789496,3.8641284973868735,89.7,0.30828205177304085
1306893648.58,6.4984081,4.1800441,777.3294212000001,3.5,9.7,81.5,-1.0,390.67548001563523,33301.7910422347,33301.7910422347,296.2758895079864,0.07482600869304155,3.7803117149104537,89.89999999999999,0.30875974206175477
1306893649.0,6.4992633,4.1801609,804.1666924,3.5,9.7,81.6,-1.0,388.7758352821662,36474.23543248024,36474.23543248024,294.75109357357576,0.07298526925104942,3.7611251648740476,93.5,0.3092495277135483
1306893649.44,6.5001866,4.1802856,834.8425464000001,3.3,12.8,81.7,-1.0,400.97926356189987,40274.1708146527,40274.1708146527,295.2701921139844,0.0735019147538266,3.790919625599933,90.7,0.30976388685615547
1306893649.86,6.5010667,4.1804032,868.2414976,2.1,9.8,81.7,-1.0,401.0581372633478,43769.26520899318,43769.26520899318,295.03914938471826,0.0740797776283768,3.804306141870614,92.5,0.3103129244764529
1306893650.29,6.5019877,4.1805257,902.1981916,-3.6,8.7,81.7,-1.0,409.6055063074067,47966.38611877345,47966.38611877345,295.3708991720733,0.07386301470549732,3.8480432652860417,94.5,0.3109013868561554
1306893650.71,6.5028745,4.1806455,933.4317884,-24.9,12.3,81.4,-1.0,403.5633950000233,52070.10627270035,52070.10627270035,293.8570170545146,0.07195204170257949,3.852673203336038,96.7,0.311521389043382
1306893651.15,6.5038057,4.180784,969.9475375999999,-37.7,14.1,79.9,-1.0,406.43615324089893,56255.04882788818,56255.04882788818,293.8706603007726,0.07308679368350413,3.793670278685383,94.8,0.312183265683802
1306893651.58,6.5047129,4.1809395,1009.7441267999999,-41.5,14.3,78.3,-1.0,408.6811959607754,60976.123619827136,60976.123619827136,295.133232395756,0.07313037383736849,3.769876810419904,94.30000000000001,0.3128922223767154
1306893652.0,6.5056092,4.1811144,1052.2638132,-47.9,15.3,76.5,-1.0,416.291468058168,65269.06127416294,65269.06127416294,296.84828651342065,0.07496535823090261,3.68186110466886,95.60000000000001,0.3136497901807399
1306893652.43,6.5065295,4.18132,1099.0814,-52.5,15.7,74.4,-1.0,422.4649833560735,68984.44366341212,68984.44366341212,298.0774672223848,0.07252067509607488,3.79506143277515,95.10000000000001,0.31446186367155354
1306893652.85,6.5074404,4.1815519,1147.9331075999999,-54.3,15.5,72.4,-1.0,433.3420038626676,71205.94443542804,71205.94443542804,299.9041781064518,0.0748866903158042,3.8092096115218737,92.10000000000001,0.3153266055788151
1306893653.28,6.5083609,4.1818147,1199.2454452,-56.3,15.8,70.3,-1.0,433.35694522167034,72371.3547776991,72371.3547776991,302.37571679198516,0.07866984723155314,3.830966313040613,91.10000000000001,0.3162484559725159
1306893653.72,6.5093152,4.1821189,1254.3635571999998,-58.0,15.8,68.1,-1.0,445.9608402885215,72742.80136418843,72742.80136418843,302.1457565791855,0.08003207855424804,3.7948017412398576,91.60000000000001,0.317227338299725
1306893654.14,6.5102158,4.1824368,1308.0052912,-58.8,15.7,66.0,-1.0,448.1738291302565,72845.8672094376,72845.8672094376,304.24550797221576,0.07896841736070685,3.6938895594682535,91.8,0.3182534537852893
1306893654.56,6.5111175,4.1827856,1363.1562116,-59.5,15.7,64.0,-1.0,457.0886916712125,72954.22054374764,72954.22054374764,301.8220826011839,0.0784624266748048,3.5695930980940713,93.10000000000001,0.3193290224642044
1306893654.99,6.5120231,4.1831676,1419.9803604,-60.0,15.7,62.0,-1.0,456.56158945570485,73808.88369756893,73808.88369756893,302.7845269476852,0.0780968082121693,3.5804942397038384,92.9,0.32046430242920887
1306893655.41,6.5129188,4.1835774,1477.4934856,-58.8,14.9,60.0,-1.0,472.20971449511364,74704.30874370967,74704.30874370967,302.7101179076662,0.07631657950869043,3.5989331457065354,94.80000000000001,0.3216485762699787
1306893655.84,6.5138047,4.1840098,1534.9738024,-53.0,13.5,58.6,-1.0,464.26291832797256,74720.84778430876,74720.84778430876,302.5231961965427,0.0758604387742946,3.555041792945922,92.2,0.32287411214049483
1306893656.26,6.5146923,4.1844616,1591.8963764,-46.0,12.9,57.7,-1.0,481.9220471444685,74840.54841080365,74840.54841080365,300.1310371734324,0.0761349693676564,3.581871051298666,91.2,0.324133254747669
1306893656.68,6.5155857,4.184931,1648.458058,-40.1,12.9,56.9,-1.0,485.3059020525561,73077.65757577833,73077.65757577833,299.1833559926383,0.07825230294139533,3.5627050794665704,92.89999999999999,0.3254151335753155
1306893656.89,6.5160354,4.1851726,1676.837324,-37.4,12.7,56.5,-1.0,492.312568464278,70046.85504602821,70046.85504602821,296.976185392873,0.07644505804251,3.5405674474938444,92.80000000000001,0.3266492433740906
1306893657.32,6.5169408,4.1856687,1734.1535988,-31.0,12.6,55.8,-1.0,486.8023405822285,67039.97229002946,67039.97229002946,296.538086730182,0.07260483467658287,3.4674274882933664,93.7,0.3278973623592175
1306893657.74,6.5178384,4.1861722,1791.4370652,-25.3,12.6,55.2,-1.0,498.44652816481175,64080.21203550916,64080.21203550916,298.1172138627104,0.0730219860041021,3.4107678316154995,96.00000000000001,0.3291505338377827
1306893658.18,6.5187593,4.1866989,1850.9186943999998,-20.1,12.6,54.7,-1.0,491.24649453715006,61613.538484234894,61613.538484234894,297.02899451016253,0.07388861047263956,3.4066980720754194,95.60000000000001,0.33041733173804516
1306893658.61,6.51964,4.1872103,1908.5630532,-15.6,12.6,54.4,-1.0,483.20941188816636,61704.56124656859,61704.56124656859,299.1562306721872,0.07225211035291636,3.4103063560515476,95.30000000000001,0.33168994766105486
1306893659.05,6.5205566,4.1877484,1969.4554435999999,-11.5,12.6,54.1,-1.0,493.8493111230285,64572.96028312717,64572.96028312717,299.82151378732215,0.07392723771576598,3.41392891780259,95.60000000000001,0.3329720561474939
1306893659.48,6.5214433,4.1882731,2029.1667316,-8.1,12.6,53.9,-1.0,490.4353081310985,66095.2400166039,66095.2400166039,299.42998580771024,0.0759871472972698,3.4239204307130406,95.2,0.3342592936803024
1306893659.9,6.5223187,4.1887913,2088.7795944,-5.6,12.6,54.0,-1.0,495.9705591533306,69141.63834707547,69141.63834707547,298.7109036214375,0.07595355452326605,3.481810821682006,98.0,0.33555150715361826
1306893660.33,6.5232066,4.1893153,2149.8032184,-3.9,12.6,54.0,-1.0,491.0887267950625,70251.28172499327,70251.28172499327,299.7749034993784,0.07532173612910888,3.554032912349769,98.70000000000002,0.33685328974329454
1306893660.75,6.5240655,4.1898211,2209.2520392,-2.9,13.3,54.0,-1.0,486.05185559600244,69826.79669984116,69826.79669984116,300.02758711906625,0.07573350760430247,3.572335809214928,97.9,0.33816180899088855
1306893661.17,6.5249307,4.1903296,2269.4226448,-2.1,13.3,54.0,-1.0,489.17513820240316,68977.19448659883,68977.19448659883,300.2000553078924,0.07417991226865926,3.556555096500464,100.2,0.3395445080285089
1306893661.6,6.5258191,4.1908508,2331.4633292,-1.4,13.3,54.0,-1.0,490.6135599229607,69072.28642467872,69072.28642467872,300.52901068879214,0.07750929121893653,3.642609456340192,97.80000000000001,0.3409382306881764
1306893662.03,6.5267107,4.1913726,2393.864906,-1.0,13.3,54.0,-1.0,491.98176526813245,68236.05556964526,68236.05556964526,297.70543991416605,0.07447927742543682,3.7379581247364637,97.2,0.3423438956050618
1306893662.5,6.5276871,4.1919423,2462.3032284,-0.7,13.3,54.0,-1.0,492.345188842993,68114.17177688291,68114.17177688291,297.5845152209947,0.07467425082152179,3.852013155906235,96.6,0.34377045947207846
1306893662.94,6.5286018,4.1924742,2526.4436504,-0.5,13.3,54.0,-1.0,492.09414463539105,67809.91342406099,67809.91342406099,296.44864939406,0.0769976388821553,3.9471077166758284,97.0,0.34521218081941
1306893663.79,6.5303755,4.1935,2650.6562528,-0.5,13.5,54.0,-1.0,493.20592617995413,66539.68788411141,66539.68788411141,295.49555863907773,0.07636030163736027,3.8890693416491775,96.5,0.34680164932334706
1306893664.65,6.5321824,4.1945364,2776.6733172,-0.1,13.5,54.0,-1.0,495.02966283294614,66139.96712793273,66139.96712793273,296.18850853689753,0.0759515239038278,3.8646947584017104,95.9,0.3485458313005999
1306893665.91,6.5348741,4.1960615,2962.9594124,-0.0,13.5,54.0,-1.0,501.2086671254517,65533.93375513462,65533.93375513462,297.175677525731,0.0780075663975175,3.7452095208663367,93.3,0.35058558414399443
1306893709.42,6.6401801,4.2472353,9390.8795656,-0.0,14.0,54.0,-1.0,589.82392699929,65525.6345156697,65525.6345156697,298.69296040997745,0.07790343493355194,3.7067957968631298,90.4,0.3674814284134607
1306893711.54,6.6453928,4.2497116,9702.920258,-0.0,14.0,54.0,-1.0,594.1531581564744,66906.00043768845,66906.00043768845,298.9986023228066,0.07756651729180157,3.596026084262492,89.2,0.3849666536978002
1306893717.96,6.6612379,4.2572425,10651.640760799999,-0.0,14.1,54.0,-1.0,596.3081393778339,68907.35948313758,68907.35948313758,299.52522758654567,0.08010234213722932,3.6869631459528436,88.39999999999999,0.4045251620092612
1306893726.26,6.6816655,4.2669703,11876.2470992,-0.0,14.2,54.0,-1.0,595.0619252162795,71808.06178756845,71808.06178756845,296.91250310482434,0.0779902010451665,3.641626906781682,88.30000000000001,0.4267963234265841
1306893733.45,6.6993031,4.2754187,12938.2550072,-0.0,14.2,54.0,-1.0,594.3293256304258,75466.80158295952,75466.80158295952,297.4077754809484,0.07843337505418307,3.562440808301427,86.1,0.4513998995420696
1306893733.87,6.700338,4.2759171,13000.8534344,-0.0,14.3,54.0,-1.0,597.6679083926671,78784.58287873503,78784.58287873503,296.3157438146666,0.0754068044543888,3.4507589911377465,84.7,0.475989849235858
1306893741.34,6.718423,4.2847126,14102.920398799999,-0.0,14.4,54.0,-1.0,589.9266781981335,80412.456105159,80412.456105159,297.6129089264869,0.0736663279074776,3.4736453873257163,81.9,0.5030016274510811
1306893743.91,6.7245592,4.2877481,14481.955844000002,-0.0,14.4,53.8,-1.0,585.6166579185424,80439.14731482959,80439.14731482959,296.8131073292551,0.07338730248810378,3.58124832552428,81.9,0.5306079922804774
1306893753.2,6.7461783,4.2987828,15851.739352399998,-0.0,13.8,53.8,-1.0,577.8447427632874,78963.08161363125,78963.08161363125,295.5105471880719,0.07321936063131412,3.5478002517689635,80.2,0.5611164787196725
1306893753.63,6.7471572,4.2992985,15913.812845199998,-0.0,11.7,53.8,-1.0,572.1310664751563,75984.2322885057,75984.2322885057,294.266299144596,0.07130899977054925,3.6644241541779334,82.60000000000001,0.5913351357625422
1306893754.06,6.748134,4.2998146,15971.7196712,-0.0,10.6,53.8,-1.0,570.3888817188149,73680.09396362981,73680.09396362981,293.3422407826002,0.06881515174679607,3.6910385803540104,83.20000000000002,0.6066904288509061
1306893754.48,6.7491069,4.3003301,16024.770854,-0.0,9.8,53.8,-1.0,580.0515874641746,71590.53939891743,71590.53939891743,292.3181876893939,0.06750349382611563,3.7574658018891713,83.0,0.6214414131028746
1306893754.91,6.7500782,4.3008462,16073.2288608,-0.0,9.2,53.8,-1.0,566.3327100546682,68416.31740883173,68416.31740883173,293.33020167617354,0.06644501596620418,3.7549794947815625,81.19999999999999,0.6340917849313962
1306893755.34,6.7510503,4.3013639,16117.454584000001,-0.0,8.6,53.8,-1.0,566.3150139529599,67050.82155622731,67050.82155622731,296.057988866602,0.06610916628038915,3.732286371796425,82.8,0.643987935412586
1306893755.76,6.7520207,4.3018818,16157.677682399999,-0.0,8.1,53.8,-1.0,577.4655777700557,65520.40214732803,65520.40214732803,297.11622545990764,0.06709121164124912,3.715301043753409,82.7,0.6514999214143358
1306893756.19,6.7529802,4.302395,16193.865347600002,-0.0,7.6,53.8,-1.0,558.9793518544099,62358.41908469828,62358.41908469828,296.8108190005463,0.06681942731602994,3.8135638062603174,84.30000000000001,0.6589502823067243
1306893756.61,6.7539355,4.3029068,16226.542514,-0.0,7.1,53.8,-1.0,568.7375455953792,62876.04536116482,62876.04536116482,296.8134543098105,0.06833715426331895,3.689692908874346,85.39999999999999,0.6639054004169604
1306893757.03,6.7549139,4.3034319,16256.890284000001,-0.0,6.7,53.8,-1.0,581.2975371102444,62371.30944131535,62371.30944131535,296.5142172512582,0.06951860354158135,3.683213379855389,84.50000000000001,0.6680469139777654
1306893757.45,6.7558558,4.3039382,16283.301045999999,-0.0,6.3,53.8,-1.0,561.3293177769417,59293.4376814152,59293.4376814152,297.10435186643207,0.06853812269150503,3.6732472249548,85.9,0.6690538912306088
1306893757.87,6.7568252,4.3044598,16307.8417292,-0.0,6.0,53.8,-1.0,576.2348632732712,60612.685814419485,60612.685814419485,298.9496896045887,0.07154755859216502,3.606392520021224,83.8,0.6699732919305212
1306893758.29,6.7577738,4.304971,16329.4624648,-0.0,5.7,53.8,-1.0,564.7882178724393,59631.58654321213,59631.58654321213,298.8734045543538,0.07540239505100158,3.5878907416167825,86.5,0.6708080250888764
1306893758.71,6.7587337,4.3054887,16349.147504800001,-0.0,5.4,53.8,-1.0,570.9501039368788,58107.078736814015,58107.078736814015,300.5863229908272,0.07800748905427766,3.547866513097203,88.39999999999999,0.671564903916523
1306893759.13,6.7596932,4.3060067,16366.798424,-0.0,5.1,53.8,-1.0,570.6700608837995,59987.14752719316,59987.14752719316,300.1732052154044,0.07999459180333852,3.575858771520878,92.1,0.6722498995420699
1306893759.55,6.7606456,4.3065213,16382.5136476,-0.0,4.9,53.8,-1.0,567.0296628675894,60923.93140032619,60923.93140032619,299.1220085510655,0.07966681042266595,3.5362430050906095,89.5,0.6728683706706786
1306893759.98,6.7616294,4.3070534,16396.9493436,-0.0,4.7,53.8,-1.0,571.5410215244248,60432.57734085052,60432.57734085052,300.4043271758369,0.07961194332235091,3.5776092934065113,93.1,0.6734266711956132
1306893760.4,6.7625764,4.3075658,16409.3181104,-0.0,4.5,53.8,-1.0,564.0785201182724,61842.414207582966,61842.414207582966,302.70697648579505,0.07969941840930943,3.4573375009963834,93.1,0.6739293942927259
1306893760.83,6.7635617,4.3080993,16420.768242000002,-0.0,4.3,53.8,-1.0,572.4399790441265,62258.833519763204,62258.833519763204,302.88643654975846,0.07849562504838449,3.5300322450388126,92.4,0.6743825876435571
1306893761.25,6.7645285,4.3086231,16430.6763788,-0.0,4.2,53.8,-1.0,574.7891658751396,60977.69849110204,60977.69849110204,303.09234929822196,0.07909439721493175,3.4610983193812013,91.3,0.6747880885184476
1306893761.68,6.7654995,4.3091494,16439.4362216,-0.0,4.0,53.8,-1.0,565.0922236335704,61310.34765363241,61310.34765363241,303.21985055264724,0.07863998053517122,3.5408392275692697,91.7,0.6751524039165229
1306893762.1,6.7664429,4.309661,16446.9493452,-0.0,3.9,53.8,-1.0,562.2537414957368,61076.55439249415,61076.55439249415,303.89172701295064,0.07679578657291981,3.52228598986066,92.60000000000001,0.6754769883434695
1306893762.52,6.7674021,4.3101812,16453.675067199998,-0.0,3.8,53.8,-1.0,570.7627033592772,62078.18556819505,62078.18556819505,303.27114346024166,0.07397552598792351,3.441986121985771,92.20000000000002,0.675766817739795
1306893762.95,6.7683792,4.3107114,16459.646195999998,-0.0,3.7,53.8,-1.0,568.3496293028193,61425.18088050358,61425.18088050358,302.3817315801192,0.07274166593302407,3.5205742814464496,94.10000000000002,0.676024648011011
1306893763.37,6.7693495,4.311238,16464.7971148,-0.0,3.6,53.8,-1.0,577.1908773847099,62275.87403858188,62275.87403858188,302.7147773010183,0.07272093141256498,3.5100651560738254,94.10000000000001,0.6762533116155605
1306893764.64,6.7722234,4.3127984,16476.2800548,-0.0,3.4,53.8,-1.0,566.1730739525099,61649.19621698261,61649.19621698261,302.4800269190812,0.07307635469757416,3.506947388208033,95.9,0.676472099892026
1306893874.78,7.022944,4.4483943,16476.2800548,-0.0,3.4,54.1,-1.0,568.3130462214998,59562.45982249319,59562.45982249319,301.09136935817656,0.07423274333494838,3.488901856837722,93.0,0.6766572048789026
1306894046.29,7.415478,4.6582077,16476.2800548,-0.0,3.4,54.4,-1.0,568.3319046683009,59095.64143323196,59095.64143323196,300.7163969035,0.0748005371115851,3.625016018201942,94.2,0.6768134494108361
1306894102.92,7.5456524,4.7271251,16476.2800548,-0.0,3.4,54.5,-1.0,568.3510072111426,58400.36416988685,58400.36416988685,300.4385488090211,0.07522402463770886,3.606087973238402,96.89999999999999,0.6769429769698913
1306894159.51,7.6760069,4.7958088,16476.2800548,-0.0,3.4,54.6,-1.0,568.3225300665586,58190.03086050547,58190.03086050547,302.67433956449594,0.07244697888214426,3.6372469886581964,98.6,0.6770493855438195
1306894306.87,8.0165903,4.9737151,16476.2800548,-0.0,3.3,54.6,-1.0,568.0635089373985,59653.2646135813,59653.2646135813,301.2236143201791,0.07516417119019221,3.5680278879969003,99.19999999999999,0.6771353544852019
1306894328.3,8.0645805,4.998604,16476.2800548,-0.0,3.3,54.9,-1.0,550.247924341167,60945.42573395834,60945.42573395834,299.03301385224745,0.07698722252474015,3.670150143949186,98.4,0.6772037928054118
1306894386.0,8.1940495,5.0655297,16476.2800548,-0.0,3.3,55.0,-1.0,550.5183573182112,60973.54177910939,60973.54177910939,300.9048478272871,0.07786561251385508,3.797957028590862,96.90000000000003,0.6772565377747907
1306894410.62,8.2493571,5.094022,16476.2800548,-0.0,3.1,55.0,-1.0,550.3539251186835,61013.84109147432,61013.84109147432,301.280411763868,0.07701190655176253,3.805115375974498,96.2,0.6772953501107487
1306894410.83,8.2498381,5.0942695,16482.8089264,-0.0,1.4,55.0,-1.0,560.2781036831518,59799.26573514944,59799.26573514944,300.70500125005,0.07337502962671076,3.6873194010029846,93.30000000000001,0.6773373776698038
1306894411.04,8.2503034,5.094509,16481.857482800002,-0.0,-1.2,55.0,-1.0,543.4898260272888,56536.499967185504,56536.499967185504,299.8662013626338,0.07527841568001423,3.7112905381395165,94.70000000000002,0.6773503916680541
1306894411.67,8.2517371,5.0952465,16467.848296,-0.0,-4.2,55.0,-1.0,556.8178425703513,57032.56135773179,57032.56135773179,301.3093498472604,0.07346995384888841,3.793331830865659,97.8,0.6773307175648169
1306894411.88,8.2521976,5.0954832,16459.3837288,-0.0,-4.7,55.0,-1.0,538.688799777656,56800.55848985763,56800.55848985763,301.6198934565501,0.07447334913689999,3.7096877724324893,97.00000000000001,0.6772912928054119
1306894412.09,8.2526646,5.0957232,16449.0162744,-0.0,-5.0,55.0,-1.0,545.8578620761497,61055.19903993617,61055.19903993617,301.2868857255108,0.07341945344236078,3.759992436209177,95.80000000000001,0.6772276773198475
1306894412.3,8.2531406,5.0959675,16436.7131244,-0.0,-5.3,55.0,-1.0,555.5153242638783,66082.96255499344,66082.96255499344,300.79933913324396,0.07706982295956111,3.69912884645257,95.9,0.6771353544852019
1306894413.14,8.2550244,5.0969328,16374.016272,-0.0,-6.0,55.0,-1.0,550.7919115676605,67594.30127265453,67594.30127265453,302.8678030871374,0.07421448446359717,3.7702084159252975,93.00000000000001,0.6768967389996376
1306894413.36,8.2555142,5.0971831,16354.757741200001,-0.0,-6.1,55.0,-1.0,547.7193297972908,66652.3043136186,66652.3043136186,303.70363193000713,0.07438390715720018,3.7515109948654874,93.60000000000001,0.6766131869436446
1306894413.78,8.256463,5.0976673,16314.731493199999,-0.0,-6.3,55.0,-1.0,555.2490632865808,63340.31639146575,63340.31639146575,301.7518867284887,0.0748215517747769,3.752718125930795,95.0,0.6762362403119735
1306894414.41,8.2578862,5.0983915,16249.409968799999,-0.0,-6.6,55.0,-1.0,555.3984025512252,56740.75010672144,56740.75010672144,301.3253829608157,0.0733055651943853,3.689455949857639,93.89999999999999,0.6757068767949131
1306894415.88,8.2612214,5.1000778,16080.0858164,-0.0,-7.0,55.0,-1.0,557.4674846232291,51945.06086096331,51945.06086096331,300.5209751337389,0.07358908660580722,3.7228121454461136,94.1,0.6747671895683165
1306894416.51,8.2626507,5.1007957,16003.3797772,-0.0,-7.1,55.0,-1.0,556.887996560655,52794.82325198803,52794.82325198803,301.74081668383053,0.07349742962158853,3.694710281009042,94.19999999999999,0.6736507416243094
1306894417.35,8.2645573,5.101749,15898.852214800001,-0.0,-7.2,55.0,-1.0,556.7083684729157,51654.58220701743,51654.58220701743,299.33078153500946,0.07617647648011609,3.6837507591020255,93.60000000000001,0.6723230841439946
1306894418.2,8.2665295,5.1027298,15789.1409252,-0.0,-7.3,55.0,-1.0,567.2603928407851,54694.483573810205,54694.483573810205,297.6733531085329,0.07603855477667965,3.647445983559495,93.60000000000001,0.6707591843189726
1306894419.04,8.2684493,5.1036797,15681.4637564,-0.0,-7.3,55.0,-1.0,558.611579311762,56384.517921679115,56384.517921679115,295.9907265827396,0.07515392051538641,3.6265415596524666,91.10000000000001,0.6689682285009497
1306894421.35,8.2737793,5.106291,15381.365321599998,-0.0,-7.2,54.9,-1.0,561.9301500322903,56408.20816794729,56408.20816794729,293.8927057846183,0.0720778371395158,3.76383830625753,91.0,0.6665057503732159
1306894423.03,8.2775952,5.1081374,15167.159278,-0.0,-7.1,54.9,-1.0,551.748631037145,56665.938150458285,56665.938150458285,292.69597781136844,0.07425370450102718,3.785328589181239,93.4,0.6636897508106613
1306894424.71,8.2813693,5.1099459,14956.52935,-0.0,-7.0,54.9,-1.0,544.4864886991472,57878.31817422327,57878.31817422327,292.853858042371,0.07419952286125983,3.6930655761574793,94.10000000000001,0.6604272180022622
1306894427.05,8.2865468,5.1124003,14669.7511256,-0.0,-7.0,54.8,-1.0,535.1541488284415,58756.84784168716,58756.84784168716,293.8640228409797,0.07477979868040509,3.6115819287727287,95.0,0.6565889306006873
1306894429.78,8.2924825,5.1151802,14343.996522000001,-0.0,-6.7,54.8,-1.0,524.6954856557309,59518.523637956554,59518.523637956554,294.7706135131326,0.0772908866755461,3.553051677854937,96.5,0.6521429660337583
1306894430.83,8.294737,5.1162276,14221.030638799999,-0.0,-6.7,54.7,-1.0,517.3446855388456,59490.24967982934,59490.24967982934,296.8889544510981,0.08064712292055892,3.6150744960862236,98.4,0.6478051707581678
1306894432.73,8.2987931,5.1181012,14000.7878496,-0.0,-6.7,54.7,-1.0,513.8330990654821,59128.03508545997,59128.03508545997,296.05475835944765,0.07816297225529606,3.725040408568252,96.10000000000001,0.6431324564099613
1306894435.04,8.3036263,5.1203181,13739.797027600001,-0.0,-6.4,54.7,-1.0,503.3544178846173,58036.360327874005,58036.360327874005,295.53551157398135,0.076287261872998,3.6952055784739706,94.5,0.6380946611343706
1306894436.96,8.3075881,5.122124,13526.8705116,-0.0,-6.3,54.5,-1.0,496.1636525160497,56049.274809509945,56049.274809509945,297.5004912583848,0.07510561382456764,3.7656459908818736,93.9,0.6328160303382202
1306894438.23,8.3101852,5.1233031,13387.7300872,-0.0,-6.3,54.5,-1.0,491.45750595884,54317.82298170883,54317.82298170883,297.3560358243726,0.07549092950998658,3.7862909455988203,96.2,0.6274639852813523
1306894438.65,8.3110352,5.1236883,13342.2576448,-0.0,-6.2,54.5,-1.0,486.6128853958756,52358.10450243221,52358.10450243221,299.317710297046,0.07488992618464209,3.6901972420391886,96.30000000000001,0.6227060675210723
1306894439.7,8.3131642,5.1246515,13228.4781136,-0.0,-6.2,54.4,-1.0,487.1326997436246,50894.56470368151,50894.56470368151,299.5844307439755,0.07521126066433931,3.604440865955722,93.80000000000001,0.618182478282227
1306894440.54,8.3148637,5.125419,13137.7628876,-0.0,-6.1,54.4,-1.0,486.03458851356345,49508.32751486518,49508.32751486518,298.1754205826571,0.07247194521605312,3.6534784415975707,95.50000000000003,0.6139386900057616
1306894440.75,8.3152726,5.1256035,13115.945301599999,-0.0,-6.1,54.4,-1.0,469.2519476733475,48257.404985618545,48257.404985618545,296.3282808952912,0.07139279827947206,3.6934165086642476,94.0,0.6103131431991126
1306894442.23,8.3182209,5.1269319,12958.8586824,-0.0,-6.1,54.3,-1.0,478.8406199755862,50272.24081925467,50272.24081925467,296.98167213902406,0.07227558669540757,3.8222259572690866,90.5,0.6070811550101362
1306894442.65,8.3190589,5.1273089,12914.2720668,-0.0,-6.0,54.3,-1.0,479.2941504496773,51876.05478046559,51876.05478046559,294.762621451266,0.07213317894386818,3.827337285219164,87.8,0.6040320517730409
1306894446.65,8.326872,5.1308147,12499.18019,-0.0,-5.8,54.1,-1.0,469.8163506147719,53268.87252496692,53268.87252496692,294.7213839197072,0.07524726573892292,3.816113033031489,89.69999999999999,0.6005283006794275
1306894448.76,8.3309124,5.1326228,12284.9085296,-0.0,-5.7,54.0,-1.0,461.0696895081649,54947.193112125366,54947.193112125366,296.5751391610044,0.07364940210740553,3.84452362693021,90.2,0.5971335609593926
1306894449.39,8.3321128,5.1331596,12221.2602336,-0.0,-5.7,54.0,-1.0,458.8867420853763,53602.54572010515,53602.54572010515,293.9087562876882,0.07442205752102601,3.757505669498369,91.60000000000001,0.5940871370748781
1306894451.3,8.3357068,5.1347658,12030.7746632,-0.0,-5.7,54.0,-1.0,453.71948202637174,49545.65531585739,49545.65531585739,296.4108837276807,0.07459155572776763,3.7698511321096158,89.60000000000001,0.5909209078535308
1306894455.36,8.3432212,5.1381228,11632.4150704,-0.0,-5.4,54.0,-1.0,446.9185412914262,46250.16057007141,46250.16057007141,294.843070684729,0.07634813046059728,3.731813248105935,90.10000000000002,0.5869312753075989
1306894456.66,8.345591,5.1391818,11506.693281599999,-0.0,-5.4,53.6,-1.0,440.92859805870324,42812.982001954624,42812.982001954624,295.4052700345891,0.07405738296293898,3.837981614249975,89.9,0.5829137774948255
1306894458.37,8.3486769,5.1405613,11342.8809404,-0.0,-5.4,53.5,-1.0,436.9486714925159,39319.01689736784,39319.01689736784,298.0981405541388,0.07391740669271536,3.8467674267083964,89.90000000000002,0.5787257197520433
1306894458.59,8.3490774,5.1407404,11321.621097199999,-0.0,-5.4,53.5,-1.0,440.08740980845704,38797.633363482986,38797.633363482986,298.96840151394105,0.0720628144011561,3.7661662302943064,89.60000000000002,0.5745389634090862
1306894463.02,8.3569287,5.1442561,10904.035782,-0.0,-5.1,53.5,-1.0,430.1651313572631,37269.02935766701,37269.02935766701,298.3654161507717,0.07224055348428336,3.6271542807067356,93.00000000000001,0.5697443767949131
1306894463.65,8.3580244,5.1447476,10845.63683,-0.0,-5.1,53.2,-1.0,423.1462749070003,35705.909059812,35705.909059812,300.2855161507669,0.07044160577749166,3.6091332064850588,96.60000000000001,0.5649175613968379
1306894465.12,8.3605841,5.1458966,10709.121077599999,-0.0,-5.1,53.1,-1.0,423.6883197140128,34473.24717781369,34473.24717781369,301.4426243728041,0.06986153466669348,3.5508904617891504,95.30000000000001,0.5607407569348957
1306894465.33,8.3609491,5.1460606,10689.632888,-0.0,-5.1,53.1,-1.0,423.0310750185724,33199.73220671708,33199.73220671708,300.69410468824185,0.07202459769046828,3.5328315861275343,93.70000000000002,0.5570184472236095
1306894465.75,8.3616727,5.1463858,10651.017401199999,-0.0,-5.0,53.1,-1.0,419.81484771584377,32699.888379796834,32699.888379796834,303.0633447551716,0.0715481686587201,3.6253174381057125,93.9,0.5533545473985877
1306894469.75,8.3684945,5.1494577,10285.9583344,-0.0,-5.0,53.1,-1.0,416.30098599973013,33077.78287368141,33077.78287368141,300.4516765719414,0.07283037754305331,3.5987269126015855,97.1,0.5492833094283339
1306894469.96,8.3688558,5.1496208,10266.56857,-0.0,-5.0,52.8,-1.0,420.0026780808122,33150.33235775077,33150.33235775077,300.8126404222307,0.07285509564928509,3.638675669793123,96.2,0.5460963343627172
1306894471.43,8.371326,5.1507367,10133.9570172,-0.0,-5.0,52.7,-1.0,411.2219776598388,32482.830281365423,32482.830281365423,298.57739563503503,0.07367446349485288,3.6450902658777617,98.1,0.5428932831816148
1306894472.9,8.3737855,5.15185,10001.64074,-0.0,-5.0,52.6,-1.0,409.89382383221226,32032.124588303337,32032.124588303337,298.14611813068865,0.07660633265157546,3.68260685597378,97.6,0.5397637228141607
1306894474.16,8.3758858,5.1528033,9888.3205264,-0.0,-5.0,52.5,-1.0,408.8756948879716,30735.605160889467,30735.605160889467,297.3911776010021,0.07661263633650496,3.811691780746859,98.10000000000001,0.536419354922647
1306894475.43,8.3780066,5.1537698,9773.458317999999,-0.0,-5.1,52.5,-1.0,409.990693796684,29281.24713811879,29281.24713811879,297.6521037527542,0.07486852170648953,3.9543653506253076,96.90000000000002,0.5337813409243969
1306894475.64,8.3783626,5.1539325,9754.1341704,-0.0,-5.1,52.4,-1.0,416.02903448529185,28800.673648470638,28800.673648470638,297.23418308288,0.07572514252127284,3.886171205220543,96.70000000000002,0.5312345014668292
1306894476.06,8.379073,5.1542576,9715.4858752,-0.0,-5.2,52.4,-1.0,415.39777310421306,27769.96320801544,27769.96320801544,296.5443483712283,0.07603472548226761,3.9483218502931337,98.5,0.5289160194020872
1306894476.69,8.3801353,5.1547448,9657.5790492,-0.0,-5.3,52.4,-1.0,414.33549459112373,26833.856667599553,26833.856667599553,296.90699791000526,0.07675182864552406,3.9838862559009183,99.1,0.5265078938552805
1306894478.16,8.3826367,5.1558967,9520.702404399999,-0.0,-5.3,52.4,-1.0,418.2558262597771,26320.326297154475,26320.326297154475,296.195924697063,0.07835585012848705,3.9578314918102038,95.3,0.5238704922804774
1306894479.45,8.3848341,5.1569141,9399.8362588,-0.0,-5.3,52.4,-1.0,419.40392202933816,25902.332332823342,25902.332332823342,297.97675970128194,0.07819297085514947,3.9504538419428767,93.79999999999998,0.5218028741702413
1306894480.08,8.3859155,5.1574166,9340.1249708,-0.0,-5.7,52.4,-1.0,422.6864517962927,26024.256041379045,26024.256041379045,299.7715227230874,0.07681576806538729,4.036844973188176,93.6,0.519641172507949
1306894480.71,8.3870052,5.1579241,9279.8231316,-0.0,-5.7,52.4,-1.0,425.8137586511063,27199.695560072672,27199.695560072672,300.1539727390765,0.0788489971949546,3.8992154205221548,91.8,0.5176481935053244
1306894481.97,8.3891881,5.1589446,9158.5960936,-0.0,-5.7,52.4,-1.0,427.04821709750007,28180.5920214032,28180.5920214032,300.31404033293495,0.07846436638319532,3.794344008442731,89.80000000000001,0.5156810893933383
1306894483.24,8.3913904,5.159978,9035.8270608,-0.0,-5.7,52.4,-1.0,427.9153099055943,29242.801024435183,29242.801024435183,302.5634345721417,0.08112438739874266,3.6556355123022386,89.2,0.5136919380372578
1306894483.87,8.3924723,5.1604865,8975.426796400001,-0.0,-5.8,52.4,-1.0,424.36278804527973,30396.975733754254,30396.975733754254,302.1270212687764,0.07934418320237197,3.584427921033198,87.60000000000001,0.5118298645464442
1306894484.31,8.3932272,5.1608417,8933.235193999999,-0.0,-5.8,52.4,-1.0,424.1618088406885,30915.794645516027,30915.794645516027,302.80742091590025,0.07863214250551824,3.558202962637582,86.4,0.5099144336628046
1306894484.73,8.3939459,5.16118,8893.044904,-0.0,-5.8,51.7,-1.0,423.0879078944826,31789.62587214933,31789.62587214933,302.7631923253728,0.07806138138856988,3.438459489434944,84.8,0.5079954047914136
1306894486.62,8.3971665,5.1626991,8712.5658956,-0.0,-5.8,51.7,-1.0,421.9695931082862,32865.60497502807,32865.60497502807,304.04755769041026,0.07734340993932123,3.3808299017693977,83.8,0.5057903741702412
1306894487.04,8.3978903,5.1630411,8671.9490964,-0.0,-5.7,51.5,-1.0,426.25066724620046,33757.430956714816,33757.430956714816,304.14743118933495,0.07472737242310806,3.444578866746146,84.1,0.5038099498482813
1306894487.81,8.3991778,5.1636502,8599.573766,-0.0,-5.7,51.5,-1.0,415.26037422643464,33967.18504134657,33967.18504134657,302.53430194173825,0.07260295120995042,3.4422635412172315,84.50000000000001,0.5019426707581677
1306894488.02,8.399534,5.1638188,8579.560642,-0.0,-5.7,51.4,-1.0,420.97504285956967,34154.86648588765,34154.86648588765,302.14167587911436,0.07343536056437089,3.333928115311954,84.50000000000001,0.5001680207144232
1306894490.12,8.4030306,5.1654778,8382.447774799999,-0.0,-5.7,51.4,-1.0,414.04595839244405,33018.67280469415,33018.67280469415,304.49318256988397,0.0707708257012691,3.3668573950239247,84.2,0.4980741449488939
1306894490.33,8.4033788,5.1656434,8362.7955432,-0.0,-5.7,51.2,-1.0,412.8614413304769,31810.675922392496,31810.675922392496,302.82444935485995,0.07000763384135295,3.416265763281898,83.8,0.4962172770573802
1306894490.54,8.4037315,5.1658111,8342.848036,-0.0,-5.6,51.2,-1.0,417.6192617786098,31058.957977526105,31058.957977526105,301.93925815241533,0.07083094316254741,3.5031653168410184,83.1,0.49460032605125603
1306894491.17,8.4047722,5.1663066,8283.9897664,-0.0,-5.6,51.2,-1.0,411.6878439500068,29550.581086306265,29550.581086306265,300.9497519355319,0.071362978834235,3.5248287373888596,83.5,0.49298697303288336
1306894492.23,8.4065132,5.1671368,8185.367716000001,-0.0,-5.6,51.2,-1.0,409.74199294580126,28883.971622993045,28883.971622993045,301.3231735399746,0.07278251628853702,3.5610049310275476,84.9,0.49124194897339085
1306894493.49,8.4085728,5.1681214,8068.40577,-0.0,-5.6,50.9,-1.0,408.3134428056779,29234.220829634454,29234.220829634454,300.9652874210135,0.07113019751167075,3.6011876715458637,83.4,0.4893177910556305
1306894494.12,8.4096062,5.1686164,8009.5803088,-0.0,-5.6,50.9,-1.0,409.70802304853356,29360.55264171415,29360.55264171415,298.8292501166126,0.07128355526188067,3.6518895149438455,85.39999999999999,0.48767749140558686
1306894494.54,8.4102769,5.168938,7971.3913311999995,-0.0,-5.6,50.8,-1.0,400.5501907775816,29715.88643599474,29715.88643599474,299.6139165557836,0.07218042532838498,3.6512612573985024,85.1,0.48604285667242836
1306894495.19,8.4113349,5.169446,7911.0238752000005,-0.0,-5.6,50.8,-1.0,407.3771514101557,31708.124151734915,31708.124151734915,301.5806640339092,0.07434953604650582,3.604852424212147,83.8,0.4844362403119735
1306894496.46,8.4133694,5.1704249,7794.7180972,-0.0,-5.6,50.6,-1.0,401.8877966914701,31982.858026360707,31982.858026360707,299.75198929612975,0.0740058151825758,3.6866510397688534,83.2,0.482604941099375
1306894497.09,8.4143846,5.1709145,7736.5816124,-0.0,-5.6,50.6,-1.0,404.2542488203096,32406.724878248446,32406.724878248446,299.2576259992656,0.07506169383885802,3.746894139418423,84.10000000000001,0.48109792010199975
1306894497.3,8.41471,5.1710716,7717.9136328,-0.0,-5.6,50.5,-1.0,390.6149066049425,32928.424965457154,32928.424965457154,300.83595247561396,0.07344735820714976,3.810550701527302,86.9,0.4795931956925509
1306894498.99,8.4173925,5.1723695,7563.7141528,-0.0,-5.6,50.5,-1.0,399.3924250196283,34148.85869352723,34148.85869352723,299.2165090315935,0.07161886179239228,3.8647906736332707,86.3,0.4777752166899263
1306894499.86,8.4187595,5.1730331,7484.875567599999,-0.0,-5.6,50.5,-1.0,396.14118944139017,35171.54135561214,35171.54135561214,301.4402262019041,0.07213784285550386,3.855494951905061,89.10000000000001,0.4759106169523934
1306894500.07,8.4191022,5.1731997,7465.0921024,-0.0,-5.6,50.2,-1.0,410.2782205632594,36583.15213831543,36583.15213831543,300.3547664674922,0.07153026791969404,3.8676466573373354,88.30000000000001,0.474229973907774
1306894500.7,8.4200827,5.1736769,7408.3991872,-0.0,-5.4,50.2,-1.0,393.20081983181166,35709.28732904638,35709.28732904638,299.9587623393845,0.0723930151731442,3.9446910077994652,90.10000000000002,0.4726899585971879
1306894501.12,8.420743,5.1739987,7370.1774012,-0.0,-5.4,50.1,-1.0,396.7943544700132,33676.7184032118,33676.7184032118,299.93863639927696,0.07364068656164134,3.9343469178846195,88.60000000000001,0.47119801852719656
1306894503.67,8.4247026,5.1759365,7139.960858400001,-0.0,-5.4,49.8,-1.0,393.17213918076516,30138.53415615205,30138.53415615205,298.2805992754664,0.07595897586396055,3.881652676312099,89.2,0.4692580141527434
1306894504.51,8.4259881,5.1765688,7064.8624308,-0.0,-5.4,49.7,-1.0,388.7613593570753,26403.91544015991,26403.91544015991,298.52658151134887,0.07493222645925929,3.8809590875622466,91.2,0.4672836375123234
1306894504.94,8.4266557,5.1768978,7025.7876264,-0.0,-5.4,49.7,-1.0,393.91579934554795,25131.915207177644,25131.915207177644,300.6572275963095,0.07763363787668397,3.8073365230358647,91.2,0.4654894664712035
1306894505.15,8.4269713,5.1770535,7007.2836888,-0.0,-5.4,49.6,-1.0,382.74195132800895,24739.644016761504,24739.644016761504,299.9561944937576,0.07818931411086348,3.784420209102197,91.60000000000001,0.463787771370591
1306894505.57,8.4276154,5.1773715,6969.5212204,-0.0,-5.4,49.6,-1.0,390.18737433694247,27537.19063663257,27537.19063663257,298.10164925319316,0.08082471319336207,3.7879945488748565,91.00000000000001,0.4620415224642043
1306894505.78,8.4279392,5.1775315,6950.492348400001,-0.3,-5.4,49.6,-1.0,391.913825503833,29805.390498939723,29805.390498939723,298.88842073957045,0.08040870595819326,3.6753791096727637,93.70000000000002,0.4606106716330583
1306894507.27,8.4302041,5.178654,6817.1590108,-0.3,-5.4,49.6,-1.0,387.41335050389415,31748.30852905347,31748.30852905347,297.37541934297127,0.08165167364879318,3.671074395157113,92.80000000000001,0.4590526663837145
1306894508.96,8.4327608,5.1799278,6665.8794784,-0.3,-5.4,49.1,-1.0,386.50794909526496,31755.806175259593,31755.806175259593,298.42060648047664,0.0790860543863357,3.753932687951711,93.0,0.45718783698738913
1306894510.43,8.4349549,5.181027,6535.3020464,-0.3,-5.4,48.9,-1.0,329.92273827546234,31370.612585328814,31370.612585328814,299.51276582206094,0.07748588334211898,3.652270752489933,91.60000000000001,0.45515061039071353
1306894510.85,8.4355916,5.1813471,6497.3099192,-0.3,-5.4,48.9,-1.0,335.603447184142,29134.118745254033,29134.118745254033,299.6974461542727,0.07474320558147547,3.5978809504065543,94.10000000000002,0.4531139196645544
1306894511.27,8.4362075,5.1816572,6460.466086,-0.3,-5.4,48.8,-1.0,324.739976774051,26934.756155403666,26934.756155403666,300.5577401082438,0.07310070373297876,3.5290658520500515,94.9,0.45152843191302333
1306894512.53,8.4380718,5.1825989,6348.6550588,-0.3,-5.4,48.6,-1.0,327.8948733700832,25250.768961327074,25250.768961327074,300.4466636830947,0.07531739505477134,3.493199247196496,94.10000000000002,0.4498572814318335
1306894512.95,8.4387006,5.1829175,6310.7941652,-0.3,-5.4,48.6,-1.0,332.20168843034315,22607.53042635307,22607.53042635307,299.25280296510596,0.07530623622734642,3.5269452683605023,94.30000000000001,0.44818896340908637
1306894513.16,8.4389998,5.1830693,6292.7823536,-0.3,-5.4,48.5,-1.0,315.88275197338726,21511.745807113515,21511.745807113515,299.34258972042073,0.07511723181729545,3.572760697733277,95.9,0.44652179368030237
1306894513.79,8.4399308,5.1835426,6236.5815644,-0.3,-5.4,48.4,-1.0,328.08625868580316,22736.48779949601,22736.48779949601,299.3721566994368,0.07349958128063369,3.4622877952468385,96.39999999999999,0.4448116012043619
1306894514.21,8.4405455,5.1838557,6199.4096472,-0.3,-5.4,48.4,-1.0,325.07105502046477,23283.11327358171,23283.11327358171,301.22988906812816,0.07595747501842894,3.4507410959445806,94.3,0.44305907495764274
1306894515.05,8.4417859,5.1844892,6124.179986,-0.3,-5.4,48.2,-1.0,328.33219131513977,23870.286912953256,23870.286912953256,301.2094995398428,0.07487248047149854,3.4462036838185863,94.4,0.4414421239515185
1306894515.47,8.4423896,5.1847983,6087.4673864,-0.3,-5.4,48.2,-1.0,319.79201606131556,25060.712965928476,25060.712965928476,298.47900813416294,0.0773636273169918,3.3759465132821362,94.1,0.4400924957800399
1306894516.1,8.4433031,5.1852673,6031.7915316,-0.3,-5.4,48.2,-1.0,322.9754646924827,25046.917018473392,25046.917018473392,298.1714363260513,0.08046374502092153,3.4952223055484337,95.89999999999999,0.43891763794976874
1306894516.31,8.4436108,5.1854255,6012.9923184,-0.3,-5.4,48.0,-1.0,326.236044611037,23009.6473298948,23009.6473298948,298.39754724159155,0.08343595546411826,3.4384003495925306,94.89999999999999,0.4377875635840644
1306894516.73,8.4442225,5.1857405,5975.5907424,-0.3,-5.4,48.0,-1.0,324.7528955944245,21631.593182271357,21631.593182271357,298.9721760349136,0.08478295897926086,3.5656417620573273,96.69999999999999,0.4366561878185351
1306894517.57,8.4454362,5.1863675,5901.1484828,-0.3,-5.4,47.8,-1.0,322.3233075797866,20177.359759199,20177.359759199,298.08884627032984,0.08196809851429855,3.5576425014849895,96.39999999999999,0.43561200584128223
1306894518.42,8.4466534,5.186999,5826.2140972,-0.3,-5.4,47.8,-1.0,319.88407461149336,18126.60744578603,18126.60744578603,298.81387216445876,0.08150445708124913,3.619097957468709,95.2,0.4344813190521309
1306894518.84,8.4472543,5.1873118,5789.0749884,-0.3,-5.4,47.6,-1.0,319.95329513506056,17808.125076976783,17808.125076976783,299.4139306647185,0.08314803139438064,3.6449855442398187,95.10000000000001,0.4333060019042744
1306894519.27,8.447874,5.187635,5750.7219688,-0.3,-5.4,47.5,-1.0,322.2748434777912,17485.272174314854,17485.272174314854,300.53377119080267,0.08444656390051421,3.6347401568598334,91.5,0.4321723295508185
1306894519.9,8.4487673,5.1881024,5695.2429644,-0.3,-5.4,47.4,-1.0,317.6220074156631,17513.381771609707,17513.381771609707,299.63344360200364,0.08076999147573641,3.671500156103775,92.3,0.4309959406619297
1306894520.53,8.4496677,5.1885751,5639.6327264,-0.3,-3.3,47.3,-1.0,320.36206465137343,17452.146760537045,17452.146760537045,300.6937482402162,0.0827864594331109,3.730124640565117,90.60000000000001,0.42986533042570924
1306894520.95,8.4502707,5.1888928,5603.838761999999,-0.3,-3.0,47.2,-1.0,321.9299700594631,17653.575091215753,17653.575091215753,302.60975848441535,0.08158129228184455,3.7396403577263277,87.7,0.4287368636715535
1306894521.16,8.4505611,5.1890461,5587.0736696,-0.3,-3.0,47.2,-1.0,309.50650342058054,17532.9471290153,17532.9471290153,303.2201154497434,0.08096676963879298,3.637384687538408,85.3,0.42769918869342577
1306894521.37,8.4508568,5.1892023,5570.2429604,-0.3,-3.1,47.2,-1.0,315.0746491977871,18638.157392701556,18638.157392701556,304.27351698665296,0.0797630769927611,3.6950552489812196,84.10000000000001,0.4266661068911511
1306894521.79,8.4514499,5.1895164,5537.1064764,-0.3,-3.1,47.2,-1.0,316.37206796327285,19046.624314508077,19046.624314508077,303.37064470688125,0.0791563518035792,3.600413597199858,80.80000000000001,0.42564297696989123
1306894522.21,8.4520484,5.1898341,5504.2980764,-0.3,-3.1,47.2,-1.0,319.1785005070445,19366.758009925717,19366.758009925717,304.6774938891801,0.08126114359230302,3.6862565482096934,81.30000000000001,0.42471699271792274
1306894523.06,8.4532372,5.1904676,5440.3545048,-0.3,-2.9,46.8,-1.0,313.46301213488687,19819.956748136447,19819.956748136447,304.9383236201588,0.07927959223295118,3.6774265406414908,81.0,0.42381665369780014
1306894523.48,8.4538204,5.1907797,5409.5474171999995,-0.3,-2.7,46.8,-1.0,311.6032575447439,19037.997731165677,19037.997731165677,302.9760666090676,0.07889546984992503,3.585539843899387,78.3,0.4229310893933383
1306894523.69,8.4541155,5.1909379,5394.061852399999,-0.3,-2.7,46.7,-1.0,315.42436249993386,17473.171296306486,17473.171296306486,303.351139554863,0.07838334092683741,3.711683687892358,81.10000000000001,0.42209888248170224
1306894524.54,8.4552922,5.191571,5333.235078799999,-0.3,-2.3,46.5,-1.0,310.76749416303727,16479.86207112744,16479.86207112744,302.9437662626034,0.08041781840832565,3.6717364355912783,82.80000000000001,0.4212541974423321
1306894524.96,8.4558727,5.1918847,5303.7403272,-0.3,-2.2,46.5,-1.0,310.5336832205965,15773.178773083126,15773.178773083126,303.3717779735859,0.07868649634483023,3.586985470456956,82.7,0.4204704485359454
1306894525.17,8.4561642,5.1920425,5289.0421639999995,-0.3,-2.1,46.4,-1.0,312.3912271390748,14951.893048766311,14951.893048766311,301.6725694477109,0.0795740029440756,3.582527068394878,84.6,0.41973592316411695
1306894525.38,8.4564456,5.1921951,5274.934552,-0.3,-2.0,46.4,-1.0,300.82881437855724,15118.291242917725,15118.291242917725,301.8651490311512,0.08067023577484778,3.653920661031923,85.0,0.41900759857969
1306894525.8,8.4570273,5.1925113,5246.0303516,-0.3,-1.9,46.4,-1.0,311.6838970517846,16296.945473026017,16296.945473026017,300.4695172139567,0.08025827981124582,3.6675024191349084,86.2,0.41825110251669784
1306894526.22,8.4575918,5.1928191,5218.2744452,-0.3,-1.7,46.4,-1.0,302.50092330079667,17031.295683366727,17031.295683366727,299.94621508682576,0.07868799780340435,3.6933587555637755,88.5,0.41750716113437064
1306894527.07,8.4587508,5.1934539,5162.3033148,-0.3,-1.4,46.0,-1.0,307.3237760751909,18002.75726138456,18002.75726138456,298.1726336962869,0.07873417261335781,3.6966431520103713,88.89999999999999,0.4167091733828396
1306894527.49,8.4593125,5.193763,5135.6300856,-0.3,-1.4,45.9,-1.0,301.4403592982557,19230.2258985224,19230.2258985224,296.42044912766795,0.07840698263398199,3.672502536049944,91.20000000000002,0.4159981497607923
1306894527.91,8.4598759,5.1940741,5109.1537068,-0.3,-1.1,45.8,-1.0,302.8758689097397,19725.918189530184,19725.918189530184,297.36299897286347,0.07826091525464979,3.730741522476335,91.2,0.4152972311256218
1306894528.54,8.4607205,5.1945424,5070.046093999999,-0.3,-0.9,45.8,-1.0,302.85471316708555,18902.19605317143,18902.19605317143,297.2426710800019,0.07691631946432886,3.7250076328879183,90.9,0.41454119438021486
1306894528.97,8.461291,5.1948601,5044.0290328,-0.3,-0.7,45.8,-1.0,300.05163881433936,18362.17627331616,18362.17627331616,297.25035183953355,0.0771042023976323,3.745254664980721,87.30000000000001,0.4138663802944757
1306894529.18,8.4615621,5.1950114,5031.758691200001,-0.3,-0.6,45.5,-1.0,292.1771387833763,17583.719189200667,17583.719189200667,295.0897174251302,0.07773805397616883,3.8056551506160754,86.5,0.41323175649745025
1306894529.39,8.4618418,5.1951678,5019.1602656,-0.3,-0.6,45.5,-1.0,301.35084952141955,17264.740895784016,17264.740895784016,295.0038037802216,0.07919511592967207,3.8474104344292277,87.3,0.4126020320880015
1306894529.81,8.4623939,5.1954774,4994.5211572,-0.3,-0.4,45.5,-1.0,297.82301687930095,16982.423848529932,16982.423848529932,293.1657663068252,0.07915865465943234,3.751271079826969,89.79999999999998,0.41194773418773906
1306894530.24,8.4629564,5.1957939,4969.7180068,-0.3,-0.2,45.5,-1.0,296.6318671809852,16323.057952080499,16323.057952080499,292.81914621814104,0.07954904664980529,3.7404997831955025,87.8,0.4113030054038369
1306894531.09,8.4640602,5.1964185,4921.8505512,-0.3,0.1,45.5,-1.0,294.91409973376005,16116.69224395278,16116.69224395278,294.40229389081594,0.08158978529275825,3.7687977999099265,88.29999999999998,0.41061134967330326
1306894531.52,8.4646118,5.1967324,4898.3597368,-0.3,0.2,45.5,-1.0,291.52602410998264,14748.404252574584,14748.404252574584,295.43650252951744,0.07945744063140721,3.7842577635918047,88.9,0.40999548134434444
1306894531.94,8.4651528,5.1970414,4875.5578988,-0.3,0.4,45.5,-1.0,293.2818939655553,14145.618046076183,14145.618046076183,296.5468658129911,0.0817185358838762,3.7935530236575783,87.9,0.4093886462612298
1306894532.15,8.4654209,5.197195,4864.337426,-0.3,0.5,44.8,-1.0,290.8691349070071,14239.00943086737,14239.00943086737,297.5544485405164,0.08039409759245807,3.7019949290268372,89.40000000000002,0.40881740829097607
1306894532.36,8.4656884,5.1973485,4853.2481867999995,-0.3,0.5,44.8,-1.0,290.0527582085384,14342.612726989377,14342.612726989377,297.63614543588994,0.08069278175946545,3.5975148947182585,89.0,0.408311546523697
1306894532.78,8.4662224,5.1976559,4831.2337504,-0.3,0.7,44.8,-1.0,289.9628126200105,14584.096903784415,14584.096903784415,296.61835857268613,0.0785832810960797,3.562929748278397,89.5,0.4078150242139857
1306894533.2,8.4667497,5.1979606,4809.7442484,-0.3,0.9,44.8,-1.0,286.65475744572524,15507.014289562218,15507.014289562218,298.83159025967046,0.07655541752755697,3.54075402379184,92.2,0.40729699053069607
1306894533.62,8.4672779,5.1982671,4788.4844052,-0.3,1.0,44.8,-1.0,287.2451942790505,15406.322119816828,15406.322119816828,299.29804754087536,0.07497506188079878,3.475907753968477,91.80000000000001,0.4067587468736533
1306894533.83,8.467539,5.198419,4778.051334,-0.3,1.1,44.4,-1.0,284.6336077938768,15306.269209852644,15306.269209852644,300.12914086971887,0.07152662282198799,3.5506000254037158,89.50000000000001,0.406253650635683
1306894534.25,8.4680602,5.1987233,4757.382042,-0.3,1.1,44.3,-1.0,283.9981353845586,15187.476507032845,15187.476507032845,299.8256864453111,0.07133232775582347,3.5632933695061055,92.90000000000002,0.405758200067004
1306894535.09,8.4691023,5.1993353,4716.7652428,-0.3,1.6,44.3,-1.0,284.55559849078605,15053.454946973336,15053.454946973336,300.1937097434878,0.0700830704427245,3.4897746845243622,94.00000000000001,0.4052796676960504
1306894535.51,8.4696168,5.1996394,4697.0473944000005,-0.6,1.7,44.3,-1.0,281.3764160204876,14900.560147218144,14900.560147218144,300.8595527632773,0.06955328824055837,3.382855485162312,92.2,0.4048099389121484
1306894535.93,8.4701222,5.1999394,4677.9200972,-0.6,1.9,44.3,-1.0,276.7006789870278,14669.548711675629,14669.548711675629,299.5228020723326,0.06895618477152356,3.342433549687227,90.6,0.4043487840565053
1306894536.15,8.4703846,5.2000957,4668.0447687999995,-0.6,2.0,43.8,-1.0,274.63714112939215,14713.554915774426,14713.554915774426,298.5935050978973,0.06783740973556367,3.4456440950967724,89.39999999999999,0.4038907678710285
1306894536.36,8.470639,5.2002475,4658.5303328,-0.6,2.0,43.7,-1.0,278.7972052059165,14721.123876572574,14721.123876572574,298.62697465085614,0.06802500269436232,3.4925603444905993,90.99999999999999,0.40343642622623416
1306894536.78,8.4711452,5.2005506,4639.763928,-0.6,2.2,43.6,-1.0,277.99584632219353,14225.625305145135,14225.625305145135,300.6107123405104,0.06832896811238574,3.630996620886897,93.6,0.40298966332159725
1306894537.2,8.4716471,5.2008524,4621.3584156,-0.6,2.4,43.5,-1.0,275.73597546008904,13792.683193785308,13792.683193785308,300.24811607371856,0.0709730899962876,3.651753025875155,90.7,0.40255009639246336
1306894537.62,8.4721446,5.201153,4603.3137956,-0.6,2.5,43.4,-1.0,274.0571106558853,13027.251784805914,13027.251784805914,299.7623205427267,0.06888397539476117,3.678565410435266,90.3,0.40211803165055615
1306894537.83,8.4723921,5.201303,4594.3899108,-0.6,2.6,43.3,-1.0,272.7621490147425,12202.272686813381,12202.272686813381,299.70966303357164,0.07061057543487395,3.626247476393039,90.39999999999999,0.4016894883434694
1306894538.25,8.4728859,5.2016033,4576.7717999999995,-0.6,2.6,43.2,-1.0,272.2582347042012,11846.810644928953,11846.810644928953,300.8667178413373,0.07208234083786837,3.6020728488981693,88.30000000000001,0.40126806445895497
1306894539.09,8.4738566,5.2021977,4542.651064,-0.6,2.2,43.2,-1.0,268.1907616529691,11943.87704342266,11943.87704342266,300.60322559245117,0.07109472678783767,3.6435054351493252,87.60000000000001,0.4008617980547556
1306894539.51,8.4743429,5.2024975,4525.1313784,-0.6,-0.2,43.2,-1.0,269.6091692257652,12148.700575612424,12148.700575612424,299.51803201082805,0.07266652464441364,3.736279277589685,88.60000000000001,0.40046066069692526
1306894539.93,8.4748237,5.2027955,4506.430590399999,-0.6,0.3,42.7,-1.0,267.1453375063557,12305.865245381137,12305.865245381137,301.84321209723237,0.07228594189046707,3.6905406509943917,90.0,0.4000605185271965
1306894540.14,8.4750612,5.2029432,4496.7521123999995,-0.6,0.9,42.7,-1.0,264.11334252823366,12575.929573640437,12575.929573640437,302.6648410575252,0.07241077613972913,3.653850604275604,90.5,0.399660835675053
1306894540.35,8.4752969,5.2030902,4487.040826,-0.6,1.3,42.6,-1.0,262.864531709278,12531.115799353747,12531.115799353747,302.45418583158647,0.07316236885342998,3.580734464083282,88.60000000000001,0.3992606935053242
1306894540.77,8.4757793,5.2033925,4466.9948936,-0.7,2.2,42.6,-1.0,269.4584949492203,12525.652224006266,12525.652224006266,302.65980941096467,0.07542319534426452,3.4926888305020847,88.8,0.398857565771291
1306894541.4,8.4764788,5.2038338,4438.320352,-0.7,2.9,42.6,-1.0,260.7964763728573,12288.194668627712,12288.194668627712,302.6744282708,0.07478168345978656,3.4524449371832566,89.6,0.39843047696989126
1306894541.82,8.4769433,5.2041289,4419.750797600001,-0.7,3.2,42.1,-1.0,260.2898676638574,12367.079902124826,12367.079902124826,304.0156959035465,0.07813521734799472,3.4910550858683522,88.39999999999999,0.3980021633215972
1306894542.24,8.4774049,5.2044239,4401.738986,-0.7,3.4,42.0,-1.0,259.31825052865116,12112.550565735364,12112.550565735364,304.9874301459877,0.07700430707844003,3.5328299801668974,88.3,0.39755264451144856
1306894543.08,8.4783228,5.2050162,4367.1917408,-0.7,3.8,41.7,-1.0,258.57439764796237,11457.581352687701,11457.581352687701,306.51128229994396,0.07478112371797645,3.6187944024639713,87.8,0.39706362438896375
1306894543.5,8.4787796,5.2053138,4350.590690399999,-0.7,4.0,41.6,-1.0,258.3021656907551,11136.984424314356,11136.984424314356,305.5024230419927,0.07412246119666124,3.6545037168060435,85.30000000000001,0.396615483531571
1306894543.92,8.4792347,5.2056124,4334.5145744,-0.7,4.2,41.6,-1.0,257.8019770271072,10795.894568786383,10795.894568786383,304.0396782294748,0.07299309932630837,3.5897293151811542,83.60000000000001,0.3961707110031371
1306894544.13,8.4794616,5.2057619,4326.6733668,-0.7,4.3,41.4,-1.0,257.40267697496466,10319.478137488226,10319.478137488226,302.1326519349642,0.07417221089103423,3.708203526118115,85.19999999999999,0.39575127749482564
1306894544.34,8.4796881,5.2059117,4318.9305844,-0.7,4.4,41.3,-1.0,257.6720781686043,10190.616897506292,10190.616897506292,299.89845629912304,0.07630411191451354,3.667142564733105,86.2,0.3953363606094362
1306894544.76,8.4801397,5.2062119,4303.8387204,-0.7,4.6,41.2,-1.0,257.0161571417598,10111.164522211486,10111.164522211486,298.7242900372424,0.07422729263659,3.7626357826414627,85.0,0.39490888904338206
1306894545.6,8.4810388,5.2068156,4275.0657536,-0.7,5.0,40.9,-1.0,256.940793472272,9719.91375493779,9719.91375493779,297.4699951234912,0.07448821206751367,3.820749206236202,81.7,0.39446105439771273
1306894546.02,8.4814862,5.2071191,4261.4174592,-0.7,5.2,40.7,-1.0,256.650186771863,9616.349252020971,9616.349252020971,297.9119036229813,0.07379473759068954,3.874013914217237,82.19999999999999,0.39404828099438816
1306894546.44,8.4819329,5.2074242,4248.261290799999,-0.7,5.4,40.6,-1.0,256.97582029596776,9495.64108998506,9495.64108998506,298.56417424956624,0.07343660867669329,3.890979968935826,83.30000000000001,0.3936481388246594
1306894546.65,8.4821492,5.2075727,4242.0276948,-0.8,5.5,40.5,-1.0,248.82382894859361,9404.460066788832,9404.460066788832,297.6465115538388,0.07623956331774606,3.922903911604308,82.9,0.39327547915711775
1306894546.86,8.4823704,5.2077251,4235.7940988,-0.8,5.6,40.4,-1.0,255.65992506347393,10164.800597981874,10164.800597981874,296.35648066712474,0.07555610867078623,3.7901956070290943,83.7,0.3929688846689288
1306894547.28,8.4828146,5.2080326,4223.589373999999,-0.8,5.8,40.3,-1.0,256.64286649164853,10146.536193068294,10146.536193068294,297.66790031365946,0.07729365601395574,3.806917838454009,86.4,0.39267254827347825
