timestamp,longitude,latitude,altitude,roll,pitch,yaw,heading,air_speed,engine_0,temperature_in,humidity_in,pressure_in,heart_rate,oxygen_mask
1306893631.32,3.9486208,5.4467126,104.2979036,-1.0,5.0,-1.0,-1.0,173.7162389499265,22293.559196760398,297.60490345033395,0.0729032032435575,3.8122350434498333,92.70000000000002,0.2831833435669935
1306893631.74,3.9482558,5.4465985,104.4291372,-1.0,6.5,-1.0,-1.0,173.7162389499265,20012.326231597333,297.4823614214076,0.07497954350595937,3.8794605641637987,93.10000000000002,0.28305098354949565
1306893632.16,3.9478735,5.446479,104.5275624,-1.0,7.4,-1.0,-1.0,181.63961978702787,18072.310684177995,296.87359329723796,0.07357292967754088,3.877336016923137,92.20000000000002,0.28300933875509493
1306893632.58,3.9474962,5.4463611,104.5931792,-1.0,8.0,-1.0,-1.0,179.37518111975177,17017.03047254621,297.7074816132279,0.07726437926349507,3.8735745029228386,92.0,0.28298200935876944
1306893633.01,3.9470966,5.4462362,104.658796,-1.0,8.4,-1.0,-1.0,185.54211955966952,16118.788780692,296.2109637147246,0.07617858659133617,3.87449498777584,91.89999999999999,0.282965856690353
1306893634.5,3.9456465,5.445783,108.3661452,-1.0,9.9,-1.0,-1.0,194.17764092080319,16118.788780691995,296.2109637147246,0.07617858659133617,3.87449498777584,91.9,0.282965856690353
1306893634.92,3.9452248,5.4456513,111.58136839999999,-1.0,10.1,-1.0,-1.0,200.35871326395906,17017.03047254621,297.7074816132279,0.07726437926349505,3.873574502922838,92.00000000000001,0.28298200935876944
1306893635.36,3.944769,5.445509,116.305778,-1.0,10.3,-1.0,-1.0,206.62966173210089,18072.310684177995,296.87359329723796,0.07357292967754087,3.877336016923136,92.20000000000002,0.28300933875509493
1306893635.79,3.9443148,5.4453675,122.37533199999999,-1.0,10.4,-1.0,-1.0,210.60964806224223,20012.32623159733,297.4823614214076,0.07497954350595937,3.8794605641637983,93.10000000000001,0.28305098354949565
1306893637.52,3.9424082,5.4447765,161.1548608,-0.1,10.4,-1.0,-1.0,219.84500525183086,22293.559196760398,297.60490345033395,0.0729032032435575,3.8122350434498333,92.7,0.2831833435669935
1306893638.8,3.940859,5.4443015,206.8241536,-0.2,10.5,-1.0,-1.0,241.4641103999274,24519.551354929754,298.85845663327666,0.07031726379195931,3.76059772839807,90.30000000000001,0.2834225714760048
1306893639.66,3.9397457,5.4439638,247.1456772,-0.2,10.5,-1.0,-1.0,258.27957916223863,27244.871160437167,297.00833564087975,0.07062272599478692,3.6765298934457036,90.40000000000002,0.2837555767253487
1306893640.09,3.939174,5.443792,270.0459404,-0.4,10.5,-1.0,-1.0,265.3478349686431,31101.638492275375,297.922268209372,0.07413317053420217,3.6810629058226816,89.9,0.28414178626165665
1306893640.51,3.9385951,5.443619,294.5538152,-0.5,10.3,246.7,-1.0,275.0485522087121,35570.082671376316,299.0351350395186,0.07149408603249541,3.6709518853344534,88.2,0.2845850277314729
1306893640.95,3.9379756,5.443435,322.0800628,-0.6,10.3,246.7,-1.0,280.99108744807046,41707.76504802639,300.5297672420286,0.07272678758025514,3.616050727895583,86.60000000000001,0.2850923440044388
1306893641.79,3.9367474,5.4430738,379.46195439999997,-0.9,10.1,246.7,-1.0,291.62842716816635,48419.68457880652,301.10070807401536,0.07529536872888185,3.549945313521031,83.70000000000002,0.2857249008723303
1306893642.22,3.936102,5.442886,409.8097244,-1.1,9.9,246.7,-1.0,298.96362101972505,55033.827665466975,301.8028296863938,0.07679564790205912,3.558161184679659,83.90000000000002,0.28642076701406255
1306893642.64,3.9354538,5.4426986,439.5341348,-1.3,9.5,246.7,-1.0,306.9117462228929,61491.95498664837,301.60341081961724,0.07697381411281382,3.6030783246609897,82.00000000000001,0.2871749664891282
1306893643.06,3.9347886,5.4425075,468.6351856,-1.5,8.9,246.7,-1.0,314.2175307664696,67524.39760018534,299.72577055095115,0.07723202733103575,3.513833473941795,79.7,0.28798290612167415
1306893643.48,3.9341121,5.4423143,496.2926668,-1.7,8.5,246.5,-1.0,318.7792482150313,73077.5661381271,299.90814964771727,0.07935452276742434,3.4914927760921715,80.8,0.2887648943106505
1306893643.9,3.9334141,5.442116,522.3753448,-2.0,8.1,246.5,-1.0,328.11202896250666,78739.22235841803,298.98666350607084,0.0792483394879377,3.4888915355912706,82.5,0.2895011803998893
1306893644.33,3.9326905,5.4419112,546.7191776,-2.3,7.8,246.5,-1.0,331.5624388906319,85153.18152034526,301.1635570831324,0.07773741154540507,3.519448998396427,84.4,0.29020018521178786
1306893644.75,3.9319561,5.441704,568.5367636,-2.7,7.6,246.4,-1.0,343.7707417862036,91116.95213959995,299.0720058849977,0.07755263202669373,3.425478710312554,85.80000000000001,0.29089666377696716
1306893645.18,3.9311823,5.4414861,588.582696,-3.1,7.6,246.4,-1.0,353.2159440026453,98015.72369815636,298.74394704597785,0.07870617635749805,3.4993377288497673,86.3,0.2915827311435463
1306893645.62,3.9303845,5.4412613,606.7585496,-3.5,7.7,246.3,-1.0,355.5726001164223,105669.72512529796,297.6929869078525,0.07932086217093386,3.529221895036532,87.89999999999999,0.29224698092482365
1306893646.04,3.9296029,5.4410397,623.3596,-3.8,8.1,246.2,-1.0,364.95093338074645,112869.9262450326,297.5489515904441,0.07748167619001735,3.5284314967669332,88.19999999999999,0.2928160754130127
1306893646.47,3.9287863,5.4408067,640.4199679999999,-4.2,8.5,246.1,-1.0,372.80029422208656,120817.7731628386,295.169909304559,0.07747664658755343,3.512765450821375,85.89999999999999,0.2933541659641938
1306893646.89,3.9279598,5.4405689,658.2677375999999,-4.4,8.9,246.0,-1.0,386.89152731078644,129044.02772607333,294.3983600976969,0.08061537369772762,3.4802483677303115,87.1,0.293864544354395
1306893647.31,3.9271378,5.4403305,677.165376,-4.6,9.3,246.0,-1.0,385.3434782512547,137645.6088998864,295.54053394967195,0.08115397053564674,3.492045335023822,90.30000000000001,0.2943511147830914
1306893647.73,3.9262916,5.4400829,698.0643268,-4.6,9.5,245.7,-1.0,397.2011102684418,145027.3434221125,295.33553322628575,0.07912525777887426,3.4986465502330115,89.90000000000002,0.2948219153080258
1306893648.15,3.9254371,5.4398308,720.7677396,-4.8,9.7,245.6,-1.0,401.9572319984285,153822.7013824343,296.83834039581564,0.08181149749250075,3.468632158968981,89.9,0.29528483088107915
1306893648.58,3.924537,5.4395631,746.2598664,-4.8,9.7,245.4,-1.0,414.1668639918756,161520.64499016246,296.2211287262032,0.08277964114502429,3.507610003908582,86.7,0.29575042580671346
1306893649.0,3.9236646,5.4393018,772.6050116,-6.8,12.8,245.3,-1.0,411.85024038221655,169540.1876993259,296.5528640803236,0.08199330127173786,3.587688085473149,87.30000000000001,0.29622658503680976
1306893649.44,3.9227286,5.4390168,806.0039628,-25.6,14.0,244.6,-1.0,423.5527410190132,176511.55364498697,295.9593797748859,0.08038928177361662,3.5318735715113845,90.3,0.2967339013097756
1306893649.86,3.9218414,5.4387326,842.9790296,-39.9,15.3,243.0,-1.0,425.2313359037211,183726.9778866504,296.5456899620193,0.07787982420255073,3.5811252700349656,89.3,0.2972850824121378
1306893650.29,3.9209294,5.4384172,885.5643328000001,-42.8,14.8,241.3,-1.0,433.91207637770145,188981.56752646508,297.32964040832786,0.07954278948568136,3.6139789318840494,89.8,0.29789689343575987
1306893650.71,3.9200714,5.4381005,927.7887436000001,-47.4,13.0,240.0,-1.0,424.0617613172789,192162.01397166803,297.7640583995022,0.07843364615529795,3.5446084725725426,91.5,0.2985674205573697
1306893651.15,3.9191857,5.4377583,970.5380888,-52.8,11.7,239.0,-1.0,421.766461522223,192079.96185814711,299.9692334659524,0.07756538952294341,3.4673232191310674,92.9,0.2992960513535201
1306893651.58,3.9183352,5.4374177,1009.1863840000001,-54.6,10.4,238.1,-1.0,417.31672034363265,187423.4882060101,301.15108934603415,0.07850642290741722,3.458141200558507,92.80000000000001,0.30007076701406254
1306893652.0,3.9175062,5.4370761,1043.6680124,-55.8,9.5,237.5,-1.0,418.68240630178366,179570.0122067328,301.3673130127794,0.08028697782303172,3.555249558757561,91.4,0.3008771755879909
1306893652.43,3.9166651,5.4367202,1075.2296932000002,-57.5,8.9,236.7,-1.0,416.93751746155976,169609.50608530134,301.4310525874722,0.07903541034640596,3.6598435888972363,90.7,0.3017042534532577
1306893652.85,3.9158427,5.4363616,1102.7231324,-58.3,8.4,235.9,-1.0,420.24878111583126,160975.2488620972,302.4290825272308,0.07640219272718747,3.637873762310511,92.1,0.3025360010473085
1306893653.28,3.9150228,5.4359917,1127.0013483999999,-58.7,8.0,234.9,-1.0,412.52802149458813,154463.97954698635,304.5188727747524,0.07697271288919107,3.636975269249413,92.0,0.3033629258067135
1306893653.72,3.9141849,5.4355987,1148.786126,-59.3,7.7,233.8,-1.0,416.3155841443427,150100.71700143057,302.7334946068251,0.07731720223032705,3.6886771386443358,91.7,0.3041627508285857
1306893654.14,3.913406,5.435217,1166.5682788,-59.6,7.5,232.5,-1.0,410.78813854051504,147336.98352150124,301.94069110771056,0.07873245956646968,3.6604096016574736,93.6,0.30491779238589106
1306893654.56,3.9126385,5.4348229,1181.92261,-59.6,7.5,231.1,-1.0,410.9752636245115,145389.05663790047,301.259360136131,0.07781167950217512,3.681550778098994,93.50000000000001,0.305609295010563
1306893654.99,3.911881,5.4344132,1195.2428204,-59.9,7.5,229.6,-1.0,403.38589040709564,141635.45521619523,301.10347019055007,0.07797462486874109,3.7294193419175063,94.00000000000001,0.3062333545031264
1306893655.41,3.9111465,5.4339934,1206.52891,-59.9,7.5,227.9,-1.0,408.77496734728,136855.65909748306,299.9648096889812,0.07658697072219836,3.802837640898089,93.30000000000001,0.3067839997349725
1306893655.84,3.9104388,5.4335646,1216.1089628,-60.1,7.5,226.2,-1.0,394.0122017201903,132675.00848101417,300.2221010432615,0.07683601245718337,3.8900119261251396,92.6,0.3072668190700556
1306893656.26,3.9097553,5.4331242,1224.245446,-60.1,7.5,224.3,-1.0,400.0157073594652,127283.00148501353,297.952228675307,0.07689079632382044,3.825597356827144,94.9,0.3076881664016391
1306893656.68,3.9090966,5.4326717,1231.1680184,-60.1,7.5,222.4,-1.0,397.27791525725365,123632.11255866954,297.65205406420324,0.07540536950459947,3.810747521796681,93.79999999999998,0.30805202248212904
1306893656.89,3.9087763,5.4324405,1234.252008,-60.1,7.5,221.4,-1.0,395.9338055094001,122189.7794247272,297.6357340477731,0.07691230552931062,3.877853742726123,94.19999999999999,0.3083589231820416
1306893657.32,3.9081543,5.4319669,1239.6982024000001,-60.1,7.5,219.2,-1.0,386.30270148065273,121165.03252337893,297.33678732456326,0.07601624528024314,3.887565321192282,91.8,0.3086218824996269
1306893657.74,3.9075652,5.4314846,1244.2913784,-60.1,7.6,217.1,-1.0,389.6008632512323,121697.73819809101,298.8961117919416,0.0754914140905994,3.821165548622884,89.8,0.30884472808142915
1306893658.18,3.906991,5.4309765,1248.3268116,-60.1,7.7,214.7,-1.0,379.74821402739815,124351.08663542756,300.1821092163373,0.07563284529325813,3.771578203864459,87.70000000000002,0.30903549798519114
1306893658.61,3.906473,5.4304794,1251.64046,-60.1,7.9,212.4,-1.0,369.01923980609183,126296.11819698024,301.35061228563313,0.07538028200081133,3.818570945362205,89.30000000000001,0.3091981729633189
1306893659.05,3.9059684,5.4299515,1254.5604076,-60.1,7.9,209.9,-1.0,372.002972477926,126417.72393990176,303.61776072435174,0.07584754819172682,3.8807695615588624,89.60000000000002,0.30933658066235653
1306893659.48,3.9055154,5.4294319,1257.0210376,-60.1,8.2,207.3,-1.0,364.77521171272844,128883.65412697823,303.1933842189422,0.07648510358993925,3.9488704339739766,90.60000000000001,0.30945439562298643
1306893659.9,3.905104,5.4289124,1259.1535836,-60.1,8.4,204.9,-1.0,364.33608528700404,129756.6528319986,302.92581893649754,0.07618855712003111,3.9164878223590294,90.20000000000002,0.3095548330683058
1306893660.33,3.9047242,5.4283804,1261.0236624000001,-60.1,8.6,202.3,-1.0,356.1148817606966,131798.40177377575,303.7335824226148,0.0737798757780114,3.984082155184739,90.50000000000001,0.3096406489038263
1306893660.75,3.9043934,5.4278621,1262.6640824,-60.1,8.8,199.7,-1.0,348.2290757117609,134907.24462938958,302.3441554940449,0.07668135383419486,3.891784868647353,90.9,0.3097141397174746
1306893661.17,3.9040969,5.4273375,1264.1732688,-60.1,9.0,197.1,-1.0,345.963802454146,137867.93641869715,300.91685696791393,0.07682851186736295,3.8000048607972774,90.9,0.3097839559904405
1306893661.6,3.9038312,5.4267977,1265.5512216,-60.1,9.2,194.3,-1.0,341.99086928032864,139022.2335027614,300.7005040431464,0.07526161824357262,3.7263005147169626,91.60000000000001,0.3098442796999768
1306893662.03,3.9036043,5.4262565,1266.8307492,-59.6,9.2,191.6,-1.0,337.8902661209594,140069.01258406808,299.16814789766534,0.07617586228940672,3.800432289176755,93.30000000000001,0.3098968715634938
1306893662.5,3.9033985,5.4256669,1268.5039775999999,-28.6,7.6,189.1,-1.0,332.7893134093741,139578.80709902965,298.9142756817412,0.07501612476369557,3.8343163031762852,94.0,0.3099439516159873
1306893662.94,3.9032265,5.4251204,1271.4567336,7.9,6.5,189.1,-1.0,327.94885799510575,138184.6968260371,299.5942763896237,0.07400571140663693,3.820647658430111,91.9,0.309990189586241
1306893663.36,3.903062,5.4246053,1275.0656576,19.8,6.5,189.2,-1.0,324.0914748600277,136844.47470672432,298.82743680090766,0.07447097219267809,3.7244014220828623,92.30000000000001,0.31003803516804335
1306893663.79,3.9028862,5.4240825,1279.0682824,28.3,6.8,190.0,-1.0,322.3260874032772,133795.14192170012,299.56300464501265,0.07642425084006468,3.7203357892111013,90.60000000000001,0.3100894787375971
1306893664.22,3.9027011,5.4235696,1282.9396736,40.4,7.6,191.1,-1.0,317.5180908525824,130574.8091551773,298.2699353139818,0.07649541852180589,3.64750647225742,90.80000000000001,0.3101449796124877
1306893664.65,3.9024979,5.4230595,1286.6798312,46.1,8.3,192.7,-1.0,317.9465794465547,125952.57189685757,297.6802174354617,0.07569836297863436,3.533597944188708,88.60000000000001,0.31020484400443876
1306893665.07,3.9022759,5.4225607,1290.19033,49.0,8.7,194.5,-1.0,320.9755643449728,120981.67486066259,298.4421549012554,0.07529543899597797,3.5370564810691034,88.9,0.3102690719134501
1306893665.49,3.9020364,5.4220792,1293.3727448000002,52.6,9.4,196.5,-1.0,313.5147362412234,117376.51687585385,297.7352966980596,0.07541991912554127,3.603945311311531,87.1,0.3103372040219366
1306893665.91,3.9017747,5.4216099,1296.2926924,55.0,9.9,198.8,-1.0,309.9692793592298,113291.81603755533,298.4944743791524,0.07469182818566504,3.6874537125253815,86.70000000000002,0.31040893411817455
1306893666.35,3.9014681,5.4211207,1299.1798316,56.2,10.1,201.3,-1.0,313.6496207897123,109249.92301816423,299.49124350912024,0.07418685881329493,3.660383665796421,84.60000000000001,0.31048441530802584
1306893666.77,3.9011466,5.4206625,1301.7060784,57.4,10.3,203.9,-1.0,314.095625334485,105798.45039433696,298.6109616036695,0.07396196284697215,3.645605403804962,86.2,0.3105618868740801
1306893667.21,3.9007816,5.4201964,1304.1667084,58.3,10.5,206.6,-1.0,312.35639754176566,101111.09625263259,297.83821691438146,0.07568402563284085,3.567198404962444,88.9,0.31063821014617105
1306893667.65,3.9003793,5.4197355,1306.430488,58.8,10.5,209.5,-1.0,317.2851300966169,95834.22756241464,298.2851280059092,0.0733576802000312,3.563560498902996,87.2,0.31071139474809584
1306893705.11,3.8843074,5.4397128,1393.7336404,35.6,6.3,86.8,-1.0,143.04816790561202,92283.11538376632,297.90887924468086,0.07119731855495016,3.4435183033973917,86.3,0.31097894724153413
1306893705.32,3.884644,5.4397351,1393.7664488,33.4,6.2,87.5,-1.0,295.18700020549477,84641.19980504568,297.1781600969832,0.07137188735536751,3.5347873596677575,85.80000000000001,0.31123754304205903
1306893705.54,3.8849856,5.4397551,1393.7664488,31.4,6.1,88.0,-1.0,285.19477523757706,116745.05691321434,296.91424186851754,0.07198571428675811,3.6098120792765203,88.00000000000001,0.31148741180846323
1306893705.75,3.8853272,5.4397725,1393.7664488,29.5,6.0,88.5,-1.0,299.0645617219825,174471.80601672846,295.9450888938163,0.07005424937136796,3.6581066805102966,87.10000000000002,0.3117290894112629
1306893705.97,3.885669,5.4397877,1393.7664488,27.6,5.9,89.0,-1.0,285.59473246525636,237155.58957667823,297.9420404436486,0.07076256147079289,3.6677128245016215,89.10000000000002,0.31196334137976683
1306893706.19,3.8860283,5.4398013,1393.7992571999998,25.8,5.9,89.4,-1.0,300.131836713477,295820.41724817536,297.1553044430028,0.07365508168945295,3.5918716155198265,88.40000000000002,0.312190856690353
1306893706.4,3.8863543,5.4398117,1393.8320655999999,24.0,5.8,89.9,-1.0,285.152269510175,275573.2231314106,297.18512558979774,0.07344611859467878,3.614162755966472,89.0,0.31241171189595235
1306893706.63,3.88672,5.4398214,1393.9304908,22.3,5.8,90.3,-1.0,292.38602890736826,175841.89773181095,297.89785247767395,0.07293029091447228,3.566660349353135,88.10000000000001,0.31262690218466627
1306893706.84,3.8870666,5.4398288,1394.028916,20.8,5.8,90.6,-1.0,303.2584960938682,81947.35362495169,297.1660020424748,0.07228059360377702,3.5950523646981876,84.6,0.31283658066235653
1306893707.05,3.8873909,5.4398342,1394.1601496,19.4,5.7,90.9,-1.0,283.6321650811229,6015.915208135975,296.14058144289993,0.07471601171036703,3.6002218271871715,84.5,0.3130412831995394
1306893707.26,3.8877359,5.4398385,1394.3241916,18.0,5.7,91.2,-1.0,302.03597533504177,91142.04212977653,295.2860151239226,0.07466543298248973,3.707504136108558,85.0,0.3130426611522953
1306893707.48,3.8880776,5.4398415,1394.521042,16.6,5.7,91.5,-1.0,285.4130187336558,89542.80808515375,296.32185262432023,0.07416912002737633,3.646169845973249,84.39999999999999,0.3130444218697056
1306893707.7,3.8884209,5.4398432,1394.7507008,15.3,5.7,91.8,-1.0,287.0742046225041,91281.75418794788,296.38998131009396,0.07558497697834744,3.588410341979931,82.0,0.31304671845763216
1306893707.91,3.8887642,5.4398437,1395.013168,14.2,5.7,92.0,-1.0,300.4038974490205,93010.91735079439,296.3132701912911,0.07779298347922264,3.6632687009760274,83.50000000000001,0.3130496274690057
1306893708.12,3.8890931,5.4398432,1395.3084436000001,13.0,5.6,92.2,-1.0,287.9492384818352,92646.56442200912,293.751863207724,0.07810703066620327,3.5494406034844204,82.4,0.31305322545675723
1306893708.34,3.8894394,5.4398417,1395.669336,11.9,5.6,92.4,-1.0,289.66283599020784,91937.59864347128,292.73183341157977,0.07850155537424038,3.5222744406315227,84.9,0.31305758897381764
1306893708.56,3.8898016,5.4398392,1396.0302284,10.9,5.6,92.6,-1.0,302.7665275478296,94218.68572599076,292.5286020984242,0.0779272841523273,3.4369116028640767,86.60000000000001,0.31306271802018676
1306893708.77,3.8901287,5.4398361,1396.4239292,10.0,6.0,92.8,-1.0,286.5586271569653,90140.7747147572,292.8958542763382,0.07959298174666589,3.4358908147656524,84.60000000000001,0.313068536042934
1306893708.99,3.8904749,5.4398321,1397.0144804,9.1,7.2,92.9,-1.0,289.57311742548495,90584.86066283581,292.98823790892646,0.0790871063934587,3.39729949926138,87.2,0.3130755023596444
1306893709.21,3.8908192,5.4398272,1398.0315408,8.2,9.1,93.1,-1.0,288.3316273586325,94183.78476573201,292.75732368007897,0.07713969750194205,3.421232554224052,86.3,0.3130845356054886
1306893709.42,3.8911614,5.4398214,1399.9672363999998,7.4,11.7,93.3,-1.0,299.873867888128,92075.14852325732,293.3793675060248,0.07586576898961442,3.377030168383132,87.4,0.31309770270960063
1306893709.63,3.8914977,5.4398147,1403.2480764,6.6,14.7,93.6,-1.0,294.96581273004057,93656.83796631207,293.68433252352924,0.07604504830848847,3.4515933402706946,88.00000000000001,0.3131180657892157
1306893709.84,3.8918167,5.4398075,1408.1037196,5.8,17.1,93.8,-1.0,280.1664109522748,94982.94900347352,294.47739911512866,0.07715791303469233,3.565442670271197,87.50000000000001,0.3131492228320853
1306893710.06,3.8921631,5.4397985,1415.6496516,5.0,19.5,94.0,-1.0,291.4143664205983,93784.30526853885,294.2005014112996,0.07745805054394944,3.447777697340345,86.60000000000001,0.3131973746256111
1306893710.27,3.8924912,5.4397892,1425.2953212,4.3,21.1,94.2,-1.0,289.5011184559951,93424.62404752031,296.16611629265674,0.07457692794466278,3.569670309288805,87.3,0.31326734400443873
1306893710.48,3.8928151,5.4397792,1437.2375788,3.5,22.6,94.4,-1.0,287.019956250474,95126.69315707147,297.6706820515269,0.07250436994333978,3.641182254984406,85.7,0.31336433656786833
1306893710.69,3.8931362,5.4397688,1451.4764244,2.9,23.8,94.5,-1.0,285.8086349193058,95835.10365267897,299.5186208080123,0.07481936671876559,3.640528505979218,83.3,0.3134937110210617
1306893710.9,3.8934518,5.4397581,1467.8150076,2.2,24.9,94.6,-1.0,282.49088893407776,95948.98945659914,298.4862594639871,0.0759683221853267,3.7413948651428273,83.2,0.31366029019866454
1306893711.11,3.893765,5.4397471,1486.22052,1.6,25.5,94.7,-1.0,281.8516433252432,95312.98944173587,298.45611151007154,0.07540999249884965,3.755732497069941,82.30000000000001,0.31386843761773714
1306893711.32,3.8940733,5.4397362,1506.3648776,1.0,26.0,94.7,-1.0,278.54568816795324,96384.4058605039,297.9128302298943,0.07661936398600541,3.762392169539379,84.7,0.3141212153955149
1306893711.54,3.8943932,5.4397246,1529.199524,0.5,26.2,94.8,-1.0,277.96790648479833,94451.85000124286,297.68997900293033,0.07735415497112752,3.750960826627045,82.90000000000002,0.3144227573902655
1306893711.76,3.8947267,5.4397126,1554.8885012,0.0,26.2,94.8,-1.0,290.69993700650025,92698.00234445882,296.3850663388455,0.07488061417126778,3.6422586186857626,81.90000000000002,0.3147765850368097
1306893711.97,3.8950401,5.4397013,1580.54467,-0.4,26.1,94.8,-1.0,287.76552696259773,90461.86029483887,298.1311691980084,0.07268428130078392,3.5532716628066963,85.20000000000002,0.31517894724153417
1306893712.18,3.895337,5.4396907,1606.0039884,-0.8,25.9,94.7,-1.0,278.91763555665176,86007.74967994835,300.1840708182062,0.06951471751359772,3.6422383448755413,86.4,0.31562310734652105
1306893712.39,3.895653,5.4396794,1634.0879788,-1.1,25.6,94.7,-1.0,296.9735578957547,83932.8939677143,298.59515072159957,0.06885028901432547,3.5985400499941465,87.30000000000001,0.31611029019866455
1306893712.61,3.8959811,5.4396679,1664.1732816,-1.4,25.2,94.7,-1.0,295.0742181978246,78902.36438385973,297.9393399187617,0.06789923499285992,3.5570240846844094,88.5,0.3166398068215866
1306893712.82,3.8962905,5.4396571,1693.1102903999997,-1.7,24.9,94.7,-1.0,292.4847115460544,77303.63356291316,296.5817277923815,0.06558144659567326,3.646015258749241,89.2,0.3172036191575447
1306893713.04,3.896602,5.4396464,1722.7034672000002,-2.0,24.5,94.6,-1.0,281.6991050392392,78602.08813122951,297.48780596343806,0.06424601265246102,3.641455982493372,90.4,0.3177983588775797
1306893713.26,3.8969348,5.4396351,1754.6260403999997,-2.2,24.1,94.6,-1.0,300.5380611949426,78704.13035832767,296.7480825800098,0.06543443461809222,3.7090387081069167,89.30000000000001,0.31842463840513874
1306893713.47,3.8972519,5.4396245,1785.2034692,-2.5,23.8,94.6,-1.0,300.4259573033401,77082.2488171589,297.21374500811925,0.06574505137274027,3.7604172974201546,88.10000000000002,0.3190752617647188
1306893713.68,3.8975532,5.4396145,1814.30452,-2.7,23.5,94.5,-1.0,285.6983320704478,78467.32820209218,298.6768180434733,0.06599398079373922,3.8321966098794666,90.80000000000001,0.31974050673409754
1306893713.89,3.8978728,5.4396041,1845.1116075999998,-2.9,23.3,94.5,-1.0,302.567963395146,79058.62627670396,299.67583511248176,0.06589173944676284,3.952891798202054,93.2,0.32041769396069425
1306893714.11,3.8982031,5.4395936,1876.8701388000002,-3.1,23.0,94.4,-1.0,298.51537267932076,75071.87677889617,298.7150687401931,0.06829116932399411,3.976084247512098,89.9,0.32110912003243525
1306893714.32,3.8985158,5.4395838,1906.7585911999997,-3.2,22.8,94.4,-1.0,295.9454916561272,76163.52660878358,298.16640215596317,0.07117110862033772,3.913491160093531,90.30000000000001,0.3218108807498456
1306893714.53,3.8988258,5.4395742,1936.2205344,-3.4,22.6,94.3,-1.0,293.2841721763589,77558.95448336065,298.9809224180917,0.075085231951113,3.9291767690302883,90.89999999999999,0.322515856690353
1306893714.75,3.8991508,5.4395644,1966.86358,-3.5,22.5,94.3,-1.0,293.1484542001394,77205.35994758092,299.8669333662788,0.07662186230971192,3.890464454892035,90.60000000000001,0.3232221340306855
1306893714.97,3.8994715,5.4395548,1996.8832659999998,-3.7,22.4,94.3,-1.0,289.34373949739035,78007.62071045623,299.6746465344929,0.08013819627064278,3.8735393342659576,89.60000000000001,0.3239309376177371
1306893715.18,3.8997908,5.4395456,2026.5092511999999,-3.8,22.3,94.2,-1.0,300.8626638748633,83135.39280739447,300.19480602345016,0.08214521469541246,3.8196616247796067,89.3,0.32463981775771955
1306893715.39,3.9001103,5.4395365,2055.938386,-3.9,22.2,94.2,-1.0,300.756154149101,81256.22552482209,300.9066363861073,0.0807256068306698,3.785353756781265,90.50000000000001,0.32534287987495497
1306893715.61,3.9004314,5.4395276,2085.2690956,-4.0,22.2,94.1,-1.0,288.5448905628815,78933.07129391533,302.5769504006745,0.08063305743375154,3.6854334440411587,90.6,0.32604303298081666
1306893715.82,3.9007482,5.439519,2114.0420624,-4.1,22.2,94.0,-1.0,297.84326177363687,80825.62730898563,300.618510666104,0.07960628339896203,3.5825984805858977,87.8,0.32674242055736963
1306893716.24,3.901372,5.4395028,2170.1116180000004,-4.2,22.2,93.9,-1.0,293.1454289350787,77341.82287837537,302.1478875970342,0.08003435737844498,3.5403211417599594,84.0,0.327500753890703
1306893716.46,3.9017075,5.4394945,2200.0000704,-4.3,22.2,93.9,-1.0,300.5223627382171,76876.72872219203,301.0612632393635,0.0783071808396862,3.5224194439534746,84.8,0.32825472370697595
1306893716.67,3.902018,5.439487,2227.526318,-4.3,22.2,93.8,-1.0,291.49979546291127,77617.59009688684,300.44276200642213,0.07474220825084836,3.5382662848570376,84.80000000000001,0.3290031817122253
1306893716.9,3.9023589,5.4394791,2257.6116208,-4.4,22.2,93.7,-1.0,291.6974195467457,78199.8283279525,301.0273475617873,0.07180790051060745,3.526619544556886,84.2,0.32975309422316135
1306893717.11,3.9026748,5.439472,2285.3675272,-4.4,21.6,93.7,-1.0,296.16681660430424,78305.93033293974,300.547919871018,0.07051173621189732,3.6120480443779397,83.2,0.33049627007617977
1306893717.33,3.9030216,5.4394644,2315.5512552,-4.5,20.2,93.6,-1.0,309.26961967579484,79414.01897857591,301.71486179671143,0.06695293422935822,3.5462907758363373,84.9,0.3312398286938526
1306893717.54,3.9033304,5.4394579,2341.8307836,-4.5,18.4,93.6,-1.0,288.63412608195284,77118.12349641637,299.59442591049816,0.06516560777318238,3.5103090344202554,87.70000000000002,0.33197557891257523
1306893717.75,3.9036575,5.4394509,2368.7008632,-4.5,16.3,93.6,-1.0,304.1393780686186,78469.1117978424,298.5624765075872,0.06526804199881951,3.523894813975814,89.70000000000002,0.33270535800268897
1306893717.96,3.9039729,5.4394442,2393.2415464,-4.6,14.0,93.6,-1.0,292.7342162729837,77334.01251050168,297.3756053887174,0.06381423973399493,3.515679573749755,91.4,0.33342396036489375
1306893718.17,3.9042936,5.4394373,2416.5683188000003,-4.6,12.1,93.6,-1.0,296.0100830554022,77573.15642305888,297.66281995415795,0.06477405562497465,3.4892083935384863,93.69999999999999,0.33412985494057174
1306893718.59,3.904955,5.4394223,2458.497454,-4.9,8.3,93.7,-1.0,302.27283200324797,80447.38093221231,295.4542742059156,0.06623423515194578,3.475099911140187,97.6,0.334802755203039
1306893719.02,3.9056343,5.4394059,2492.0932556000002,-5.4,5.2,93.8,-1.0,300.49592895271263,79989.0502326583,296.4576761698658,0.06795735159205969,3.5022691749106527,97.9,0.335484305946696
1306893719.44,3.9063048,5.4393886,2516.0105792,-6.0,3.9,93.9,-1.0,301.25982098200114,80894.17601495273,296.7636113757402,0.0700534917471445,3.4598761577404535,97.9,0.3361574358679558
1306893719.65,3.9066492,5.4393794,2525.1641228,-6.3,4.1,93.9,-1.0,308.0620748452389,82915.97466023263,295.9664561081972,0.07059864858440357,3.5017912843149848,96.49999999999999,0.33678172501931186
1306893719.88,3.9070127,5.4393696,2533.1037556,-6.6,6.1,93.9,-1.0,297.050455550832,81955.41095240109,295.23174058010153,0.07332865411289988,3.513059905269865,96.99999999999999,0.33735977620041424
1306893720.09,3.9073605,5.4393603,2539.7310524,-6.9,8.9,93.8,-1.0,310.0262759107978,82741.86305837713,292.7794831342369,0.07487670188922303,3.6050403283218095,94.7,0.3378828623771421
1306893720.3,3.9077085,5.4393516,2546.3583492,-7.2,12.4,93.7,-1.0,310.4396181943225,85370.68136708777,294.2329972641597,0.07615965245702094,3.6228650263686166,91.0,0.3383600933482708
1306893720.51,3.9080416,5.4393439,2553.4449636,-7.5,16.1,93.5,-1.0,298.011453864504,85250.86925494115,294.9689963554149,0.07663014399294178,3.5962927439543773,88.00000000000001,0.33879116290207656
1306893720.74,3.9084107,5.4393367,2563.1234416,-7.6,20.7,93.2,-1.0,301.19478966437407,91060.85394591714,294.3305734292169,0.07742894472861085,3.6752270500965345,84.9,0.33918755397819206
1306893720.95,3.9087611,5.4393313,2574.7704236,-7.6,22.2,92.9,-1.0,313.6052668761069,94265.20499927492,296.6881736983214,0.07974296292257659,3.7425778724805836,84.9,0.3395566922109129
1306893721.16,3.9090914,5.4393277,2588.090634,-7.4,23.5,92.6,-1.0,297.1131536254924,94806.10487265256,297.47722511408824,0.08088634042607006,3.7929699137432062,84.0,0.3398590762879033
1306893721.37,3.909424,5.4393253,2603.7402408,-7.2,24.8,92.3,-1.0,299.97408350046425,100911.54880786683,297.96379094226467,0.0780125205251938,3.830263858909415,86.7,0.34011958591170033
1306893721.58,3.9097588,5.4393243,2621.8504776,-6.8,26.0,92.0,-1.0,303.3077224064165,102944.22662501106,296.21932186273943,0.0771682852539369,3.910732527153363,87.20000000000002,0.3403665456667309
1306893721.79,3.9100758,5.4393245,2641.0762,-6.4,26.5,91.8,-1.0,288.82726163156275,100784.18422379426,295.6734836059341,0.07785762166881875,3.8107012059005108,86.2,0.3406370071715429
1306893722.01,3.9104129,5.4393257,2663.549954,-5.9,26.3,91.5,-1.0,294.4130576952164,105882.16202835304,296.5549071063404,0.0762016139272958,3.733132204805882,84.3,0.34094138162473625
1306893722.22,3.9107504,5.4393278,2687.82817,-5.4,25.4,91.3,-1.0,309.804192610332,105400.65703648124,298.46252056882236,0.07763646429719928,3.7364316167652105,85.0,0.3412869415547449
1306893722.44,3.9110863,5.4393306,2713.2218716,-4.9,23.8,91.2,-1.0,295.5232632685096,99164.26141794519,297.77276250218114,0.07503847935638508,3.7765960789725037,86.8,0.34167628976121917
1306893722.66,3.9114215,5.4393339,2739.2389328,-4.4,21.6,91.1,-1.0,295.7581415410277,99127.81889972452,299.1288823112442,0.07564146554274713,3.763229794979196,88.4,0.34210980900881327
1306893722.87,3.911757,5.4393373,2765.2888024,-4.0,19.2,91.1,-1.0,309.39106982238945,95882.83644899828,299.8947595834615,0.07327713642960515,3.6898019733560172,90.5,0.34258152816891824
1306893723.08,3.9120935,5.4393409,2790.8465459999998,-3.6,16.7,91.0,-1.0,309.6818454439733,86344.71259871864,298.16830423189043,0.07223109083579798,3.620143672686569,89.60000000000001,0.3430857057717179
1306893723.3,3.9124314,5.4393444,2815.3544208,-3.2,14.4,91.0,-1.0,296.58670215792625,84771.97729209457,297.8327873030394,0.06994282593948441,3.6047578246988263,89.9,0.3436159879239489
1306893723.51,3.9127695,5.4393477,2838.418726,-3.0,12.4,91.0,-1.0,309.2624576161646,85213.84048553975,296.5077870461544,0.0712123711447305,3.5609323517994023,87.30000000000001,0.3441635710385595
1306893723.72,3.9131092,5.439351,2859.744186,-2.9,10.3,91.1,-1.0,309.0818435752427,80354.41985207066,297.6733738261062,0.07055172317697989,3.5695693387627054,85.5,0.3447186563403967
1306893723.93,3.9134538,5.4393541,2879.3964176,-2.8,8.5,91.1,-1.0,312.29370791168304,81571.22922464211,298.7207447166429,0.07038906810494146,3.6599766038753883,85.5,0.34527473683033555
1306893724.14,3.9137999,5.439357,2896.9161032,-2.7,6.8,91.1,-1.0,311.8932905718624,83873.87572520005,296.5716757029167,0.06965358242844889,3.671796903159752,85.7,0.3458192578277108
1306893724.35,3.9141482,5.4393597,2912.3032427999997,-2.7,5.5,91.1,-1.0,313.0182585113177,81548.15998849194,294.7432025168795,0.06794016702602139,3.5819099156122585,87.19999999999999,0.34634303298081676
1306893724.56,3.9144965,5.4393622,2925.4266027999997,-2.7,4.4,91.1,-1.0,311.50328813970356,82659.1328457316,295.33146015562227,0.06777676694653292,3.5549986977556434,87.19999999999999,0.3468381773377721
1306893724.77,3.9148463,5.4393647,2936.4830336,-2.8,3.8,91.2,-1.0,312.34548349602005,86853.27424467608,295.2744064096777,0.07013228518116212,3.586603756299355,86.6,0.34729841355824453
1306893724.98,3.9151938,5.4393669,2945.4725352,-2.8,4.5,91.2,-1.0,309.4169000844459,89000.8691351807,296.2354281708291,0.07183164761751983,3.706866492383312,87.1,0.3477188422546575
1306893725.19,3.9155606,5.4393693,2953.4121680000003,-2.9,6.8,91.2,-1.0,326.0160588692385,92459.58230423536,297.8023013986525,0.07312834768006024,3.6996072333923973,85.9,0.3480981620271859
1306893725.4,3.9159043,5.4393716,2960.13789,-3.0,10.0,91.1,-1.0,305.7240228975966,94860.75301351237,297.00286380360046,0.07560230341916101,3.652069612916655,83.4,0.3484359901111755
1306893725.62,3.9162819,5.4393743,2967.683822,-3.1,13.5,91.1,-1.0,320.01586258650775,98692.60640584715,298.34209534328136,0.07639043847630674,3.6766577236199347,85.7,0.348737608658857
1306893725.83,3.9166373,5.4393772,2975.72188,-3.2,16.1,91.0,-1.0,316.0612869363137,99395.47909201265,298.79632147885485,0.07793027368190952,3.706348956207895,86.10000000000001,0.3490082232695306
1306893726.05,3.9170053,5.4393807,2985.5644,-3.2,18.0,90.9,-1.0,312.7258705030627,100085.76183143591,298.23386301920203,0.07681264031993032,3.5979894630028757,88.6,0.34925594855387004
1306893726.26,3.9173468,5.4393844,2996.3255552,-3.2,19.2,90.8,-1.0,304.95553151957654,104293.26906233249,299.65128229786615,0.07597872661614787,3.614910758720016,91.3,0.34948790393444745
1306893726.47,3.9177037,5.4393887,3009.186448,-3.1,19.6,90.7,-1.0,318.8351458081583,108478.48619588983,301.01887568127916,0.0772924360045048,3.701323842007506,91.8,0.3497139647393469
1306893726.68,3.918058,5.4393934,3023.5237188,-3.0,19.3,90.6,-1.0,317.0810195764701,108271.99506366286,299.86951299691225,0.07728077833650623,3.686842753715021,92.8,0.34994285800268893
1306893726.91,3.9184282,5.4393987,3039.7966852,-2.9,18.3,90.5,-1.0,303.80789552433646,110010.45847578743,300.3262543258772,0.07457064273085816,3.7027648416452,91.9,0.35018392318204156
1306893727.12,3.9187785,5.439404,3056.0040348,-2.7,16.6,90.4,-1.0,314.7861546487092,112365.81980087838,299.4494263708566,0.07363829917635945,3.647166287260351,92.5,0.35044183000618856
1306893727.33,3.9191277,5.4394094,3072.4082348,-2.6,14.6,90.4,-1.0,313.9548965633911,106401.01018149684,297.20717693572806,0.07261849253246863,3.730226400490747,93.7,0.3507194874865035
1306893727.54,3.9194781,5.4394149,3088.5827759999997,-2.5,12.4,90.4,-1.0,314.7740868031982,106311.2408639002,298.60861493913785,0.07030784599256623,3.801255332807933,94.9,0.351019192210913
1306893727.75,3.91983,5.4394205,3104.1339576,-2.4,10.7,90.4,-1.0,315.8184281899735,105265.23802991596,296.48219688914344,0.07136564772020586,3.7532436016034585,92.0,0.35133757585045805
1306893727.97,3.9202006,5.4394263,3119.3570552,-2.3,9.0,90.4,-1.0,316.7694149099555,102106.43802897932,295.8067052402385,0.07236228620022224,3.63192462052704,93.9,0.3516727245818666
1306893728.18,3.9205561,5.4394318,3132.6444572,-2.2,7.6,90.4,-1.0,318.00323332297637,99767.76369144992,294.90978343174515,0.07240385214072419,3.6362878773527325,94.39999999999999,0.35201591137101795
1306893728.41,3.9209476,5.4394377,3145.6365836,-2.2,6.4,90.4,-1.0,318.68224847910346,101067.1092959651,295.09435954992625,0.07555537409135593,3.61241274414304,95.30000000000001,0.3523643037594695
1306893728.62,3.9213049,5.4394431,3155.9384212,-2.2,5.7,90.4,-1.0,318.2073505129585,99582.1420928137,294.5599416320514,0.07601688504407017,3.507599655228935,93.60000000000001,0.35270672501931194
1306893728.83,3.9216827,5.4394488,3165.2560068,-2.2,5.1,90.4,-1.0,335.4364983369623,99619.33907059136,295.8451038003397,0.07725151063795184,3.490791590704351,93.30000000000001,0.3530374336807293
1306893729.04,3.9220426,5.4394541,3172.7691304,-2.2,4.6,90.4,-1.0,319.61881820449673,99255.62672888326,294.59541934440847,0.07939947364475211,3.454282848569302,94.50000000000001,0.35334770270960064
1306893729.25,3.9224048,5.4394594,3179.0355348000003,-2.3,4.2,90.3,-1.0,321.46381240820324,100966.22049492055,292.70829631475135,0.08109122049289097,3.4853215171775394,92.2,0.3536347762004143
1306893729.46,3.9227589,5.4394646,3183.9896032,-2.3,3.9,90.3,-1.0,313.7563076282508,103043.81098465128,293.53226288884935,0.0815427810708032,3.404094330110922,91.2,0.3538951327183495
1306893729.67,3.9231306,5.4394701,3188.0578448,-2.4,3.7,90.3,-1.0,329.31290988104627,106515.60922876414,294.0842485558558,0.08330594075362006,3.3369445759770713,90.8,0.3541272412047888
1306893730.09,3.9238558,5.439481,3193.1431468,-2.5,3.7,90.3,-1.0,321.03374939927625,109708.58227838113,294.59589612223346,0.08240158826537748,3.3957659261333317,91.8,0.354334929306276
1306893730.51,3.9245781,5.439492,3195.2756928,-2.5,3.8,90.3,-1.0,319.72835897098923,113293.72697501084,296.11026657918,0.08271588259110443,3.518019020342518,89.3,0.35451207278834074
1306893730.72,3.9249402,5.4394977,3195.5709684,-2.6,4.0,90.2,-1.0,320.4081805165977,113146.53805388356,296.18479256794535,0.08329724276487209,3.6394191320449276,86.0,0.35465890130977556
1306893730.93,3.925304,5.4395036,3195.4397348,-2.6,4.2,90.2,-1.0,322.11738952443505,111428.80449577008,296.96175728927153,0.08127794187689323,3.601934878763546,82.50000000000001,0.354775108658857
1306893731.14,3.9256747,5.4395097,3195.0132256,-2.6,4.3,90.2,-1.0,328.1142401088524,111199.65168677956,298.0935106187263,0.07817869879167232,3.608708705401366,82.5,0.3548662831995394
1306893731.35,3.9260402,5.4395159,3194.389866,-2.6,4.5,90.1,-1.0,323.42271737291713,108629.0150610716,298.54185118171023,0.0786685840489288,3.618188193325399,80.7,0.354934262202164
1306893731.56,3.92639,5.4395219,3193.6680812,-2.6,4.7,90.1,-1.0,309.7517068657816,109886.94220305316,300.0523211065976,0.0774323071509219,3.704698380521341,78.6,0.354983026419137
1306893731.77,3.9267572,5.4395284,3192.8478711999996,-2.6,4.9,90.1,-1.0,325.0386868547654,113376.87219683101,300.1482501651162,0.07819333060529293,3.604329657523795,81.0,0.35501525520303895
1306893731.98,3.9271243,5.4395351,3191.9620443999997,-2.6,5.0,90.0,-1.0,324.84299512736374,115254.7020510171,300.5639034651587,0.0761687136285598,3.702211141322687,82.3,0.35503385756524364
1306893732.19,3.9274931,5.4395421,3191.109026,-2.6,5.2,90.0,-1.0,326.12732389319,115370.40198756421,300.3794453473876,0.07356769311857915,3.7613133438132405,82.9,0.3550409769878158
1306893732.4,3.9278585,5.4395491,3190.3216244,-2.6,5.3,90.0,-1.0,323.14111291970835,116250.79855350147,300.74920444315046,0.07177364309315472,3.73255398238261,84.0,0.3550343934357598
1306893732.61,3.9282082,5.439556,3189.6326480000002,-2.5,5.4,89.9,-1.0,309.7902263253466,114138.37633064232,299.2410433596758,0.06836287615351404,3.7303782264726197,86.2,0.3550212263316479
1306893732.82,3.9285717,5.4395634,3189.0092884,-2.5,5.5,89.9,-1.0,321.8680236923228,115306.00852312823,299.6456958982777,0.06907076776540215,3.6961168286036297,86.8,0.35500591574547113
1306893733.03,3.928937,5.439571,3188.484354,-2.5,5.6,89.8,-1.0,323.1599762450762,116503.794861694,299.17357893905455,0.06835290689526667,3.8217102230760083,86.4,0.3549896865241239
1306893733.24,3.9293022,5.4395788,3188.0578448,-2.4,5.7,89.8,-1.0,323.17547133983754,116179.4876203621,298.8500688388354,0.0685086553110342,3.9238903882190788,89.2,0.35497345730277646
1306893733.45,3.9296691,5.4395867,3187.7625692,-2.4,5.7,89.8,-1.0,324.45115602705175,116446.8670496144,298.6803057372371,0.06804896531793324,3.927290432085435,89.20000000000002,0.354957993610738
1306893733.66,3.9300257,5.4395947,3187.5657188,-2.3,5.8,89.7,-1.0,315.4882136931465,115808.97345923704,297.7852242194715,0.06650569428847483,3.8534890580109202,91.10000000000001,0.35494375476559353
1306893734.08,3.9307613,5.4396115,3187.4344852,-2.2,5.8,89.7,-1.0,325.39019127782706,113819.23685930064,297.62434485270927,0.06565505600898465,3.9618533271782908,88.30000000000001,0.3549311235319978
1306893734.29,3.9311196,5.43962,3187.500102,-2.2,5.8,89.6,-1.0,316.89738875523733,114209.9202606432,298.3922135738502,0.06703908880354442,3.9754381365958995,90.0,0.35492071233339767
1306893734.51,3.9315107,5.4396294,3187.664144,-2.1,5.8,89.6,-1.0,330.21295169201176,116470.29506198243,298.6390338567887,0.06902911608709815,3.9523927893041995,91.6,0.35491267427565487
1306893734.72,3.9318673,5.4396381,3187.8609944,-2.1,5.8,89.5,-1.0,315.52792968299633,116916.17862606849,300.68391845361606,0.06988324892832115,3.890034414297218,92.10000000000001,0.35490693280583857
1306893734.93,3.9322377,5.4396473,3188.1234616,-2.0,5.8,89.5,-1.0,327.61025040590073,121423.36401842807,302.24523011049104,0.07221574239969263,3.8551674416943236,91.00000000000001,0.35490341137101794
1306893735.14,3.9325994,5.4396564,3188.4515456,-1.9,5.8,89.5,-1.0,319.8233714563161,119503.609872443,303.4919514155443,0.07375122241883136,3.8228102629166107,93.2,0.3549021099711929
1306893735.35,3.932956,5.4396655,3188.7796296,-1.9,5.8,89.5,-1.0,315.6497352396634,118372.10192934024,302.38156061357347,0.0748703978617005,3.7339389709671775,96.5,0.3549027989475709
1306893735.56,3.9333178,5.4396749,3189.1405219999997,-1.8,5.8,89.4,-1.0,320.15752471111637,118922.2375533211,302.4729168362321,0.07604246505709575,3.7234688153837263,93.1,0.35490532519429
1306893735.99,3.9340604,5.4396945,3189.960732,-1.7,5.8,89.4,-1.0,320.8390870664986,117651.76479704308,300.6303593545289,0.07773643953970001,3.717995310276227,92.60000000000001,0.35491045424065926
1306893736.21,3.934443,5.4397048,3190.3872411999996,-1.7,5.7,89.4,-1.0,323.02252544941473,117565.48191646818,300.596046643299,0.07875269450847151,3.7093974458992705,92.2,0.35491703779271516
1306893736.44,3.9348395,5.4397156,3190.8465588000004,-1.6,5.7,89.3,-1.0,320.26276752869745,116906.91879496315,302.6062304276157,0.07949158646162266,3.6342124644175477,92.2,0.35492499929752713
1306893736.87,3.9355944,5.4397366,3191.6995772,-1.5,5.7,89.3,-1.0,325.88540855658266,116101.65199141065,300.7938696790935,0.08007682186509887,3.5680782745398147,90.2,0.3549347980726802
1306893737.08,3.9359476,5.4397465,3192.0932780000003,-1.5,5.7,89.3,-1.0,312.5930375888087,112626.7662977282,299.78167211645575,0.07878682212944305,3.4685687867183623,88.7,0.35494513271834954
1306893737.3,3.9363372,5.4397576,3192.5197872000003,-1.4,5.7,89.2,-1.0,328.785151699049,116320.2266764258,297.72057100606287,0.08023973191343714,3.4571651194604556,85.7,0.354956003234535
1306893737.93,3.9374298,5.4397892,3193.7008896,-1.3,5.7,89.2,-1.0,322.1094778490155,114438.16415377756,296.15637473201235,0.07834848869161837,3.372489767937099,84.30000000000001,0.3549690172327853
1306893738.35,3.938145,5.4398104,3194.4226744,-1.2,5.7,89.1,-1.0,316.48207742978235,114815.58350723828,297.16080850662564,0.07665397160372207,3.377400279669033,81.80000000000001,0.35498294986620604
1306893739.0,3.9392741,5.4398444,3195.5053516,-1.1,5.7,89.1,-1.0,322.5871044368097,116185.96153517393,298.3424448732695,0.07550565653695937,3.337157034355569,81.5,0.35499864321703717
1306893739.22,3.9396551,5.439856,3195.8662440000003,-1.1,5.7,89.1,-1.0,321.4732376893599,113723.00131460762,298.2447987593133,0.07803578380051056,3.208748836676717,84.8,0.35501433656786835
1306893739.44,3.9400378,5.4398678,3196.194328,-1.1,5.7,89.0,-1.0,323.00672115351875,112166.27196015425,298.0881748238239,0.07853307005469903,3.2704485269350156,85.6,0.3550288816247362
1306893739.65,3.9403963,5.4398789,3196.522412,-1.0,5.7,89.0,-1.0,317.3677432313413,112776.92925817738,298.8046662197549,0.07935215831456942,3.2420393253497934,87.8,0.3550431970228115
1306893740.29,3.9415082,5.4399137,3197.506664,-0.9,5.7,89.0,-1.0,322.62045257688135,114086.3714607669,299.7210029153621,0.07804361921520907,3.242225686593865,89.5,0.35505873726778087
1306893740.5,3.9418772,5.4399254,3197.834748,-0.9,5.7,89.0,-1.0,326.0634120133715,114608.49603416739,301.1121541370058,0.07590692630385754,3.3260368323727083,89.80000000000001,0.35507305266585604
1306893740.92,3.9426081,5.4399487,3198.4909159999997,-0.8,5.7,88.9,-1.0,323.2301971494221,117380.03493734244,301.6247258093244,0.07590904101081283,3.4201811126375516,88.1,0.35508798048737844
1306893741.78,3.9440927,5.4399967,3199.7704436,-0.7,5.7,88.9,-1.0,320.62793483924037,117161.52198250404,301.87031633636326,0.07519746246713614,3.4298199249706918,91.80000000000001,0.3551048986851037
1306893742.41,3.9451929,5.4400328,3200.7546956,-0.7,5.7,88.9,-1.0,324.20018551930735,116766.92289672674,301.1778352610654,0.07770421467745543,3.5317955938363697,91.3,0.3551213575652437
1306893742.83,3.9459102,5.4400566,3201.3780552,-0.6,5.7,88.9,-1.0,317.20608191156384,115859.93254264671,300.07021045358584,0.07654577016105538,3.5608734445593546,94.6,0.355137586786591
1306893743.05,3.9462984,5.4400695,3201.7389476,-0.6,5.7,88.8,-1.0,327.5696263544828,116103.42725404144,299.7391201579799,0.07742211176269037,3.6466940289651855,91.69999999999999,0.35515213184345895
1306893743.91,3.9477853,5.4401194,3203.0512836,-0.5,5.7,88.8,-1.0,321.07660896284966,114645.50362139598,300.1027435749149,0.0747769777794153,3.779687198751669,90.5,0.35516889693532244
1306893744.78,3.9492932,5.4401706,3204.4292364000003,-0.5,5.7,88.8,-1.0,321.82750035669324,112724.47667299537,300.08933916623533,0.07377942244562596,3.8114550021222753,91.89999999999998,0.35518811172097414
1306893745.21,3.9500438,5.4401962,3205.0854044,-0.4,5.7,88.8,-1.0,324.10767882293186,111952.91267210375,299.93148142820894,0.0733949332087167,3.8115950875679516,89.69999999999999,0.3552080920359348
1306893745.84,3.9511273,5.4402335,3206.0696564,-0.4,5.7,88.7,-1.0,319.4498832251628,110221.5429096192,298.3927642236621,0.07523751725349814,3.908990249229558,91.1,0.35522807235089543
1306893746.72,3.952653,5.4402863,3207.4476092,-0.3,5.7,88.7,-1.0,321.87599816234865,109664.04280979809,297.57374851412317,0.0782099185834912,3.813594179163879,89.2,0.35525050235964434
1306893748.89,3.9564179,5.4404181,3210.794066,-0.2,5.7,88.7,-1.0,322.14872681555886,111184.5160272598,297.26661324654816,0.08034770504145577,3.8416781382021328,88.60000000000001,0.3552792097087258
1306893751.91,3.9616504,5.4406035,3215.4856672,-0.1,5.7,88.7,-1.0,321.72521029331455,112504.09051334483,297.7346399902963,0.07897697925853062,3.9427537370991623,85.7,0.355315878562619
1306893825.15,4.0895557,5.4451471,3329.3636235999998,-0.1,5.7,88.7,-1.0,324.20621152511217,113853.26658631636,297.6914718799908,0.07966444477311911,3.8955810771491506,88.4,0.35561596605168283
1306893850.1,4.1335133,5.4466755,3368.7337036,-0.1,8.7,88.7,-1.0,327.0070225831861,115794.92002802687,296.8852222641069,0.07915257122574616,3.8137592155716025,87.00000000000001,0.35600646255212026
1306893851.36,4.1357277,5.446752,3388.1890848000003,-0.1,8.6,88.7,-1.0,326.41883530387247,115722.42402221756,296.8375953685404,0.0816813914684289,3.7987567711454835,88.40000000000002,0.35644151285833203
1306893851.57,4.1361041,5.4467649,3392.9134944,-0.1,8.0,88.7,-1.0,332.85172376786045,116349.79721026083,296.23802193815135,0.08044890524101662,3.732818267322411,88.3,0.35688452466935566
1306893852.01,4.136867,5.4467911,3402.067038,-0.1,7.0,88.7,-1.0,322.2195164376701,115893.40971599893,296.24686521678785,0.07829622627464519,3.752285154992365,88.9,0.3573456795249987
1306893852.43,4.1376108,5.4468165,3409.8426287999996,-0.1,6.2,88.7,-1.0,328.92984606396277,116382.27235746823,294.6291818450897,0.07973513509606303,3.7706027144548813,90.00000000000001,0.3578234463666435
1306893852.64,4.1379897,5.4468294,3413.2875108,-0.1,6.5,88.7,-1.0,335.03707722942846,116272.15340481061,295.2151944736635,0.0791948206876015,3.6916895596476214,89.9,0.3583069546781046
1306893853.29,4.139135,5.4468683,3423.4909232,-0.1,11.4,88.7,-1.0,327.1226005678122,114675.09948469872,296.3516066998043,0.07821536420635139,3.6865357420197915,90.00000000000001,0.35881105572797334
1306893853.93,4.1402734,5.4469068,3442.3557532,-0.1,19.2,88.7,-1.0,330.82674931994165,114751.65629131797,296.5017250499194,0.07829582262938924,3.6529357088523877,92.90000000000002,0.35935136631415004
1306893854.14,4.1406425,5.4469193,3452.3295067999998,-0.1,21.2,88.7,-1.0,327.7634328486207,114804.82515173643,296.4575473011644,0.07824159297466521,3.55402342817506,95.20000000000002,0.359904001922199
1306893854.79,4.1417577,5.4469569,3496.063104,-0.1,25.0,88.7,-1.0,321.8843945881747,115459.46537263304,296.2150999026723,0.07839105736382666,3.5312699052809857,93.60000000000002,0.3602929673640187
1306893855.86,4.1435857,5.4470173,3607.7100892000003,-0.1,26.4,88.7,-1.0,325.23753041695653,118110.55496181971,297.3823164915555,0.08150913684412804,3.513859467154429,92.10000000000002,0.36085057891257527
1306893856.07,4.1439399,5.4470287,3633.5631084,-0.1,26.2,88.7,-1.0,324.4170403337525,120754.06638064406,297.94601172029763,0.08093527010377645,3.4970826303394014,91.50000000000003,0.361423118282654
1306893856.51,4.1446872,5.4470522,3690.8793832,-0.1,25.6,88.7,-1.0,327.71198408473157,121789.94236123364,298.51307452857367,0.08235531302850668,3.539819891737975,91.20000000000002,0.36211837200093916
1306893856.72,4.1450501,5.4470634,3719.6195416,-0.1,25.2,88.7,-1.0,334.3371815433514,122026.65847214343,301.3274887233084,0.08262841459423471,3.4576843843982257,88.6,0.3628593278189619
1306893857.39,4.1462136,5.4470984,3813.6484160000005,-0.1,24.1,88.7,-1.0,336.38061663501196,118690.8386320005,302.3993459760634,0.08136901944452692,3.4747517843468096,88.4,0.36380154129227776
1306893857.81,4.1469529,5.4471198,3873.5893628000003,0.0,23.5,88.7,-1.0,340.8703345703696,114164.06995471976,300.64239759212694,0.07906477298003081,3.4762332350387415,87.2,0.3648755789125753
1306893858.24,4.1477139,5.4471413,3934.6129868,0.0,23.1,88.7,-1.0,342.5524047864455,109941.98829253447,300.3934109230768,0.0788154134052632,3.473886932152274,88.2,0.36606819702281146
1306893858.87,4.1488432,5.4471724,4023.3269004,0.0,22.7,88.7,-1.0,346.25665891967543,106117.52823745416,299.68577357566187,0.07818554206088998,3.3866373267270498,88.60000000000001,0.36742379632289895
1306893859.08,4.149211,5.4471822,4051.673358,-0.1,22.6,88.7,-1.0,337.8104486234764,105759.8775115181,299.697282710334,0.07910956134005892,3.4092901787492775,86.2,0.36882226526428125
1306893859.73,4.1503882,5.4472132,4140.813780799999,-0.1,22.4,88.7,-1.0,348.83236997818625,109391.31747049591,300.26581037358784,0.07814798800436422,3.4770524761360755,88.10000000000001,0.3703266834620066
1306893860.57,4.1519169,5.4472521,4253.248167600001,-0.1,21.1,88.7,-1.0,349.7711334080362,113035.58584607086,299.11851329888026,0.0781360398808044,3.5840362104439327,90.5,0.371832938930073
1306893861.43,4.1535041,5.447291,4359.6130004,-0.1,12.7,88.7,-1.0,352.62832611757847,117997.77463561762,298.6825045592236,0.07738932040152442,3.598201403484505,93.3,0.373527055290528
1306893861.85,4.154296,5.4473099,4402.5920044,-0.1,8.7,88.7,-1.0,356.3721377640151,122809.64638124742,298.0430659675756,0.07841238712269606,3.5577105255488983,94.80000000000001,0.37518771802018674
1306893862.28,4.1551079,5.4473289,4437.500142,-0.1,5.3,88.7,-1.0,354.4286890890946,124492.82624063201,297.78859284068494,0.07993894530578174,3.502917869555765,96.10000000000002,0.3768627727008517
1306893862.49,4.1555233,5.4473386,4451.673370799999,-0.6,4.2,88.7,-1.0,369.2510691511401,125652.83094032636,297.6965178070282,0.0799902658631325,3.498542958594207,94.7,0.3783514975477458
1306893862.7,4.1559313,5.447348,4463.254736,-0.6,3.4,88.7,-1.0,361.897734609026,124041.25039315346,299.1310698224324,0.07902118083761522,3.537300729071603,93.10000000000001,0.3797273833745175
1306893863.12,4.1567469,5.4473666,4480.2822956,-0.6,3.7,88.7,-1.0,360.94317296845094,124947.60271840922,298.9007209758792,0.07639544052709572,3.6257575109564537,94.00000000000001,0.38100061172097427
1306893863.96,4.1583778,5.4474038,4503.77311,-1.0,16.5,88.7,-1.0,360.2535000596333,126872.39703864338,299.3989005437373,0.07474054053233042,3.6339034044968233,91.9,0.38212165284083427
1306893864.38,4.1591992,5.4474231,4521.8833468,-1.0,21.3,88.7,-1.0,363.6071467786844,130965.50655584317,299.58910806884035,0.07347802538986745,3.5933292729810717,94.8,0.3832188094462585
1306893864.8,4.1600098,5.4474428,4548.3269172,-1.0,23.8,88.4,-1.0,360.24174706829353,137341.55355461466,301.80976071878126,0.0740150872048463,3.5207492403652823,93.0,0.3841696734007642
1306893865.01,4.1604128,5.4474528,4564.5998836,-1.0,24.3,88.4,-1.0,359.7203073323084,145164.1432296715,301.92553599980283,0.07302787323272937,3.4817220647760077,91.60000000000001,0.38489616071484994
1306893865.23,4.1608273,5.4474633,4583.33348,-0.9,24.1,88.3,-1.0,353.8807655926925,150139.00707191948,302.68247420327447,0.07066816428559422,3.492946321840862,87.9,0.38541817515054555
1306893865.65,4.1616271,5.4474836,4623.7862372,-0.8,21.8,88.3,-1.0,358.9410316163169,154595.23791350343,303.20991454525796,0.06944981452525868,3.452405407579987,85.5,0.385934295010563
1306893866.08,4.1624342,5.4475044,4667.322983999999,-0.8,17.1,88.3,-1.0,354.9334146960916,157631.97462381423,302.69149821458853,0.06985207551516924,3.4878457608180975,85.80000000000001,0.38647054829140287
1306893866.93,4.1640748,5.4475462,4746.6536952,-0.8,8.3,88.3,-1.0,363.3012333746404,156147.15092531353,303.3455820353726,0.06833809987500455,3.43356574633238,86.9,0.3871588356929777
1306893867.36,4.164921,5.4475674,4776.9686568,-0.8,5.4,88.3,-1.0,367.60983090798226,154856.59560161486,301.8779120583275,0.07154610992544023,3.3968299280816265,89.10000000000002,0.387890834818087
1306893867.78,4.1657519,5.4475881,4798.7862428,-0.8,3.8,88.3,-1.0,368.1303105319871,151637.47016634716,300.51204360080055,0.07383365998296891,3.3679290177554346,89.8,0.38863401067110537
1306893867.99,4.1661806,5.4475988,4807.1851932,-0.8,3.9,88.3,-1.0,378.74249764092093,148457.20579681353,301.4520859651892,0.073350653098392,3.4849597351484043,92.00000000000001,0.3893419721759173
1306893868.2,4.1665919,5.4476089,4813.7140648,-0.8,5.2,88.3,-1.0,363.71675287172746,144061.9300015365,301.499085537708,0.0736632048032089,3.5287375624184336,91.30000000000001,0.3900229104961273
1306893868.62,4.1674293,5.4476297,4824.803304,-0.9,10.5,88.3,-1.0,369.5854290034485,145309.2188768133,299.20030012970636,0.07269978078080534,3.5388589320195973,92.4,0.39066802204468365
1306893869.26,4.1686959,5.4476616,4844.3899188,-1.0,13.0,88.3,-1.0,367.09969181857025,147967.5533751553,298.9063024882894,0.07081563384925688,3.489123533428334,91.70000000000002,0.39132086543925937
1306893869.68,4.1695399,5.4476833,4860.6300768,-1.0,10.9,88.3,-1.0,373.10291711108135,152826.12152227413,297.2744119235039,0.0706116954931377,3.5349104222136862,94.90000000000002,0.3919678908110879
1306893870.12,4.1703986,5.4477055,4877.3623608,-1.0,8.7,88.1,-1.0,362.40016271828677,158694.2845504004,298.15685227309535,0.06982314303460163,3.578711622350714,95.50000000000001,0.3925595684138875
1306893870.76,4.1716733,5.4477389,4899.475222399999,-1.0,9.8,88.1,-1.0,369.64395243132276,163812.98814473447,298.38627621571254,0.06781442990110795,3.6170844149259986,95.60000000000002,0.3931012569528203
1306893871.18,4.1725281,5.4477615,4913.714068,-1.0,10.8,88.1,-1.0,377.3487845834277,164071.203930227,297.19609322539156,0.07088874623600329,3.677014487979164,96.60000000000001,0.3934910644768797
1306893872.44,4.1750303,5.4478289,4958.16945,-1.0,8.0,88.1,-1.0,368.5671981715751,163284.2141806402,297.5333778208118,0.06864179552437456,3.637662791037938,97.10000000000002,0.39391386631415004
1306893872.87,4.1758792,5.4478521,4971.1943848,-1.0,6.7,88.1,-1.0,366.2542108188065,162879.03968579613,298.15826901481546,0.06730365496308709,3.6456746357627026,98.20000000000002,0.3943161519659435
1306893873.29,4.1767174,5.4478752,4981.529030799999,-1.0,5.9,88.1,-1.0,369.93056401815113,159548.611312434,297.826400631281,0.06780907230979231,3.61037569540326,98.50000000000001,0.3947229542406592
1306893873.93,4.1780023,5.4479107,4993.5040968,-1.0,8.8,87.9,-1.0,371.86279596929194,159130.66840301294,298.40947688667217,0.06788299877775571,3.6337028112982552,95.80000000000003,0.39514246430190153
1306893874.14,4.1784178,5.4479223,4997.3426796,-1.0,9.5,87.9,-1.0,366.7185043532633,159134.0432156799,298.01304285553556,0.06738311389716534,3.6331559732700516,93.40000000000002,0.3955450561654186
1306893874.56,4.1792542,5.4479458,5005.9712887999995,-1.0,8.9,87.9,-1.0,368.9752306222245,160750.75754528682,298.34904631115535,0.06791769493141878,3.630079890691532,94.4,0.3959220793500206
1306893874.78,4.1796951,5.4479582,5010.761315199999,-0.8,8.2,87.9,-1.0,371.25768549766224,161074.2712683961,298.86693471700045,0.06927547945714566,3.5010820772861875,93.10000000000002,0.39627238556174404
1306893875.42,4.1809762,5.4479948,5024.1799507999995,-0.8,9.3,87.9,-1.0,370.89227087842823,162298.21125681672,298.05686079281514,0.0689507024539987,3.5061131879555547,91.4,0.39661495992744833
1306893875.64,4.1814091,5.4480073,5028.871552,-0.8,11.0,87.8,-1.0,364.91434358845135,163516.3537317772,296.5281277331024,0.0686974073547403,3.5448207857813108,92.10000000000001,0.3969168846868535
1306893876.08,4.182283,5.4480327,5040.7810012,-0.8,16.3,87.8,-1.0,368.27132337823105,164211.7488632287,296.0014203709261,0.06554588462720168,3.5435579174621523,90.4,0.3972133741881658
1306893876.5,4.183129,5.4480577,5058.431920399999,-0.8,20.8,87.7,-1.0,373.81912958490767,163802.5091994466,296.73935256202924,0.06799630015091593,3.564798994592666,89.20000000000002,0.39744731994494614
1306893876.71,4.183531,5.4480697,5069.6852016,-0.8,22.0,87.7,-1.0,356.76706515536785,163809.39644917272,296.52436997810094,0.06800941693982272,3.5447695242009174,88.30000000000001,0.3976771318434589
1306893877.36,4.1847998,5.4481083,5116.765255599999,-0.8,21.6,87.7,-1.0,364.9783246414293,167544.30380249748,296.1737750355113,0.06945236023058536,3.5435669221158594,88.50000000000001,0.39799268302456126
1306893878.0,4.1860272,5.448146,5172.408302,-0.4,15.7,87.7,-1.0,360.3038293478412,168740.73616278128,294.3363695046272,0.0683599028252808,3.523394395744855,89.50000000000001,0.3984101261566697
1306893878.21,4.1864478,5.4481589,5191.3715572,-0.4,13.2,87.7,-1.0,375.64781499393195,170069.3588923154,295.040812955201,0.06818965121911795,3.5851740076565295,90.39999999999999,0.39886286018991557
1306893878.84,4.1876753,5.4481967,5239.960797600001,-0.3,7.5,87.7,-1.0,364.72910021830353,167833.8382603665,295.7426751240023,0.07002373244645828,3.583916604614271,92.10000000000001,0.39940883569297775
1306893879.48,4.1889627,5.4482361,5275.853187199999,-0.3,4.4,87.7,-1.0,374.40324111819154,161994.87385109134,295.85399583595296,0.06874803583979557,3.602593116000241,93.80000000000001,0.40002738337451754
1306893879.69,4.1893799,5.4482489,5284.0880956,-0.3,3.8,87.7,-1.0,368.5347065872298,152578.12130650817,293.8565581253833,0.06948862067064683,3.592099883456736,94.0,0.4006338356929778
1306893880.12,4.1902395,5.4482751,5296.260012,-0.4,3.2,87.7,-1.0,370.6717492393791,147093.37688014872,295.2247433149247,0.07102751734701906,3.4952197014841375,93.6,0.40125774207967935
1306893880.75,4.191502,5.4483137,5304.790196,-0.4,3.2,87.7,-1.0,371.100675165298,145297.53603967538,295.8876230618167,0.07360960706931138,3.4684767680649875,94.39999999999999,0.4018737635145
1306893881.39,4.1927985,5.4483533,5305.8072564,-0.4,3.8,87.7,-1.0,374.94623946505106,146910.1854121582,294.87661930911406,0.07025409912336868,3.522741406633772,94.00000000000001,0.4024509726133627
1306893882.03,4.1940785,5.4483927,5302.8873088,-0.4,4.6,87.7,-1.0,370.2453033285645,152953.26032919547,294.88798773190365,0.06926902070582179,3.5257578341784077,91.1,0.40299511084608364
1306893882.24,4.1945083,5.4484059,5301.5421644,-0.4,4.8,87.7,-1.0,379.0671781071957,158054.51497126653,296.0068636036111,0.0686698423182746,3.450950086687392,88.3,0.4034262569528202
1306893882.87,4.1957636,5.4484448,5297.572348,-0.4,5.4,87.7,-1.0,368.8519207560687,160047.52802730617,297.15422522000705,0.07093916171577212,3.4130071238453987,87.69999999999999,0.4037183063841414
1306893883.5,4.1970266,5.4484842,5294.291508,-0.4,5.8,87.7,-1.0,371.2409602106694,159100.6297596547,298.2087542044069,0.06997774662291549,3.3107213458283096,90.30000000000001,0.40395845292832333
1306893883.71,4.1974523,5.4484975,5293.471298,-0.4,5.9,87.7,-1.0,374.99839196413654,158399.25004305702,298.76981470124,0.06927219434348837,3.3152784381117293,88.60000000000001,0.4040833107585945
1306893884.14,4.1983199,5.4485248,5292.2901956,-0.4,7.5,87.7,-1.0,373.501924542651,155666.41297755134,297.0167324768329,0.07280705273448641,3.3893913900402235,87.1,0.40412166377696723
