timestamp,longitude,latitude,altitude,roll,pitch,yaw,heading,air_speed,engine_0,temperature_in,humidity_in,pressure_in,heart_rate,oxygen_mask
1306893631.32,3.9486208,5.4467126,104.2979036,-1.0,5.0,-1.0,-1.0,173.7162389499265,22293.559196760398,295.37700457746024,0.06876654106191551,3.5158035363192015,97.1,0.27133444099641735
1306893631.74,3.9482558,5.4465985,104.4291372,-1.0,6.5,-1.0,-1.0,173.7162389499265,20012.326231597333,295.1390917222383,0.0680121829993787,3.5193895949747045,98.0,0.2712020809789195
1306893632.16,3.9478735,5.446479,104.5275624,-1.0,7.4,-1.0,-1.0,181.63961978702787,18072.310684177995,295.4941169261056,0.06993138739093899,3.5765982082318377,98.0,0.2711604361845188
1306893632.58,3.9474962,5.4463611,104.5931792,-1.0,8.0,-1.0,-1.0,179.37518111975177,17017.03047254621,294.3290999138672,0.06944050752665963,3.4673905945875294,98.20000000000002,0.27113310678819336
1306893633.01,3.9470966,5.4462362,104.658796,-1.0,8.4,-1.0,-1.0,185.54211955966952,16118.788780692,293.82416150085686,0.06926272756661443,3.5204789077271714,98.80000000000003,0.27111695411977693
1306893634.5,3.9456465,5.445783,108.3661452,-1.0,9.9,-1.0,-1.0,194.17764092080319,16118.788780691995,293.82416150085686,0.06926272756661443,3.5204789077271714,98.80000000000003,0.27111695411977693
1306893634.92,3.9452248,5.4456513,111.58136839999999,-1.0,10.1,-1.0,-1.0,200.35871326395906,17017.03047254621,294.3290999138672,0.06944050752665963,3.4673905945875285,98.20000000000002,0.27113310678819336
1306893635.36,3.944769,5.445509,116.305778,-1.0,10.3,-1.0,-1.0,206.62966173210089,18072.310684177995,295.4941169261056,0.06993138739093899,3.5765982082318377,98.00000000000001,0.2711604361845188
1306893635.79,3.9443148,5.4453675,122.37533199999999,-1.0,10.4,-1.0,-1.0,210.60964806224223,20012.32623159733,295.1390917222383,0.06801218299937871,3.5193895949747045,98.0,0.2712020809789195
1306893637.52,3.9424082,5.4447765,161.1548608,-0.1,10.4,-1.0,-1.0,219.84500525183086,22293.559196760398,295.37700457746024,0.06876654106191551,3.515803536319202,97.10000000000001,0.27133444099641735
1306893638.8,3.940859,5.4443015,206.8241536,-0.2,10.5,-1.0,-1.0,241.4641103999274,24519.551354929754,297.1813144412134,0.06970546486119303,3.5981118981722653,100.1,0.27157366890542867
1306893639.66,3.9397457,5.4439638,247.1456772,-0.2,10.5,-1.0,-1.0,258.27957916223863,27244.871160437167,297.94117184020035,0.07326605884779573,3.539729002004849,99.2,0.27190667415477254
1306893640.09,3.939174,5.443792,270.0459404,-0.4,10.5,-1.0,-1.0,265.3478349686431,31101.638492275375,299.49092150990253,0.07366835590483918,3.5874324862609974,98.10000000000001,0.2722928836910805
1306893640.51,3.9385951,5.443619,294.5538152,-0.5,10.3,246.7,-1.0,275.0485522087121,35570.082671376316,301.92875319562256,0.0732953717581036,3.6754085622379544,97.3,0.2727361251608968
1306893640.95,3.9379756,5.443435,322.0800628,-0.6,10.3,246.7,-1.0,280.99108744807046,41707.76504802639,299.54271818861884,0.07492183811310811,3.635397657608009,97.30000000000001,0.27324344143386264
1306893641.79,3.9367474,5.4430738,379.46195439999997,-0.9,10.1,246.7,-1.0,291.62842716816635,48419.68457880652,298.83678897469554,0.0743020517355148,3.6532856412440275,96.60000000000001,0.27387599830175413
1306893642.22,3.936102,5.442886,409.8097244,-1.1,9.9,246.7,-1.0,298.96362101972505,55033.827665466975,298.51651235809004,0.07659955842576638,3.753685548441322,93.30000000000001,0.2745718644434864
1306893642.64,3.9354538,5.4426986,439.5341348,-1.3,9.5,246.7,-1.0,306.9117462228929,61491.95498664837,299.5350823639779,0.07505944032093084,3.661302176730953,92.4,0.2753260639185521
1306893643.06,3.9347886,5.4425075,468.6351856,-1.5,8.9,246.7,-1.0,314.2175307664696,67524.39760018534,302.0584813443025,0.0752467728783025,3.7314447519510625,92.6,0.276134003551098
1306893643.48,3.9341121,5.4423143,496.2926668,-1.7,8.5,246.5,-1.0,318.7792482150313,73077.5661381271,303.12227778388353,0.07811636465176655,3.6329487167691767,92.6,0.27691599174007436
1306893643.9,3.9334141,5.442116,522.3753448,-2.0,8.1,246.5,-1.0,328.11202896250666,78739.22235841803,303.0600339619368,0.07491659901298277,3.5290948358792154,92.1,0.27765227782931323
1306893644.33,3.9326905,5.4419112,546.7191776,-2.3,7.8,246.5,-1.0,331.5624388906319,85153.18152034526,302.11070703584954,0.07442415094193497,3.6016739930651656,90.60000000000001,0.27835128264121173
1306893644.75,3.9319561,5.441704,568.5367636,-2.7,7.6,246.4,-1.0,343.7707417862036,91116.95213959995,302.8319432370352,0.07403987754951621,3.615463400920194,89.09999999999998,0.2790477612063911
1306893645.18,3.9311823,5.4414861,588.582696,-3.1,7.6,246.4,-1.0,353.2159440026453,98015.72369815636,300.2493135341269,0.07649563209533902,3.63811407188631,90.0,0.27973382857297024
1306893645.62,3.9303845,5.4412613,606.7585496,-3.5,7.7,246.3,-1.0,355.5726001164223,105669.72512529796,300.4891030076841,0.07640820321028116,3.7413300576648436,88.39999999999999,0.2803980783542476
1306893646.04,3.9296029,5.4410397,623.3596,-3.8,8.1,246.2,-1.0,364.95093338074645,112869.9262450326,300.16498928619853,0.07655931009611183,3.733019697708979,87.9,0.2809671728424366
1306893646.47,3.9287863,5.4408067,640.4199679999999,-4.2,8.5,246.1,-1.0,372.80029422208656,120817.7731628386,299.5318479547362,0.07405140389911136,3.6373971510137566,89.7,0.2815052633936177
1306893646.89,3.9279598,5.4405689,658.2677375999999,-4.4,8.9,246.0,-1.0,386.89152731078644,129044.02772607333,299.84481713122796,0.0760034337206005,3.6997974439613603,90.70000000000002,0.28201564178381894
1306893647.31,3.9271378,5.4403305,677.165376,-4.6,9.3,246.0,-1.0,385.3434782512547,137645.6088998864,298.7574981453019,0.07797752692024275,3.76535735901898,89.00000000000001,0.2825022122125153
1306893647.73,3.9262916,5.4400829,698.0643268,-4.6,9.5,245.7,-1.0,397.2011102684418,145027.3434221125,297.08011766706954,0.07818553716155029,3.7833586918810838,90.10000000000001,0.2829730127374497
1306893648.15,3.9254371,5.4398308,720.7677396,-4.8,9.7,245.6,-1.0,401.9572319984285,153822.7013824343,296.78557482806855,0.07966089703137576,3.8214598421569153,88.6,0.28343592831050307
1306893648.58,3.924537,5.4395631,746.2598664,-4.8,9.7,245.4,-1.0,414.1668639918756,161520.64499016246,297.5826653325173,0.07807947955694222,3.69130416114194,90.7,0.2839015232361373
1306893649.0,3.9236646,5.4393018,772.6050116,-6.8,12.8,245.3,-1.0,411.85024038221655,169540.1876993259,297.043260115181,0.07943890809681874,3.6168641284571876,93.80000000000001,0.28437768246623363
1306893649.44,3.9227286,5.4390168,806.0039628,-25.6,14.0,244.6,-1.0,423.5527410190132,176511.55364498697,299.60961975222114,0.07584160083658628,3.5304013107971244,91.90000000000002,0.2848849987391995
1306893649.86,3.9218414,5.4387326,842.9790296,-39.9,15.3,243.0,-1.0,425.2313359037211,183726.9778866504,301.1200868703254,0.07720033826503604,3.4575114593666614,92.50000000000001,0.2854361798415617
1306893650.29,3.9209294,5.4384172,885.5643328000001,-42.8,14.8,241.3,-1.0,433.91207637770145,188981.56752646508,301.7162455534556,0.07721530540384947,3.4957035719617324,93.40000000000002,0.28604799086518373
1306893650.71,3.9200714,5.4381005,927.7887436000001,-47.4,13.0,240.0,-1.0,424.0617613172789,192162.01397166803,301.85353907368153,0.0773426465932385,3.5398239658006823,94.90000000000002,0.2867185179867936
1306893651.15,3.9191857,5.4377583,970.5380888,-52.8,11.7,239.0,-1.0,421.766461522223,192079.96185814711,301.93902122504886,0.07561660017575673,3.4747736406759038,94.9,0.2874471487829441
1306893651.58,3.9183352,5.4374177,1009.1863840000001,-54.6,10.4,238.1,-1.0,417.31672034363265,187423.4882060101,301.38468137126137,0.07416505465951065,3.4626243716883214,94.19999999999999,0.28822186444348646
1306893652.0,3.9175062,5.4370761,1043.6680124,-55.8,9.5,237.5,-1.0,418.68240630178366,179570.0122067328,303.56432027249326,0.07038860734611446,3.489947332531156,90.80000000000001,0.2890282730174147
1306893652.43,3.9166651,5.4367202,1075.2296932000002,-57.5,8.9,236.7,-1.0,416.93751746155976,169609.50608530134,302.88909581364163,0.07266551145413438,3.4483580061388768,90.89999999999999,0.2898553508826815
1306893652.85,3.9158427,5.4363616,1102.7231324,-58.3,8.4,235.9,-1.0,420.24878111583126,160975.2488620972,303.77355271183666,0.07487815719101638,3.508066489107042,88.00000000000001,0.2906870984767323
1306893653.28,3.9150228,5.4359917,1127.0013483999999,-58.7,8.0,234.9,-1.0,412.52802149458813,154463.97954698635,302.0161227805554,0.07430505101284418,3.5939016753773014,86.8,0.29151402323613734
1306893653.72,3.9141849,5.4355987,1148.786126,-59.3,7.7,233.8,-1.0,416.3155841443427,150100.71700143057,302.09730175950494,0.0778208780544479,3.655560918448495,86.80000000000001,0.2923138482580096
1306893654.14,3.913406,5.435217,1166.5682788,-59.6,7.5,232.5,-1.0,410.78813854051504,147336.98352150124,302.7962147074884,0.07438608532752305,3.7000607212826555,87.80000000000001,0.293068889815315
1306893654.56,3.9126385,5.4348229,1181.92261,-59.6,7.5,231.1,-1.0,410.9752636245115,145389.05663790047,303.63036381199885,0.07628415520208813,3.7245415714235994,86.80000000000003,0.29376039243998686
1306893654.99,3.911881,5.4344132,1195.2428204,-59.9,7.5,229.6,-1.0,403.38589040709564,141635.45521619523,304.0332535184956,0.0771109971822443,3.6695532282070356,87.00000000000001,0.2943844519325503
1306893655.41,3.9111465,5.4339934,1206.52891,-59.9,7.5,227.9,-1.0,408.77496734728,136855.65909748306,302.9036147543139,0.07742445886185303,3.633315946561868,85.10000000000001,0.2949350971643963
1306893655.84,3.9104388,5.4335646,1216.1089628,-60.1,7.5,226.2,-1.0,394.0122017201903,132675.00848101417,304.751358011284,0.07728194486235218,3.575551874225696,85.80000000000001,0.29541791649947946
1306893656.26,3.9097553,5.4331242,1224.245446,-60.1,7.5,224.3,-1.0,400.0157073594652,127283.00148501353,303.3040585734856,0.07787764894248786,3.647180980806706,86.7,0.295839263831063
1306893656.68,3.9090966,5.4326717,1231.1680184,-60.1,7.5,222.4,-1.0,397.27791525725365,123632.11255866954,304.83816377250446,0.07644672601730707,3.706418671123021,87.3,0.29620311991155296
1306893656.89,3.9087763,5.4324405,1234.252008,-60.1,7.5,221.4,-1.0,395.9338055094001,122189.7794247272,303.8613094234572,0.07290092224164454,3.7884661941728335,90.2,0.2965100206114655
1306893657.32,3.9081543,5.4319669,1239.6982024000001,-60.1,7.5,219.2,-1.0,386.30270148065273,121165.03252337893,304.2188573772653,0.07130587813412279,3.739488645763151,91.20000000000002,0.2967729799290508
1306893657.74,3.9075652,5.4314846,1244.2913784,-60.1,7.6,217.1,-1.0,389.6008632512323,121697.73819809101,303.1938588764485,0.06797848746875537,3.7518820162488855,91.60000000000001,0.296995825510853
1306893658.18,3.906991,5.4309765,1248.3268116,-60.1,7.7,214.7,-1.0,379.74821402739815,124351.08663542756,302.5762326687708,0.06948936530373626,3.705012875934846,88.10000000000001,0.29718659541461506
1306893658.61,3.906473,5.4304794,1251.64046,-60.1,7.9,212.4,-1.0,369.01923980609183,126296.11819698024,300.4265417090379,0.069958662856537,3.690617869499569,88.9,0.2973492703927428
1306893659.05,3.9059684,5.4299515,1254.5604076,-60.1,7.9,209.9,-1.0,372.002972477926,126417.72393990176,298.8906055812259,0.06905292445918666,3.6762176747431514,86.80000000000003,0.2974876780917804
1306893659.48,3.9055154,5.4294319,1257.0210376,-60.1,8.2,207.3,-1.0,364.77521171272844,128883.65412697823,297.7772899548527,0.06864401717220367,3.7859879208723513,87.2,0.2976054930524103
1306893659.9,3.905104,5.4289124,1259.1535836,-60.1,8.4,204.9,-1.0,364.33608528700404,129756.6528319986,295.88959845042433,0.07059527071309554,3.8261662055931303,88.1,0.29770593049772964
1306893660.33,3.9047242,5.4283804,1261.0236624000001,-60.1,8.6,202.3,-1.0,356.1148817606966,131798.40177377575,297.5224232077923,0.073763294901017,3.742436407123833,89.89999999999999,0.29779174633325023
1306893660.75,3.9043934,5.4278621,1262.6640824,-60.1,8.8,199.7,-1.0,348.2290757117609,134907.24462938958,294.9615045793122,0.07423964635939305,3.798327702031861,88.60000000000001,0.29786523714689855
1306893661.17,3.9040969,5.4273375,1264.1732688,-60.1,9.0,197.1,-1.0,345.963802454146,137867.93641869715,295.1457941815946,0.07476484226971988,3.666491882362724,89.0,0.2979350534198644
1306893661.6,3.9038312,5.4267977,1265.5512216,-60.1,9.2,194.3,-1.0,341.99086928032864,139022.2335027614,297.15578491218605,0.0754610975988058,3.5895129131007466,88.50000000000001,0.2979953771294008
1306893662.03,3.9036043,5.4262565,1266.8307492,-59.6,9.2,191.6,-1.0,337.8902661209594,140069.01258406808,297.5569456565415,0.07835770894884934,3.4776581136728715,87.3,0.2980479689929178
1306893662.5,3.9033985,5.4256669,1268.5039775999999,-28.6,7.6,189.1,-1.0,332.7893134093741,139578.80709902965,296.84499817695246,0.07909543999185378,3.5170967001125724,87.5,0.29809504904541123
1306893662.94,3.9032265,5.4251204,1271.4567336,7.9,6.5,189.1,-1.0,327.94885799510575,138184.6968260371,299.48314512016213,0.07815739549441676,3.4633246283777734,85.5,0.29814128701566495
1306893663.36,3.903062,5.4246053,1275.0656576,19.8,6.5,189.2,-1.0,324.0914748600277,136844.47470672432,299.8140049084958,0.07933670680854904,3.47219870179511,84.50000000000001,0.2981891325974672
1306893663.79,3.9028862,5.4240825,1279.0682824,28.3,6.8,190.0,-1.0,322.3260874032772,133795.14192170012,300.82706162192824,0.07954888971676354,3.37741877423423,86.90000000000002,0.29824057616702104
1306893664.22,3.9027011,5.4235696,1282.9396736,40.4,7.6,191.1,-1.0,317.5180908525824,130574.8091551773,302.35691467438045,0.08017653039231262,3.4057957292916834,84.60000000000001,0.29829607704191163
1306893664.65,3.9024979,5.4230595,1286.6798312,46.1,8.3,192.7,-1.0,317.9465794465547,125952.57189685757,302.0406924228798,0.07885426963752815,3.4176631660188264,82.89999999999999,0.2983559414338626
1306893665.07,3.9022759,5.4225607,1290.19033,49.0,8.7,194.5,-1.0,320.9755643449728,120981.67486066259,302.1410221511078,0.07842317803313681,3.409521353506946,83.4,0.298420169342874
1306893665.49,3.9020364,5.4220792,1293.3727448000002,52.6,9.4,196.5,-1.0,313.5147362412234,117376.51687585385,300.9785095336706,0.07952869381941968,3.415527146416305,83.50000000000001,0.29848830145136046
1306893665.91,3.9017747,5.4216099,1296.2926924,55.0,9.9,198.8,-1.0,309.9692793592298,113291.81603755533,298.3061877958512,0.07794176257824675,3.4319886388400818,81.60000000000001,0.29856003154759847
1306893666.35,3.9014681,5.4211207,1299.1798316,56.2,10.1,201.3,-1.0,313.6496207897123,109249.92301816423,298.2281272281745,0.07501875413155917,3.4437091200343275,83.0,0.2986355127374497
1306893666.77,3.9011466,5.4206625,1301.7060784,57.4,10.3,203.9,-1.0,314.095625334485,105798.45039433696,300.028423461075,0.07294907694631815,3.400348081257433,83.0,0.2987129843035039
1306893667.21,3.9007816,5.4201964,1304.1667084,58.3,10.5,206.6,-1.0,312.35639754176566,101111.09625263259,298.5917550149197,0.0705948813680834,3.4784793398732465,83.2,0.29878930757559496
1306893667.65,3.9003793,5.4197355,1306.430488,58.8,10.5,209.5,-1.0,317.2851300966169,95834.22756241464,298.7215704689455,0.07126320639456278,3.5345427566302985,84.1,0.2988624921775197
1306893705.11,3.8843074,5.4397128,1393.7336404,35.6,6.3,86.8,-1.0,143.04816790561202,92283.11538376632,297.5929030947708,0.07091580449821716,3.614251442011339,84.00000000000001,0.29913004467095805
1306893705.32,3.884644,5.4397351,1393.7664488,33.4,6.2,87.5,-1.0,295.18700020549477,84641.19980504568,295.5009286919344,0.07002737047478787,3.5740847841212924,86.7,0.299388640471483
1306893705.54,3.8849856,5.4397551,1393.7664488,31.4,6.1,88.0,-1.0,285.19477523757706,116745.05691321434,293.5337103113403,0.06842845327239647,3.579327388751213,87.2,0.29963850923788715
1306893705.75,3.8853272,5.4397725,1393.7664488,29.5,6.0,88.5,-1.0,299.0645617219825,174471.80601672846,294.09419293828773,0.06773645727410683,3.524435704111242,87.19999999999999,0.29988018684068685
1306893705.97,3.885669,5.4397877,1393.7664488,27.6,5.9,89.0,-1.0,285.59473246525636,237155.58957667823,296.568668564014,0.06856335599317413,3.5539330181853606,85.4,0.3001144388091908
1306893706.19,3.8860283,5.4398013,1393.7992571999998,25.8,5.9,89.4,-1.0,300.131836713477,295820.41724817536,296.6692116099956,0.0714360812780959,3.6398116582720346,85.6,0.30034195411977693
1306893706.4,3.8863543,5.4398117,1393.8320655999999,24.0,5.8,89.9,-1.0,285.152269510175,275573.2231314106,297.15964356919096,0.07314145446325719,3.7466230065244854,85.89999999999999,0.30056280932537627
1306893706.63,3.88672,5.4398214,1393.9304908,22.3,5.8,90.3,-1.0,292.38602890736826,175841.89773181095,295.3702072957929,0.07283195950522425,3.7998804476532744,87.2,0.30077799961409013
1306893706.84,3.8870666,5.4398288,1394.028916,20.8,5.8,90.6,-1.0,303.2584960938682,81947.35362495169,296.5696719356417,0.07612969324977327,3.7631545900409096,89.60000000000001,0.3009876780917804
1306893707.05,3.8873909,5.4398342,1394.1601496,19.4,5.7,90.9,-1.0,283.6321650811229,6015.915208135975,297.67772462063755,0.07637583970106472,3.7692928720231897,92.1,0.30119238062896325
1306893707.26,3.8877359,5.4398385,1394.3241916,18.0,5.7,91.2,-1.0,302.03597533504177,91142.04212977653,299.4884471690434,0.07872427109819487,3.67361978991137,90.60000000000001,0.3011937585817192
1306893707.48,3.8880776,5.4398415,1394.521042,16.6,5.7,91.5,-1.0,285.4130187336558,89542.80808515375,299.27398789369494,0.07946261182043217,3.6494171629252405,88.50000000000001,0.3011955192991296
1306893707.7,3.8884209,5.4398432,1394.7507008,15.3,5.7,91.8,-1.0,287.0742046225041,91281.75418794788,301.64776591591664,0.08154730518294073,3.711643940460934,88.30000000000001,0.301197815887056
1306893707.91,3.8887642,5.4398437,1395.013168,14.2,5.7,92.0,-1.0,300.4038974490205,93010.91735079439,303.0375251252782,0.08314120381298291,3.724913078816959,88.60000000000001,0.30120072489842964
1306893708.12,3.8890931,5.4398432,1395.3084436000001,13.0,5.6,92.2,-1.0,287.9492384818352,92646.56442200912,301.89452848114854,0.08244569455671315,3.792497806236046,89.79999999999998,0.3012043228861811
1306893708.34,3.8894394,5.4398417,1395.669336,11.9,5.6,92.4,-1.0,289.66283599020784,91937.59864347128,302.90905129372476,0.08180784073815425,3.823667942361326,88.7,0.3012086864032415
1306893708.56,3.8898016,5.4398392,1396.0302284,10.9,5.6,92.6,-1.0,302.7665275478296,94218.68572599076,302.6786989060983,0.08012734862588873,3.7880348127551757,90.80000000000001,0.3012138154496107
1306893708.77,3.8901287,5.4398361,1396.4239292,10.0,6.0,92.8,-1.0,286.5586271569653,90140.7747147572,302.01549014828527,0.08366179047228893,3.7149208331795114,90.5,0.30121963347235786
1306893708.99,3.8904749,5.4398321,1397.0144804,9.1,7.2,92.9,-1.0,289.57311742548495,90584.86066283581,299.7296724752696,0.08291658380738051,3.7264485046881766,90.30000000000001,0.30122659978906824
1306893709.21,3.8908192,5.4398272,1398.0315408,8.2,9.1,93.1,-1.0,288.3316273586325,94183.78476573201,297.34921903605954,0.08305229777077994,3.7255958500116613,88.1,0.3012356330349125
1306893709.42,3.8911614,5.4398214,1399.9672363999998,7.4,11.7,93.3,-1.0,299.873867888128,92075.14852325732,295.00482060877613,0.08310329100509292,3.729457685543031,87.60000000000001,0.3012488001390245
1306893709.63,3.8914977,5.4398147,1403.2480764,6.6,14.7,93.6,-1.0,294.96581273004057,93656.83796631207,295.5757224216885,0.0803865041276009,3.7579805736932865,90.4,0.3012691632186395
1306893709.84,3.8918167,5.4398075,1408.1037196,5.8,17.1,93.8,-1.0,280.1664109522748,94982.94900347352,294.3981242789086,0.07751089165159304,3.6632194458625946,91.60000000000001,0.3013003202615092
1306893710.06,3.8921631,5.4397985,1415.6496516,5.0,19.5,94.0,-1.0,291.4143664205983,93784.30526853885,292.37856670302085,0.0746895289995768,3.605261369533439,91.1,0.301348472055035
1306893710.27,3.8924912,5.4397892,1425.2953212,4.3,21.1,94.2,-1.0,289.5011184559951,93424.62404752031,291.0252715960575,0.07528333027030755,3.581505913855688,91.3,0.3014184414338627
1306893710.48,3.8928151,5.4397792,1437.2375788,3.5,22.6,94.4,-1.0,287.019956250474,95126.69315707147,291.00978024422477,0.07304283484059569,3.442024336597713,94.60000000000001,0.30151543399729225
1306893710.69,3.8931362,5.4397688,1451.4764244,2.9,23.8,94.5,-1.0,285.8086349193058,95835.10365267897,291.49012522470565,0.07345570091644774,3.4146378872885945,94.5,0.3016448084504856
1306893710.9,3.8934518,5.4397581,1467.8150076,2.2,24.9,94.6,-1.0,282.49088893407776,95948.98945659914,291.0471907204029,0.07230045580650028,3.4278055259582696,94.80000000000001,0.30181138762808835
1306893711.11,3.893765,5.4397471,1486.22052,1.6,25.5,94.7,-1.0,281.8516433252432,95312.98944173587,292.40525038562294,0.07137276022463022,3.3830676434593063,92.2,0.302019535047161
1306893711.32,3.8940733,5.4397362,1506.3648776,1.0,26.0,94.7,-1.0,278.54568816795324,96384.4058605039,293.23451466326657,0.0718843795160368,3.3274491346042687,93.70000000000002,0.30227231282493877
1306893711.54,3.8943932,5.4397246,1529.199524,0.5,26.2,94.8,-1.0,277.96790648479833,94451.85000124286,295.2621836037824,0.07147167667861047,3.4081813100797635,95.30000000000001,0.30257385481968946
1306893711.76,3.8947267,5.4397126,1554.8885012,0.0,26.2,94.8,-1.0,290.69993700650025,92698.00234445882,296.83056140078025,0.07148592684140381,3.3470148978892555,94.19999999999999,0.3029276824662336
1306893711.97,3.8950401,5.4397013,1580.54467,-0.4,26.1,94.8,-1.0,287.76552696259773,90461.86029483887,296.5088927853027,0.07146484342345158,3.436896412019496,93.6,0.30333004467095803
1306893712.18,3.895337,5.4396907,1606.0039884,-0.8,25.9,94.7,-1.0,278.91763555665176,86007.74967994835,298.76089646825835,0.07094625112862472,3.5563175386306956,93.9,0.30377420477594486
1306893712.39,3.895653,5.4396794,1634.0879788,-1.1,25.6,94.7,-1.0,296.9735578957547,83932.8939677143,298.79426299161094,0.06865084734418367,3.5889235410118707,92.10000000000001,0.30426138762808835
1306893712.61,3.8959811,5.4396679,1664.1732816,-1.4,25.2,94.7,-1.0,295.0742181978246,78902.36438385973,298.76428562106173,0.07016869408864457,3.723040845038132,90.9,0.3047909042510105
1306893712.82,3.8962905,5.4396571,1693.1102903999997,-1.7,24.9,94.7,-1.0,292.4847115460544,77303.63356291316,298.117813591846,0.07103423555659376,3.7696061459132837,87.1,0.3053547165869685
1306893713.04,3.896602,5.4396464,1722.7034672000002,-2.0,24.5,94.6,-1.0,281.6991050392392,78602.08813122951,299.60322506160423,0.06872083262739215,3.739250231067314,85.2,0.3059494563070035
1306893713.26,3.8969348,5.4396351,1754.6260403999997,-2.2,24.1,94.6,-1.0,300.5380611949426,78704.13035832767,299.3210716798839,0.06724569830899133,3.810606683714156,86.0,0.30657573583456255
1306893713.47,3.8972519,5.4396245,1785.2034692,-2.5,23.8,94.6,-1.0,300.4259573033401,77082.2488171589,301.231792566498,0.06617777529946407,3.893048805275858,83.80000000000001,0.3072263591941426
1306893713.68,3.8975532,5.4396145,1814.30452,-2.7,23.5,94.5,-1.0,285.6983320704478,78467.32820209218,299.39145990568903,0.06480153627755046,3.832244672452404,82.4,0.30789160416352146
1306893713.89,3.8978728,5.4396041,1845.1116075999998,-2.9,23.3,94.5,-1.0,302.567963395146,79058.62627670396,299.0597115023491,0.0649158014930822,3.8741214870651612,80.1,0.3085687913901181
1306893714.11,3.8982031,5.4395936,1876.8701388000002,-3.1,23.0,94.4,-1.0,298.51537267932076,75071.87677889617,299.6652837490422,0.0662546001970786,3.772055793261523,79.5,0.30926021746185917
1306893714.32,3.8985158,5.4395838,1906.7585911999997,-3.2,22.8,94.4,-1.0,295.9454916561272,76163.52660878358,299.1473553705212,0.06800634998230538,3.6822553546147265,82.1,0.3099619781792695
1306893714.53,3.8988258,5.4395742,1936.2205344,-3.4,22.6,94.3,-1.0,293.2841721763589,77558.95448336065,299.22460460859344,0.06858611304523579,3.5721484085835042,83.10000000000001,0.31066695411977696
1306893714.75,3.8991508,5.4395644,1966.86358,-3.5,22.5,94.3,-1.0,293.1484542001394,77205.35994758092,299.3191420886132,0.06731694396775391,3.5095918947583247,82.4,0.31137323146010937
1306893714.97,3.8994715,5.4395548,1996.8832659999998,-3.7,22.4,94.3,-1.0,289.34373949739035,78007.62071045623,297.222857284695,0.06822302820003866,3.522475390403718,84.7,0.312082035047161
1306893715.18,3.8997908,5.4395456,2026.5092511999999,-3.8,22.3,94.2,-1.0,300.8626638748633,83135.39280739447,295.83919502461174,0.07110600837760321,3.5934927359334163,86.7,0.3127909151871435
1306893715.39,3.9001103,5.4395365,2055.938386,-3.9,22.2,94.2,-1.0,300.756154149101,81256.22552482209,297.185395297889,0.07092368386039155,3.5581141074316602,87.5,0.3134939773043789
1306893715.61,3.9004314,5.4395276,2085.2690956,-4.0,22.2,94.1,-1.0,288.5448905628815,78933.07129391533,295.1775489180158,0.07131896727477764,3.539605086873362,87.60000000000001,0.31419413041024064
1306893715.82,3.9007482,5.439519,2114.0420624,-4.1,22.2,94.0,-1.0,297.84326177363687,80825.62730898563,295.79695346423813,0.07153530130831086,3.630974348360926,88.1,0.3148935179867936
1306893716.24,3.901372,5.4395028,2170.1116180000004,-4.2,22.2,93.9,-1.0,293.1454289350787,77341.82287837537,296.0805633249522,0.071370013440768,3.5582570766888697,90.70000000000002,0.3156518513201269
1306893716.46,3.9017075,5.4394945,2200.0000704,-4.3,22.2,93.9,-1.0,300.5223627382171,76876.72872219203,296.5980278938434,0.07371204585077701,3.6139544733959896,92.30000000000001,0.31640582113639987
1306893716.67,3.902018,5.439487,2227.526318,-4.3,22.2,93.8,-1.0,291.49979546291127,77617.59009688684,294.55025752182814,0.07553369916096099,3.6725603131072044,92.50000000000001,0.3171542791416492
1306893716.9,3.9023589,5.4394791,2257.6116208,-4.4,22.2,93.7,-1.0,291.6974195467457,78199.8283279525,297.1034240760059,0.07770191673702867,3.7830837548892906,92.60000000000001,0.3179041916525853
1306893717.11,3.9026748,5.439472,2285.3675272,-4.4,21.6,93.7,-1.0,296.16681660430424,78305.93033293974,298.1721324990869,0.07966300321780534,3.7446469875718003,92.0,0.31864736750560374
1306893717.33,3.9030216,5.4394644,2315.5512552,-4.5,20.2,93.6,-1.0,309.26961967579484,79414.01897857591,298.38479900985544,0.07730827960994775,3.696804616099384,89.7,0.31939092612327646
1306893717.54,3.9033304,5.4394579,2341.8307836,-4.5,18.4,93.6,-1.0,288.63412608195284,77118.12349641637,300.2479844043341,0.07789860799643902,3.618797300588677,91.2,0.32012667634199915
1306893717.75,3.9036575,5.4394509,2368.7008632,-4.5,16.3,93.6,-1.0,304.1393780686186,78469.1117978424,297.75797479658905,0.07781371497548858,3.6187862203504157,91.69999999999999,0.32085645543211294
1306893717.96,3.9039729,5.4394442,2393.2415464,-4.6,14.0,93.6,-1.0,292.7342162729837,77334.01251050168,299.4399048080549,0.07631392359168748,3.548004695280953,93.6,0.32157505779431766
1306893718.17,3.9042936,5.4394373,2416.5683188000003,-4.6,12.1,93.6,-1.0,296.0100830554022,77573.15642305888,300.08400475869115,0.07668628017178582,3.4701491963502606,93.9,0.3222809523699956
1306893718.59,3.904955,5.4394223,2458.497454,-4.9,8.3,93.7,-1.0,302.27283200324797,80447.38093221231,298.7660510690561,0.07630001035320498,3.558101638943567,91.00000000000001,0.3229538526324628
1306893719.02,3.9056343,5.4394059,2492.0932556000002,-5.4,5.2,93.8,-1.0,300.49592895271263,79989.0502326583,297.3110388436801,0.07568592045983343,3.5972185754433954,90.80000000000001,0.32363540337611985
1306893719.44,3.9063048,5.4393886,2516.0105792,-6.0,3.9,93.9,-1.0,301.25982098200114,80894.17601495273,299.323678286117,0.07431535274410209,3.576317164608817,89.39999999999999,0.3243085332973797
1306893719.65,3.9066492,5.4393794,2525.1641228,-6.3,4.1,93.9,-1.0,308.0620748452389,82915.97466023263,296.7902020932627,0.07247793687787416,3.452924377386298,87.19999999999999,0.32493282244873584
1306893719.88,3.9070127,5.4393696,2533.1037556,-6.6,6.1,93.9,-1.0,297.050455550832,81955.41095240109,295.00549208432744,0.07103073369938052,3.560632710698515,87.19999999999999,0.32551087362983816
1306893720.09,3.9073605,5.4393603,2539.7310524,-6.9,8.9,93.8,-1.0,310.0262759107978,82741.86305837713,296.799149620064,0.07210841945684342,3.5090988617193344,90.99999999999999,0.3260339598065661
1306893720.3,3.9077085,5.4393516,2546.3583492,-7.2,12.4,93.7,-1.0,310.4396181943225,85370.68136708777,295.28421698742835,0.07124009271625394,3.591806852487655,89.6,0.32651119077769475
1306893720.51,3.9080416,5.4393439,2553.4449636,-7.5,16.1,93.5,-1.0,298.011453864504,85250.86925494115,297.1469038685027,0.07511614711513155,3.617349134729737,90.8,0.3269422603315004
1306893720.74,3.9084107,5.4393367,2563.1234416,-7.6,20.7,93.2,-1.0,301.19478966437407,91060.85394591714,296.45619110084436,0.07558202049424395,3.644286948051107,90.89999999999999,0.3273386514076159
1306893720.95,3.9087611,5.4393313,2574.7704236,-7.6,22.2,92.9,-1.0,313.6052668761069,94265.20499927492,296.8119536701882,0.07461007134466253,3.648843322279082,91.90000000000002,0.3277077896403368
1306893721.16,3.9090914,5.4393277,2588.090634,-7.4,23.5,92.6,-1.0,297.1131536254924,94806.10487265256,297.24581333257834,0.07642006334099681,3.6699427557432855,93.10000000000002,0.3280101737173272
1306893721.37,3.909424,5.4393253,2603.7402408,-7.2,24.8,92.3,-1.0,299.97408350046425,100911.54880786683,296.79753933919363,0.07566264012048915,3.695194810073774,93.50000000000003,0.32827068334112425
1306893721.58,3.9097588,5.4393243,2621.8504776,-6.8,26.0,92.0,-1.0,303.3077224064165,102944.22662501106,296.66285328865763,0.07348341247480222,3.7214848146892834,91.2,0.3285176430961549
1306893721.79,3.9100758,5.4393245,2641.0762,-6.4,26.5,91.8,-1.0,288.82726163156275,100784.18422379426,297.29167261144266,0.07410635780723987,3.7667368596966275,94.20000000000002,0.32878810460096675
1306893722.01,3.9104129,5.4393257,2663.549954,-5.9,26.3,91.5,-1.0,294.4130576952164,105882.16202835304,298.4444664539199,0.07472521977160113,3.698951884196488,97.00000000000001,0.3290924790541601
1306893722.22,3.9107504,5.4393278,2687.82817,-5.4,25.4,91.3,-1.0,309.804192610332,105400.65703648124,298.842890824635,0.07726601527478151,3.805891766185252,96.4,0.3294380389841689
1306893722.44,3.9110863,5.4393306,2713.2218716,-4.9,23.8,91.2,-1.0,295.5232632685096,99164.26141794519,299.88300104874065,0.07693321036273827,3.7164220885693626,97.30000000000001,0.3298273871906431
1306893722.66,3.9114215,5.4393339,2739.2389328,-4.4,21.6,91.1,-1.0,295.7581415410277,99127.81889972452,298.5600347411866,0.0740456955623494,3.6528437818040325,95.50000000000001,0.33026090643823713
1306893722.87,3.911757,5.4393373,2765.2888024,-4.0,19.2,91.1,-1.0,309.39106982238945,95882.83644899828,297.1511605709425,0.07446198846236349,3.7580676564006614,94.10000000000001,0.33073262559834204
1306893723.08,3.9120935,5.4393409,2790.8465459999998,-3.6,16.7,91.0,-1.0,309.6818454439733,86344.71259871864,297.17936508749256,0.0737587180076719,3.7102581873361937,91.5,0.33123680320114174
1306893723.3,3.9124314,5.4393444,2815.3544208,-3.2,14.4,91.0,-1.0,296.58670215792625,84771.97729209457,298.5905757312818,0.07564843579572313,3.7328333067039807,91.5,0.3317670853533727
1306893723.51,3.9127695,5.4393477,2838.418726,-3.0,12.4,91.0,-1.0,309.2624576161646,85213.84048553975,300.0045458921905,0.0768531376511355,3.645655980527431,91.7,0.3323146684679834
1306893723.72,3.9131092,5.439351,2859.744186,-2.9,10.3,91.1,-1.0,309.0818435752427,80354.41985207066,298.2359115821464,0.08030990298482608,3.6197403497073544,94.3,0.3328697537698207
1306893723.93,3.9134538,5.4393541,2879.3964176,-2.8,8.5,91.1,-1.0,312.29370791168304,81571.22922464211,297.4620878319296,0.08151114888760196,3.6376699112783193,93.60000000000001,0.33342583425975947
1306893724.14,3.9137999,5.439357,2896.9161032,-2.7,6.8,91.1,-1.0,311.8932905718624,83873.87572520005,297.3367692399741,0.08030092108529482,3.6883372478787964,91.9,0.33397035525713475
1306893724.35,3.9141482,5.4393597,2912.3032427999997,-2.7,5.5,91.1,-1.0,313.0182585113177,81548.15998849194,295.1927243622974,0.07754709613831859,3.694115517416717,92.30000000000001,0.33449413041024056
1306893724.56,3.9144965,5.4393622,2925.4266027999997,-2.7,4.4,91.1,-1.0,311.50328813970356,82659.1328457316,294.5939981693483,0.07583884716686397,3.8258602088225913,91.9,0.33498927476719603
1306893724.77,3.9148463,5.4393647,2936.4830336,-2.8,3.8,91.2,-1.0,312.34548349602005,86853.27424467608,294.6820057341349,0.07624978698485316,3.8153963781682507,93.80000000000001,0.33544951098766845
1306893724.98,3.9151938,5.4393669,2945.4725352,-2.8,4.5,91.2,-1.0,309.4169000844459,89000.8691351807,295.2399262897216,0.0751422612319325,3.7840225431055243,94.40000000000002,0.33586993968408135
1306893725.19,3.9155606,5.4393693,2953.4121680000003,-2.9,6.8,91.2,-1.0,326.0160588692385,92459.58230423536,294.31190063195083,0.07549260865096667,3.8058219960183366,93.60000000000001,0.33624925945660983
1306893725.4,3.9159043,5.4393716,2960.13789,-3.0,10.0,91.1,-1.0,305.7240228975966,94860.75301351237,291.6157916160056,0.07272287518686392,3.7335786760668466,96.10000000000001,0.3365870875405993
1306893725.62,3.9162819,5.4393743,2967.683822,-3.1,13.5,91.1,-1.0,320.01586258650775,98692.60640584715,292.08068353104466,0.06975704829132905,3.734612329093776,96.70000000000002,0.3368887060882809
1306893725.83,3.9166373,5.4393772,2975.72188,-3.2,16.1,91.0,-1.0,316.0612869363137,99395.47909201265,293.37924757148903,0.0677494783158831,3.736991196212141,95.90000000000002,0.3371593206989545
1306893726.05,3.9170053,5.4393807,2985.5644,-3.2,18.0,90.9,-1.0,312.7258705030627,100085.76183143591,295.6867016038167,0.0672292370671415,3.7549519690496935,93.70000000000002,0.337407045983294
1306893726.26,3.9173468,5.4393844,2996.3255552,-3.2,19.2,90.8,-1.0,304.95553151957654,104293.26906233249,295.8720792638994,0.06853079367625889,3.6758487964143307,95.20000000000002,0.3376390013638714
1306893726.47,3.9177037,5.4393887,3009.186448,-3.1,19.6,90.7,-1.0,318.8351458081583,108478.48619588983,295.80295990723135,0.0708396137816599,3.6183356230294645,95.00000000000003,0.33786506216877077
1306893726.68,3.918058,5.4393934,3023.5237188,-3.0,19.3,90.6,-1.0,317.0810195764701,108271.99506366286,295.2954503992363,0.07231377219829155,3.511948549386415,95.10000000000001,0.33809395543211296
1306893726.91,3.9184282,5.4393987,3039.7966852,-2.9,18.3,90.5,-1.0,303.80789552433646,110010.45847578743,295.2775133067088,0.07374688615768661,3.571822648270368,95.20000000000002,0.3383350206114655
1306893727.12,3.9187785,5.439404,3056.0040348,-2.7,16.6,90.4,-1.0,314.7861546487092,112365.81980087838,296.6857096832331,0.07440035025878781,3.5905497773559225,95.50000000000001,0.3385929274356124
1306893727.33,3.9191277,5.4394094,3072.4082348,-2.6,14.6,90.4,-1.0,313.9548965633911,106401.01018149684,297.4421580301525,0.07707601831042238,3.686658747575972,97.9,0.3388705849159274
1306893727.54,3.9194781,5.4394149,3088.5827759999997,-2.5,12.4,90.4,-1.0,314.7740868031982,106311.2408639002,299.4396944371113,0.07889546213750194,3.6423910252654577,94.50000000000001,0.3391702896403369
1306893727.75,3.91983,5.4394205,3104.1339576,-2.4,10.7,90.4,-1.0,315.8184281899735,105265.23802991596,299.3999149503181,0.08136703847325419,3.6328100156281917,93.20000000000002,0.3394886732798819
1306893727.97,3.9202006,5.4394263,3119.3570552,-2.3,9.0,90.4,-1.0,316.7694149099555,102106.43802897932,298.04963810475,0.08090547318944313,3.6737228832516133,94.60000000000002,0.33982382201129047
1306893728.18,3.9205561,5.4394318,3132.6444572,-2.2,7.6,90.4,-1.0,318.00323332297637,99767.76369144992,297.4018779889878,0.0816379375795635,3.594674689046046,97.10000000000001,0.3401670088004418
1306893728.41,3.9209476,5.4394377,3145.6365836,-2.2,6.4,90.4,-1.0,318.68224847910346,101067.1092959651,298.54553837791207,0.08074528387853722,3.635720365587382,95.90000000000002,0.3405154011888933
1306893728.62,3.9213049,5.4394431,3155.9384212,-2.2,5.7,90.4,-1.0,318.2073505129585,99582.1420928137,300.11345386868317,0.07936143808336703,3.6214593068692227,94.70000000000002,0.34085782244873575
1306893728.83,3.9216827,5.4394488,3165.2560068,-2.2,5.1,90.4,-1.0,335.4364983369623,99619.33907059136,302.39747961896916,0.07811457656463547,3.625432515317805,93.30000000000001,0.34118853111015307
1306893729.04,3.9220426,5.4394541,3172.7691304,-2.2,4.6,90.4,-1.0,319.61881820449673,99255.62672888326,303.04585010899393,0.07632302764186305,3.664992384746024,90.8,0.34149880013902456
1306893729.25,3.9224048,5.4394594,3179.0355348000003,-2.3,4.2,90.3,-1.0,321.46381240820324,100966.22049492055,302.6597412786231,0.07570109998435241,3.589548573346758,90.9,0.3417858736298382
1306893729.46,3.9227589,5.4394646,3183.9896032,-2.3,3.9,90.3,-1.0,313.7563076282508,103043.81098465128,301.0902289532473,0.07417747030957841,3.575401975871568,90.2,0.34204623014777347
1306893729.67,3.9231306,5.4394701,3188.0578448,-2.4,3.7,90.3,-1.0,329.31290988104627,106515.60922876414,301.72460320428394,0.07452365859076661,3.6756785322187637,92.90000000000002,0.3422783386342127
1306893730.09,3.9238558,5.439481,3193.1431468,-2.5,3.7,90.3,-1.0,321.03374939927625,109708.58227838113,301.55181379049316,0.0746146044916007,3.6594117264037687,92.8,0.3424860267356999
1306893730.51,3.9245781,5.439492,3195.2756928,-2.5,3.8,90.3,-1.0,319.72835897098923,113293.72697501084,302.26235042322827,0.07494819565315244,3.580347823158283,91.2,0.3426631702177647
1306893730.72,3.9249402,5.4394977,3195.5709684,-2.6,4.0,90.2,-1.0,320.4081805165977,113146.53805388356,301.1934306790582,0.07340821643328979,3.6047935912751012,88.70000000000002,0.3428099987391995
1306893730.93,3.925304,5.4395036,3195.4397348,-2.6,4.2,90.2,-1.0,322.11738952443505,111428.80449577008,298.79286403277547,0.0725028587955672,3.5158326830559714,86.30000000000001,0.3429262060882809
1306893731.14,3.9256747,5.4395097,3195.0132256,-2.6,4.3,90.2,-1.0,328.1142401088524,111199.65168677956,297.8382986690462,0.07265429685673619,3.571257068310764,87.20000000000002,0.34301738062896336
1306893731.35,3.9260402,5.4395159,3194.389866,-2.6,4.5,90.1,-1.0,323.42271737291713,108629.0150610716,296.5742106759534,0.07447838024905802,3.635183120203673,88.60000000000001,0.343085359631588
1306893731.56,3.92639,5.4395219,3193.6680812,-2.6,4.7,90.1,-1.0,309.7517068657816,109886.94220305316,295.8096762251575,0.0752342909355743,3.5342404489883887,88.80000000000001,0.3431341238485608
1306893731.77,3.9267572,5.4395284,3192.8478711999996,-2.6,4.9,90.1,-1.0,325.0386868547654,113376.87219683101,296.14866177271415,0.0746282085751719,3.5848077140202586,89.80000000000001,0.3431663526324628
1306893731.98,3.9271243,5.4395351,3191.9620443999997,-2.6,5.0,90.0,-1.0,324.84299512736374,115254.7020510171,298.90574375149964,0.07582857110921286,3.54416476780214,90.39999999999999,0.34318495499466756
1306893732.19,3.9274931,5.4395421,3191.109026,-2.6,5.2,90.0,-1.0,326.12732389319,115370.40198756421,296.5113082552419,0.07550526890816055,3.4335818793700756,87.60000000000001,0.34319207441723976
1306893732.4,3.9278585,5.4395491,3190.3216244,-2.6,5.3,90.0,-1.0,323.14111291970835,116250.79855350147,295.3756126891026,0.07307564497650733,3.4787065594811617,88.20000000000002,0.34318549086518374
1306893732.61,3.9282082,5.439556,3189.6326480000002,-2.5,5.4,89.9,-1.0,309.7902263253466,114138.37633064232,295.95258474002264,0.07405953000070525,3.456457245218428,88.0,0.34317232376107176
1306893732.82,3.9285717,5.4395634,3189.0092884,-2.5,5.5,89.9,-1.0,321.8680236923228,115306.00852312823,297.6813849550201,0.07534846934859239,3.5338437169867523,89.70000000000002,0.343157013174895
1306893733.03,3.928937,5.439571,3188.484354,-2.5,5.6,89.8,-1.0,323.1599762450762,116503.794861694,298.6969167656163,0.07706420480968522,3.6029116588705787,92.60000000000002,0.3431407839535477
1306893733.24,3.9293022,5.4395788,3188.0578448,-2.4,5.7,89.8,-1.0,323.17547133983754,116179.4876203621,300.08663679008106,0.07602663099420265,3.5998230799696254,90.30000000000001,0.3431245547322003
1306893733.45,3.9296691,5.4395867,3187.7625692,-2.4,5.7,89.8,-1.0,324.45115602705175,116446.8670496144,299.55056225370623,0.07403904369783264,3.6299550000645775,91.4,0.3431090910401619
1306893733.66,3.9300257,5.4395947,3187.5657188,-2.3,5.8,89.7,-1.0,315.4882136931465,115808.97345923704,298.95610979751837,0.07521467521586658,3.6965839154323996,91.8,0.3430948521950175
1306893734.08,3.9307613,5.4396115,3187.4344852,-2.2,5.8,89.7,-1.0,325.39019127782706,113819.23685930064,298.613298024612,0.07569608731580316,3.7106097181807383,91.99999999999999,0.3430822209614217
1306893734.29,3.9311196,5.43962,3187.500102,-2.2,5.8,89.6,-1.0,316.89738875523733,114209.9202606432,296.6561112620188,0.07286094384953164,3.6782593721732124,91.69999999999999,0.34307180976282153
1306893734.51,3.9315107,5.4396294,3187.664144,-2.1,5.8,89.6,-1.0,330.21295169201176,116470.29506198243,298.3257917607551,0.07384197006860597,3.757376260306045,95.1,0.34306377170507873
1306893734.72,3.9318673,5.4396381,3187.8609944,-2.1,5.8,89.5,-1.0,315.52792968299633,116916.17862606849,299.674071739628,0.07462419926259205,3.8234696577892495,93.6,0.34305803023526243
1306893734.93,3.9322377,5.4396473,3188.1234616,-2.0,5.8,89.5,-1.0,327.61025040590073,121423.36401842807,299.021362810215,0.07297457573628152,3.8605491011225204,95.9,0.34305450880044186
1306893735.14,3.9325994,5.4396564,3188.4515456,-1.9,5.8,89.5,-1.0,319.8233714563161,119503.609872443,296.5881849346005,0.07243866210340782,3.805639779440635,94.4,0.3430532074006168
1306893735.35,3.932956,5.4396655,3188.7796296,-1.9,5.8,89.5,-1.0,315.6497352396634,118372.10192934024,296.869628867169,0.07320872043887688,3.8039409677017186,92.10000000000001,0.3430538963769948
1306893735.56,3.9333178,5.4396749,3189.1405219999997,-1.8,5.8,89.4,-1.0,320.15752471111637,118922.2375533211,294.60570793156,0.07390639001247623,3.7377764846470964,93.10000000000001,0.34305642262371394
1306893735.99,3.9340604,5.4396945,3189.960732,-1.7,5.8,89.4,-1.0,320.8390870664986,117651.76479704308,296.33728160872033,0.07635268577438534,3.65934273366543,93.0,0.3430615516700831
1306893736.21,3.934443,5.4397048,3190.3872411999996,-1.7,5.7,89.4,-1.0,323.02252544941473,117565.48191646818,296.1934738848664,0.07665178408862441,3.703191975323789,91.49999999999999,0.34306813522213914
1306893736.44,3.9348395,5.4397156,3190.8465588000004,-1.6,5.7,89.3,-1.0,320.26276752869745,116906.91879496315,294.2182674918941,0.07871190193980283,3.7045737008731328,87.7,0.34307609672695105
1306893736.87,3.9355944,5.4397366,3191.6995772,-1.5,5.7,89.3,-1.0,325.88540855658266,116101.65199141065,294.01008118628437,0.08088699953190889,3.756703051513842,86.9,0.3430858955021042
1306893737.08,3.9359476,5.4397465,3192.0932780000003,-1.5,5.7,89.3,-1.0,312.5930375888087,112626.7662977282,294.0971816097726,0.0778835779043429,3.7405651707438583,86.3,0.34309623014777346
1306893737.3,3.9363372,5.4397576,3192.5197872000003,-1.4,5.7,89.2,-1.0,328.785151699049,116320.2266764258,294.63305235835475,0.07890588686217608,3.711372716776956,87.2,0.34310710066395883
1306893737.93,3.9374298,5.4397892,3193.7008896,-1.3,5.7,89.2,-1.0,322.1094778490155,114438.16415377756,294.6848746321474,0.08180584950637282,3.678209168220838,85.50000000000001,0.3431201146622091
1306893738.35,3.938145,5.4398104,3194.4226744,-1.2,5.7,89.1,-1.0,316.48207742978235,114815.58350723828,295.4451636386397,0.0809096298724415,3.6563479375368004,86.4,0.3431340472956299
1306893739.0,3.9392741,5.4398444,3195.5053516,-1.1,5.7,89.1,-1.0,322.5871044368097,116185.96153517393,294.46870007177415,0.07872021790471459,3.7174429937364653,89.1,0.3431497406464611
1306893739.22,3.9396551,5.439856,3195.8662440000003,-1.1,5.7,89.1,-1.0,321.4732376893599,113723.00131460762,296.9096648212152,0.07875313789927879,3.6822577072456015,89.9,0.3431654339972922
1306893739.44,3.9400378,5.4398678,3196.194328,-1.1,5.7,89.0,-1.0,323.00672115351875,112166.27196015425,295.15243680507547,0.07668737378780673,3.730999403614954,89.20000000000002,0.34317997905416014
1306893739.65,3.9403963,5.4398789,3196.522412,-1.0,5.7,89.0,-1.0,317.3677432313413,112776.92925817738,296.26679670650725,0.07602506060764573,3.7440601753652247,92.1,0.3431942944522354
1306893740.29,3.9415082,5.4399137,3197.506664,-0.9,5.7,89.0,-1.0,322.62045257688135,114086.3714607669,297.9202893806908,0.07361597897576408,3.7513402084209497,93.0,0.34320983469720473
1306893740.5,3.9418772,5.4399254,3197.834748,-0.9,5.7,89.0,-1.0,326.0634120133715,114608.49603416739,300.1600568337535,0.0737183494122246,3.789821913139637,94.9,0.34322415009528
1306893740.92,3.9426081,5.4399487,3198.4909159999997,-0.8,5.7,88.9,-1.0,323.2301971494221,117380.03493734244,300.3094674161217,0.07597522283337463,3.7800444572985072,93.10000000000001,0.34323907791680236
1306893741.78,3.9440927,5.4399967,3199.7704436,-0.7,5.7,88.9,-1.0,320.62793483924037,117161.52198250404,298.67147899374856,0.07347947145705382,3.6980188259997404,92.00000000000001,0.3432559961145276
1306893742.41,3.9451929,5.4400328,3200.7546956,-0.7,5.7,88.9,-1.0,324.20018551930735,116766.92289672674,299.297246353786,0.0727300365902581,3.8013415850020142,92.50000000000001,0.3432724549946676
1306893742.83,3.9459102,5.4400566,3201.3780552,-0.6,5.7,88.9,-1.0,317.20608191156384,115859.93254264671,299.01363878759634,0.0717207992656748,3.8212875085017473,93.00000000000001,0.34328868421601494
1306893743.05,3.9462984,5.4400695,3201.7389476,-0.6,5.7,88.8,-1.0,327.5696263544828,116103.42725404144,300.4646127256857,0.07371111449270233,3.8102973514518714,92.60000000000001,0.3433032292728828
1306893743.91,3.9477853,5.4401194,3203.0512836,-0.5,5.7,88.8,-1.0,321.07660896284966,114645.50362139598,299.4071244543052,0.0747716820549293,3.930816939686719,90.3,0.3433199943647463
1306893744.78,3.9492932,5.4401706,3204.4292364000003,-0.5,5.7,88.8,-1.0,321.82750035669324,112724.47667299537,300.01424528223896,0.07392286388941459,3.8672448361955536,88.20000000000002,0.34333920915039806
1306893745.21,3.9500438,5.4401962,3205.0854044,-0.4,5.7,88.8,-1.0,324.10767882293186,111952.91267210375,301.69335214864935,0.07363347500369623,3.878787679048129,87.10000000000002,0.3433591894653587
1306893745.84,3.9511273,5.4402335,3206.0696564,-0.4,5.7,88.7,-1.0,319.4498832251628,110221.5429096192,302.3383499484237,0.07621647703145103,3.871353833577122,87.20000000000002,0.34337916978031935
1306893746.72,3.952653,5.4402863,3207.4476092,-0.3,5.7,88.7,-1.0,321.87599816234865,109664.04280979809,301.17310886105804,0.07764883229371405,3.828462387474677,86.80000000000001,0.3434015997890682
1306893748.89,3.9564179,5.4404181,3210.794066,-0.2,5.7,88.7,-1.0,322.14872681555886,111184.5160272598,299.08375550889974,0.07445684217947307,3.8391257271129087,86.50000000000001,0.3434303071381496
1306893751.91,3.9616504,5.4406035,3215.4856672,-0.1,5.7,88.7,-1.0,321.72521029331455,112504.09051334483,298.482886515682,0.07604507800069751,3.8155563356203435,86.4,0.3434669759920429
1306893825.15,4.0895557,5.4451471,3329.3636235999998,-0.1,5.7,88.7,-1.0,324.20621152511217,113853.26658631636,299.46154221772537,0.07567071615341807,3.805944594004654,87.0,0.34376706348110675
1306893850.1,4.1335133,5.4466755,3368.7337036,-0.1,8.7,88.7,-1.0,327.0070225831861,115794.92002802687,299.5293622434973,0.07790412168025819,3.765098730235384,87.2,0.3441575599815442
1306893851.36,4.1357277,5.446752,3388.1890848000003,-0.1,8.6,88.7,-1.0,326.41883530387247,115722.42402221756,299.8814513019447,0.07863330450149882,3.73612674323271,86.2,0.34459261028775595
1306893851.57,4.1361041,5.4467649,3392.9134944,-0.1,8.0,88.7,-1.0,332.85172376786045,116349.79721026083,300.9165094677181,0.07910617920231443,3.697017093790143,89.10000000000001,0.3450356220987796
1306893852.01,4.136867,5.4467911,3402.067038,-0.1,7.0,88.7,-1.0,322.2195164376701,115893.40971599893,300.6000047515385,0.08048493910256886,3.7273761451367386,90.10000000000001,0.3454967769544226
1306893852.43,4.1376108,5.4468165,3409.8426287999996,-0.1,6.2,88.7,-1.0,328.92984606396277,116382.27235746823,298.55720220709594,0.07852233124187948,3.6114185404611954,89.2,0.3459745437960674
1306893852.64,4.1379897,5.4468294,3413.2875108,-0.1,6.5,88.7,-1.0,335.03707722942846,116272.15340481061,297.40051143604956,0.0764315911653672,3.5308157639746116,92.10000000000001,0.34645805210752845
1306893853.29,4.139135,5.4468683,3423.4909232,-0.1,11.4,88.7,-1.0,327.1226005678122,114675.09948469872,295.9631704262895,0.0754408013205543,3.4950844466804094,90.2,0.3469621531573972
1306893853.93,4.1402734,5.4469068,3442.3557532,-0.1,19.2,88.7,-1.0,330.82674931994165,114751.65629131797,297.90955237233743,0.07622848475646517,3.4225574823687146,90.7,0.34750246374357396
1306893854.14,4.1406425,5.4469193,3452.3295067999998,-0.1,21.2,88.7,-1.0,327.7634328486207,114804.82515173643,298.9724096713646,0.0749169952024979,3.532541358701055,90.4,0.34805509935162293
1306893854.79,4.1417577,5.4469569,3496.063104,-0.1,25.0,88.7,-1.0,321.8843945881747,115459.46537263304,297.6578939186294,0.07581525059622334,3.525078959887771,87.7,0.3484440647934427
1306893855.86,4.1435857,5.4470173,3607.7100892000003,-0.1,26.4,88.7,-1.0,325.23753041695653,118110.55496181971,298.02011754371745,0.07602836785674338,3.62021752022613,87.49999999999999,0.3490016763419991
1306893856.07,4.1439399,5.4470287,3633.5631084,-0.1,26.2,88.7,-1.0,324.4170403337525,120754.06638064406,295.75340975242784,0.07622681960848379,3.634961741129406,86.8,0.34957421571207786
1306893856.51,4.1446872,5.4470522,3690.8793832,-0.1,25.6,88.7,-1.0,327.71198408473157,121789.94236123364,295.5639462169525,0.07308873384287749,3.5494207817130468,85.6,0.3502694694303631
1306893856.72,4.1450501,5.4470634,3719.6195416,-0.1,25.2,88.7,-1.0,334.3371815433514,122026.65847214343,294.72795632297033,0.07379781182921287,3.5671950073794547,86.5,0.3510104252483858
1306893857.39,4.1462136,5.4470984,3813.6484160000005,-0.1,24.1,88.7,-1.0,336.38061663501196,118690.8386320005,296.1235544470892,0.07414841066424374,3.63744964981422,88.6,0.3519526387217017
1306893857.81,4.1469529,5.4471198,3873.5893628000003,0.0,23.5,88.7,-1.0,340.8703345703696,114164.06995471976,297.04536695645913,0.07665914843852618,3.61797320008563,87.50000000000001,0.35302667634199913
1306893858.24,4.1477139,5.4471413,3934.6129868,0.0,23.1,88.7,-1.0,342.5524047864455,109941.98829253447,299.31918230009785,0.0741389805559845,3.606602095538295,90.0,0.3542192944522353
1306893858.87,4.1488432,5.4471724,4023.3269004,0.0,22.7,88.7,-1.0,346.25665891967543,106117.52823745416,297.80539698119327,0.07355421157752112,3.727223622681622,92.4,0.3555748937523228
1306893859.08,4.149211,5.4471822,4051.673358,-0.1,22.6,88.7,-1.0,337.8104486234764,105759.8775115181,298.5631917852444,0.07584688381391239,3.6721487875334065,93.2,0.3569733626937052
1306893859.73,4.1503882,5.4472132,4140.813780799999,-0.1,22.4,88.7,-1.0,348.83236997818625,109391.31747049591,299.11969203551587,0.07596764866946844,3.5972653279049935,92.6,0.3584777808914305
1306893860.57,4.1519169,5.4472521,4253.248167600001,-0.1,21.1,88.7,-1.0,349.7711334080362,113035.58584607086,300.5853965326749,0.07372394230320131,3.573667280956257,91.89999999999999,0.359984036359497
1306893861.43,4.1535041,5.447291,4359.6130004,-0.1,12.7,88.7,-1.0,352.62832611757847,117997.77463561762,301.1518176994707,0.07410412775935223,3.579969444555081,92.79999999999998,0.36167815271995196
1306893861.85,4.154296,5.4473099,4402.5920044,-0.1,8.7,88.7,-1.0,356.3721377640151,122809.64638124742,301.00706556034027,0.07429712871839576,3.686168118080329,94.19999999999999,0.36333881544961066
1306893862.28,4.1551079,5.4473289,4437.500142,-0.1,5.3,88.7,-1.0,354.4286890890946,124492.82624063201,302.9387706318676,0.07496364330667536,3.700494237439631,94.89999999999999,0.36501387013027553
1306893862.49,4.1555233,5.4473386,4451.673370799999,-0.6,4.2,88.7,-1.0,369.2510691511401,125652.83094032636,301.01844767986057,0.07617873144096383,3.610720648837926,94.00000000000001,0.36650259497716975
1306893862.7,4.1559313,5.447348,4463.254736,-0.6,3.4,88.7,-1.0,361.897734609026,124041.25039315346,299.39221431304543,0.07523285582782378,3.6787661233279803,94.90000000000002,0.3678784808039414
1306893863.12,4.1567469,5.4473666,4480.2822956,-0.6,3.7,88.7,-1.0,360.94317296845094,124947.60271840922,299.5057147842694,0.07841641746965762,3.7865012114927814,93.80000000000001,0.3691517091503981
1306893863.96,4.1583778,5.4474038,4503.77311,-1.0,16.5,88.7,-1.0,360.2535000596333,126872.39703864338,301.04025919223284,0.07828689185673667,3.7725127234309164,91.2,0.37027275027025813
1306893864.38,4.1591992,5.4474231,4521.8833468,-1.0,21.3,88.7,-1.0,363.6071467786844,130965.50655584317,301.0520349746722,0.07787837870341882,3.7976564946376135,91.5,0.37136990687568244
1306893864.8,4.1600098,5.4474428,4548.3269172,-1.0,23.8,88.4,-1.0,360.24174706829353,137341.55355461466,301.02898256351386,0.07820321655623033,3.7620149869789756,94.4,0.37232077083018816
1306893865.01,4.1604128,5.4474528,4564.5998836,-1.0,24.3,88.4,-1.0,359.7203073323084,145164.1432296715,299.7890991569005,0.07897191786853006,3.7205981316130954,93.9,0.37304725814427386
1306893865.23,4.1608273,5.4474633,4583.33348,-0.9,24.1,88.3,-1.0,353.8807655926925,150139.00707191948,300.7018903353997,0.07579873936160027,3.7131609216601182,93.9,0.3735692725799694
1306893865.65,4.1616271,5.4474836,4623.7862372,-0.8,21.8,88.3,-1.0,358.9410316163169,154595.23791350343,301.4278947028892,0.07792537264329966,3.6858025721707945,91.9,0.3740853924399869
1306893866.08,4.1624342,5.4475044,4667.322983999999,-0.8,17.1,88.3,-1.0,354.9334146960916,157631.97462381423,301.98862963985454,0.07748327590299395,3.6092815453526237,90.5,0.3746216457208268
1306893866.93,4.1640748,5.4475462,4746.6536952,-0.8,8.3,88.3,-1.0,363.3012333746404,156147.15092531353,302.72138281783555,0.07724310350496684,3.6399195072252595,88.3,0.37530993312240163
1306893867.36,4.164921,5.4475674,4776.9686568,-0.8,5.4,88.3,-1.0,367.60983090798226,154856.59560161486,303.40832789042105,0.07465318996881198,3.585904630559263,88.1,0.376041932247511
1306893867.78,4.1657519,5.4475881,4798.7862428,-0.8,3.8,88.3,-1.0,368.1303105319871,151637.47016634716,300.73101558071784,0.07166011218163466,3.56990461767762,86.30000000000001,0.3767851081005294
1306893867.99,4.1661806,5.4475988,4807.1851932,-0.8,3.9,88.3,-1.0,378.74249764092093,148457.20579681353,299.72582751773535,0.0717535804086104,3.550267748965167,86.30000000000001,0.3774930696053413
1306893868.2,4.1665919,5.4476089,4813.7140648,-0.8,5.2,88.3,-1.0,363.71675287172746,144061.9300015365,298.08628815637564,0.07129072380799256,3.522335680080581,86.60000000000001,0.37817400792555117
1306893868.62,4.1674293,5.4476297,4824.803304,-0.9,10.5,88.3,-1.0,369.5854290034485,145309.2188768133,298.71199759165717,0.07025852472549983,3.6129327017245445,85.0,0.37881911947410757
1306893869.26,4.1686959,5.4476616,4844.3899188,-1.0,13.0,88.3,-1.0,367.09969181857025,147967.5533751553,297.72195600829,0.06888069329606268,3.7148915380963503,85.2,0.37947196286868334
1306893869.68,4.1695399,5.4476833,4860.6300768,-1.0,10.9,88.3,-1.0,373.10291711108135,152826.12152227413,298.4912600844953,0.06838593975653696,3.6775150921961584,86.0,0.3801189882405118
1306893870.12,4.1703986,5.4477055,4877.3623608,-1.0,8.7,88.1,-1.0,362.40016271828677,158694.2845504004,295.79116677821173,0.06640738268792468,3.67410741595643,86.50000000000001,0.3807106658433115
1306893870.76,4.1716733,5.4477389,4899.475222399999,-1.0,9.8,88.1,-1.0,369.64395243132276,163812.98814473447,295.87236096850387,0.06738676431447932,3.69643950751404,86.5,0.3812523543822441
1306893871.18,4.1725281,5.4477615,4913.714068,-1.0,10.8,88.1,-1.0,377.3487845834277,164071.203930227,296.2279541375104,0.06621526083801758,3.680834281593168,88.19999999999999,0.3816421619063036
1306893872.44,4.1750303,5.4478289,4958.16945,-1.0,8.0,88.1,-1.0,368.5671981715751,163284.2141806402,295.7952921554994,0.0684966024111374,3.681662552892682,88.6,0.382064963743574
1306893872.87,4.1758792,5.4478521,4971.1943848,-1.0,6.7,88.1,-1.0,366.2542108188065,162879.03968579613,297.7896428484625,0.06840399251190696,3.6374562114958837,91.5,0.38246724939536747
1306893873.29,4.1767174,5.4478752,4981.529030799999,-1.0,5.9,88.1,-1.0,369.93056401815113,159548.611312434,298.4300039454567,0.07212669054919348,3.611380445816949,93.4,0.38287405167008315
1306893873.93,4.1780023,5.4479107,4993.5040968,-1.0,8.8,87.9,-1.0,371.86279596929194,159130.66840301294,298.10298599531757,0.07381261595020945,3.5941682988912302,92.6,0.3832935617313255
1306893874.14,4.1784178,5.4479223,4997.3426796,-1.0,9.5,87.9,-1.0,366.7185043532633,159134.0432156799,296.56839316589685,0.07109488261923262,3.521513082158016,91.60000000000001,0.3836961535948425
1306893874.56,4.1792542,5.4479458,5005.9712887999995,-1.0,8.9,87.9,-1.0,368.9752306222245,160750.75754528682,299.0410723691127,0.07225140985363074,3.4828858750479075,94.0,0.3840731767794444
1306893874.78,4.1796951,5.4479582,5010.761315199999,-0.8,8.2,87.9,-1.0,371.25768549766224,161074.2712683961,296.8963518642354,0.07449719151835418,3.5289092539522593,92.30000000000001,0.384423482991168
1306893875.42,4.1809762,5.4479948,5024.1799507999995,-0.8,9.3,87.9,-1.0,370.89227087842823,162298.21125681672,297.1859121524597,0.07756536624495132,3.5323766831660635,91.4,0.3847660573568723
1306893875.64,4.1814091,5.4480073,5028.871552,-0.8,11.0,87.8,-1.0,364.91434358845135,163516.3537317772,296.02951446002425,0.0766285528803507,3.5848387536616917,91.70000000000002,0.3850679821162774
1306893876.08,4.182283,5.4480327,5040.7810012,-0.8,16.3,87.8,-1.0,368.27132337823105,164211.7488632287,297.39382449998817,0.07887315954613829,3.6521267762501184,93.50000000000001,0.3853644716175897
1306893876.5,4.183129,5.4480577,5058.431920399999,-0.8,20.8,87.7,-1.0,373.81912958490767,163802.5091994466,298.7955996621205,0.07885802373972045,3.627426241611897,93.50000000000001,0.3855984173743701
1306893876.71,4.183531,5.4480697,5069.6852016,-0.8,22.0,87.7,-1.0,356.76706515536785,163809.39644917272,297.8986502826785,0.0820914687791062,3.636902014021203,92.60000000000002,0.38582822927288285
1306893877.36,4.1847998,5.4481083,5116.765255599999,-0.8,21.6,87.7,-1.0,364.9783246414293,167544.30380249748,296.96881839704923,0.08155959847940304,3.68359660328908,91.90000000000002,0.3861437804539852
1306893878.0,4.1860272,5.448146,5172.408302,-0.4,15.7,87.7,-1.0,360.3038293478412,168740.73616278128,296.4172545614838,0.07892188786913856,3.6564310580952357,93.50000000000001,0.3865612235860937
1306893878.21,4.1864478,5.4481589,5191.3715572,-0.4,13.2,87.7,-1.0,375.64781499393195,170069.3588923154,297.1341312113848,0.08218833519960494,3.7637229188433334,93.80000000000001,0.38701395761933954
1306893878.84,4.1876753,5.4481967,5239.960797600001,-0.3,7.5,87.7,-1.0,364.72910021830353,167833.8382603665,295.96746186540645,0.08345917844619982,3.7062189366285927,92.19999999999999,0.38755993312240167
1306893879.48,4.1889627,5.4482361,5275.853187199999,-0.3,4.4,87.7,-1.0,374.40324111819154,161994.87385109134,295.61838748274005,0.08202920453297531,3.7115046722624014,94.49999999999999,0.3881784808039414
1306893879.69,4.1893799,5.4482489,5284.0880956,-0.3,3.8,87.7,-1.0,368.5347065872298,152578.12130650817,297.8882914385239,0.08071343432040673,3.7179569248610167,95.19999999999999,0.3887849331224016
1306893880.12,4.1902395,5.4482751,5296.260012,-0.4,3.2,87.7,-1.0,370.6717492393791,147093.37688014872,298.37577915493813,0.07920579379879722,3.7608673055864865,94.1,0.38940883950910327
1306893880.75,4.191502,5.4483137,5304.790196,-0.4,3.2,87.7,-1.0,371.100675165298,145297.53603967538,297.75504337712295,0.07820435096902532,3.7274419860688046,93.9,0.3900248609439238
1306893881.39,4.1927985,5.4483533,5305.8072564,-0.4,3.8,87.7,-1.0,374.94623946505106,146910.1854121582,296.65986521293104,0.07717736976392525,3.829925944953956,93.7,0.3906020700427865
1306893882.03,4.1940785,5.4483927,5302.8873088,-0.4,4.6,87.7,-1.0,370.2453033285645,152953.26032919547,296.5417476394685,0.07464905387204662,3.8642211302351552,92.30000000000001,0.3911462082755074
1306893882.24,4.1945083,5.4484059,5301.5421644,-0.4,4.8,87.7,-1.0,379.0671781071957,158054.51497126653,297.91486966365346,0.07498725304714993,3.841804472447577,91.80000000000001,0.39157735438224406
1306893882.87,4.1957636,5.4484448,5297.572348,-0.4,5.4,87.7,-1.0,368.8519207560687,160047.52802730617,298.2601453976564,0.07441737363648909,3.897267842824434,91.00000000000001,0.3918694038135652
1306893883.5,4.1970266,5.4484842,5294.291508,-0.4,5.8,87.7,-1.0,371.2409602106694,159100.6297596547,297.1853026250609,0.07175476712451077,3.779791579236078,92.20000000000002,0.3921095503577472
