timestamp,longitude,latitude,altitude,roll,pitch,yaw,heading,air_speed,engine_0,engine_1,temperature_in,humidity_in,pressure_in,heart_rate,oxygen_mask
1306893631.32,3.1802899,7.0335739,-3.28084,-1.0,-0.7,-1.0,-1.0,172.28322021438876,958.0203922935096,958.0203922935096,296.5801789736759,0.0745515377652976,3.6286324615301733,90.90000000000002,0.34335795181520373
1306893632.58,3.1811981,7.0340873,119.3569592,-1.0,2.4,-1.0,-1.0,172.28322021438876,1198.7944340003612,1198.7944340003612,296.39491045969385,0.07717814100965856,3.6195806168387485,91.4,0.34323699818440767
1306893633.01,3.1815218,7.0342703,119.5538096,-1.0,4.8,-1.0,-1.0,166.14464509704828,1856.7119504962118,1856.7119504962118,295.0843858368974,0.07401615399245419,3.594614957789493,91.40000000000002,0.34322237657460875
1306893634.5,3.1826997,7.0349361,119.8490852,-1.0,8.2,-1.0,-1.0,174.66899983781914,2676.101745996617,2676.101745996617,293.1139194609945,0.07137459108800531,3.705039277619012,90.0,0.34321541025789837
1306893634.92,3.1830425,7.0351298,119.8490852,-1.0,8.6,-1.0,-1.0,180.45234225927172,3289.9308052119886,3289.9308052119886,294.48324709728104,0.0747474386059208,3.759009476485024,91.8,0.3432125777994557
1306893635.36,3.1834127,7.0353391,120.17716920000001,-1.0,9.0,-1.0,-1.0,186.089553859882,3289.9308052119886,3289.9308052119886,294.48324709728104,0.07474743860592079,3.7590094764850237,91.8,0.3432125777994557
1306893635.79,3.1837813,7.0355475,121.062996,-1.0,9.5,-1.0,-1.0,189.84801849286617,2676.101745996617,2676.101745996617,293.1139194609945,0.07137459108800531,3.705039277619011,90.00000000000001,0.3432154102578984
1306893636.22,3.1841549,7.0357587,122.83464959999999,-1.0,9.8,-1.0,-1.0,192.39424881005493,1856.711950496212,1856.711950496212,295.0843858368974,0.07401615399245419,3.594614957789492,91.4,0.3432223765746088
1306893636.66,3.1845465,7.0359802,125.820214,-1.0,10.0,-1.0,-1.0,197.27367084356288,1198.7944340003617,1198.7944340003617,296.39491045969385,0.07717814100965856,3.619580616838748,91.4,0.34323699818440756
1306893639.24,3.1869576,7.0373501,171.1942312,0.1,10.0,-1.0,-1.0,207.90375089869286,958.0203922935099,958.0203922935099,296.5801789736759,0.0745515377652976,3.628632461530173,90.9,0.34335795181520373
1306893640.09,3.1877994,7.0378328,197.014442,0.1,10.2,-1.0,-1.0,221.90957268256835,692.6521830135549,692.6521830135549,295.74181565660854,0.0743479010165387,3.5551685284927292,91.20000000000002,0.34382530745824835
1306893640.51,3.1882238,7.0380774,211.6797968,0.2,10.2,-1.0,-1.0,227.22017045138404,831.991528063,831.991528063,296.7852433968127,0.07389749481973634,3.4996512552052597,91.3,0.3440407274057549
1306893640.95,3.188673,7.0383372,228.2480388,0.2,10.1,-1.0,-1.0,230.03228510028038,1115.9122081617259,1115.9122081617259,296.62292258562155,0.07647625880272262,3.580712091027865,90.60000000000001,0.3442943472657724
1306893642.22,3.1900013,7.0391127,282.8740248,0.5,9.9,51.6,-1.0,236.99929828318682,1606.3842364706795,1606.3842364706795,298.74696246329785,0.07978182244642208,3.5892438596741982,92.4,0.34467473877933325
1306893642.64,3.19045,7.0393772,303.0183824,0.5,9.9,51.6,-1.0,243.46833435063957,2140.0916509099447,2140.0916509099447,299.0333614205922,0.07964433628654893,3.5908962415258157,91.70000000000002,0.3451021337924566
1306893643.06,3.1909045,7.0396464,324.146992,0.8,9.8,51.6,-1.0,247.22793534805703,2571.0244044029782,2571.0244044029782,299.46168773501745,0.08056163003541122,3.619306130247485,92.6,0.3455780633637601
1306893643.48,3.1913605,7.0399178,345.89896120000003,0.9,9.7,51.6,-1.0,248.63843525976523,3202.990738455793,3202.990738455793,301.1178472967782,0.08222901711043651,3.7033608146195904,93.3,0.34610268059910576
1306893643.9,3.1918247,7.0401956,368.1430564,1.1,9.4,51.6,-1.0,253.86657285452398,4006.173887470278,4006.173887470278,299.449555728021,0.08060722373644744,3.8250814950585834,92.60000000000001,0.34667506686332267
1306893644.33,3.1922999,7.0404812,390.4527684,1.3,9.1,51.6,-1.0,254.0302404514797,4471.324312113456,4471.324312113456,298.8790228746784,0.08047575434468172,3.851317650577097,92.20000000000002,0.3472925428038301
1306893644.75,3.1927765,7.0407691,411.90946199999996,1.5,8.8,51.6,-1.0,261.31007923215753,5256.743658225254,5256.743658225254,300.2690728367557,0.08092506086655334,3.777800334746143,90.50000000000001,0.3478542116577234
1306893645.18,3.1932732,7.0410703,432.90683799999994,1.7,8.5,51.6,-1.0,266.16587681419134,5740.856654716626,5740.856654716626,300.9581160073238,0.08052389570224283,3.915092265798484,88.70000000000002,0.3484046272307768
1306893645.62,3.1937805,7.0413791,452.5590696,2.0,8.2,51.6,-1.0,265.893585997998,5896.983354327808,5896.983354327808,301.0336572912697,0.08042800911693132,3.8733291757132027,88.60000000000002,0.3489666788493244
1306893646.04,3.1942742,7.0416804,469.816288,2.3,8.0,51.6,-1.0,271.0200453748558,6288.02054793144,6288.02054793144,302.35887643714887,0.07897375418926608,3.800187775981783,92.00000000000003,0.3495303380794207
1306893646.47,3.1947874,7.0419944,485.6627452,2.6,8.0,51.6,-1.0,275.1058639423719,6518.85709151441,6518.85709151441,301.93333048828913,0.07802147158779085,3.6949482199418604,89.2,0.35000351174521244
1306893646.89,3.1953054,7.0423115,499.4750816,2.9,8.0,51.6,-1.0,284.32518069015555,6581.499220378201,6581.499220378201,300.4941779788247,0.07802510432774383,3.7065856402495023,90.70000000000002,0.3504619106953437
1306893647.31,3.1958196,7.0426264,511.0892552,3.2,7.8,51.6,-1.0,282.00181168881085,6564.9866758982425,6564.9866758982425,302.2007206878355,0.07596815834351675,3.6708873021331296,88.8,0.3508981092955187
1306893647.73,3.1963485,7.0429501,521.325476,3.5,7.9,51.6,-1.0,289.94128453358064,6943.829040662198,6943.829040662198,301.5309522975105,0.07764490470046768,3.6333568376878267,88.10000000000001,0.3513074378169535
1306893648.15,3.1968824,7.0432762,530.67587,3.8,8.2,51.6,-1.0,292.27565988482985,6771.0057796452775,6771.0057796452775,303.36043214261684,0.07945543458485405,3.624494145905539,87.39999999999999,0.3516866810365511
1306893648.58,3.1974445,7.0436186,540.026264,4.1,8.5,51.6,-1.0,300.4095613621559,7123.487295832073,7123.487295832073,303.7762838528896,0.07834728740009982,3.6561234154091653,89.00000000000001,0.3520356858484496
1306893649.0,3.1979892,7.0439493,549.1798076,4.3,8.8,52.5,-1.0,297.6312157894497,7392.093126614592,7392.093126614592,303.51597729610603,0.07772603066019061,3.66532307493506,91.30000000000003,0.3523559833112667
1306893649.44,3.1985787,7.0443058,559.5800704,4.5,9.1,52.6,-1.0,307.0591231945214,8159.261275184261,8159.261275184261,301.48095404412555,0.07954735110058173,3.6145859915568006,93.40000000000002,0.35265155417740846
1306893649.86,3.19915,7.04465,570.3740339999999,4.5,9.3,52.8,-1.0,311.38074244669303,8693.173079109494,8693.173079109494,300.6507406459852,0.07681757869221792,3.6954754067169064,94.00000000000001,0.3529264557522115
1306893650.29,3.1997561,7.0450137,582.8084176,4.5,9.5,52.8,-1.0,322.42190318697465,9356.211622971017,9356.211622971017,301.3882902956669,0.07731069192170244,3.6610336707135906,91.50000000000001,0.3531901040461748
1306893650.71,3.2003444,7.0453654,595.8661608,4.5,9.5,53.1,-1.0,320.1092635318771,9649.520172236742,9649.520172236742,300.6386692767559,0.07674738787556339,3.6457922016117865,93.50000000000001,0.353447245341013
1306893651.15,3.2009679,7.0457371,610.6955575999999,4.5,9.7,53.1,-1.0,323.57073230966336,9920.79182213218,9920.79182213218,302.5929739205094,0.0773249158388663,3.5835797815813533,91.80000000000001,0.35370675977670857
1306893651.58,3.2015819,7.0461011,626.2467392,4.6,9.7,53.4,-1.0,325.3686818173165,10679.958401786706,10679.958401786706,300.34725362955646,0.0769273114689612,3.6178975275875938,91.4,0.3539754605641101
1306893652.0,3.2021945,7.0464622,642.5197056,4.5,9.7,53.4,-1.0,331.8537097716081,11796.59598785023,11796.59598785023,299.77695788561226,0.07537997345831021,3.550649048440025,92.2,0.35425824709079423
1306893652.43,3.2028307,7.046835,660.105008,4.4,9.6,53.7,-1.0,336.05758345513124,13436.649551990273,13436.649551990273,297.3943210493657,0.0752414238365431,3.5337841690308687,91.5,0.3545602484031302
1306893652.85,3.2034683,7.0472068,678.31367,4.2,9.6,53.8,-1.0,344.28455282225275,14707.518892482933,14707.518892482933,296.4873178567401,0.07434763794113354,3.530302954136102,91.3,0.3548829190068048
1306893653.28,3.2041209,7.0475853,697.4409672,4.0,9.5,53.9,-1.0,343.4972695184489,15470.321784705011,15470.321784705011,296.27614748222544,0.07471238697567228,3.5753619140005424,92.0,0.355228861701468
1306893653.72,3.2048073,7.0479815,718.011834,3.8,9.5,53.9,-1.0,352.59638588947837,15997.909080601292,15997.909080601292,298.5749489739185,0.07522179191216201,3.625324460358679,91.30000000000001,0.355598535804705
1306893654.14,3.2054654,7.0483596,738.0577664,3.6,9.5,53.9,-1.0,353.64689839911733,16106.133844995085,16106.133844995085,297.97100310418983,0.07850187987627118,3.625134094437535,90.10000000000001,0.3559897978344513
1306893654.56,3.2061352,7.048743,758.7926752,3.3,9.5,53.9,-1.0,359.45841371799474,16224.6481330322,16224.6481330322,297.64583125256627,0.07700343372339033,3.638671819527739,90.60000000000001,0.3564004277557112
1306893654.99,3.2068193,7.049133,780.6102612,7.1,12.1,53.9,-1.0,358.196335467609,17233.832298422516,17233.832298422516,298.2565750761558,0.07775463842927229,3.7053457451361163,91.20000000000002,0.3568314973095169
1306893655.41,3.2075058,7.0495191,806.0367712,27.9,15.8,55.2,-1.0,366.8378281770157,18795.238760775523,18795.238760775523,296.0460499178472,0.07423555790573909,3.7430533118711544,92.4,0.3572872934599981
1306893655.84,3.2081961,7.0498879,836.8438588,39.6,18.8,57.2,-1.0,354.7438311461119,20084.20026322579,20084.20026322579,297.5147898005596,0.07636395317640296,3.7328644769282415,92.70000000000002,0.35777868672334023
1306893656.26,3.2088972,7.0502318,873.3267996,42.8,20.8,59.7,-1.0,360.18708721263033,22821.602901756938,22821.602901756938,298.7667182822982,0.07760048345956595,3.74017456639227,94.5,0.3583172365921065
1306893656.68,3.2096092,7.0505471,915.0918928000001,48.7,22.7,62.6,-1.0,356.67536997258304,25184.08800791189,25184.08800791189,300.44658323355327,0.07688387553647397,3.6496545406640477,95.30000000000001,0.3589122059709342
1306893656.89,3.2099697,7.0506931,937.7624972,51.5,23.6,64.1,-1.0,354.71826171568085,27666.782141163767,27666.782141163767,302.2487557949595,0.07664413404464636,3.6427014564001117,96.5,0.359517586548362
1306893657.32,3.2107008,7.0509593,986.1220787999999,54.7,24.9,67.6,-1.0,344.3474864900428,31820.38780173598,31820.38780173598,302.46934482631,0.07578854476751969,3.5974605710372374,93.50000000000003,0.3601911757872072
1306893657.74,3.2114339,7.0511874,1037.237566,56.4,25.7,71.0,-1.0,345.6653036614963,35674.63831870493,35674.63831870493,301.20978731881075,0.07548226124620877,3.527376218901102,93.60000000000001,0.360936035804705
1306893658.18,3.2121916,7.0513837,1092.1588276,58.5,26.6,74.6,-1.0,334.5019179479875,38314.682775908295,38314.682775908295,302.7653673163876,0.07460718180420965,3.4735125566890432,93.10000000000001,0.36176227158773216
1306893658.61,3.2129174,7.0515349,1146.2926876,59.8,27.2,78.1,-1.0,322.6775197923159,40422.9801177345,40422.9801177345,301.79297781364164,0.07789061104210426,3.5245440659965808,94.5,0.36266643825439876
1306893659.05,3.2136697,7.0516546,1203.6745792,60.6,27.6,81.7,-1.0,323.09155335693475,41460.65312532812,41460.65312532812,301.5852223572652,0.07607820738269572,3.5751752878776597,92.0,0.3636535882981433
1306893659.48,3.2143908,7.0517345,1259.7113264,61.4,28.1,85.4,-1.0,314.41579101798015,39961.310788399416,39961.310788399416,303.45504921519785,0.07768613364431742,3.5090625845102985,89.10000000000001,0.3647121622264023
1306893659.9,3.215092,7.0517798,1315.0590972,61.9,28.5,88.8,-1.0,311.78992474689306,39919.205362162895,39919.205362162895,301.76956669507945,0.07828026172500263,3.524174736262783,90.4,0.3658279977469622
1306893660.33,3.2157887,7.0517926,1370.8333771999999,62.2,28.9,92.3,-1.0,302.7579688973458,39510.19043159323,39510.19043159323,301.7831601180855,0.0790107023888497,3.6130885327534603,90.1,0.36698884639088175
1306893660.75,3.2164465,7.0517745,1424.3110692,62.4,29.3,95.8,-1.0,294.0352738351582,39051.44565306024,39051.44565306024,301.02790736262267,0.07898304577252419,3.6777109677791993,92.4,0.36817702443112665
1306893661.17,3.2170916,7.0517271,1477.5591024,62.6,29.7,99.2,-1.0,290.5080587101345,39255.41875465874,39255.41875465874,298.82163169263595,0.08081779606611342,3.649899641483925,89.5,0.3694365498029552
1306893661.6,3.2177345,7.0516493,1531.5617287999999,62.6,29.7,102.9,-1.0,286.4560080477536,40526.882062176875,40526.882062176875,296.35833078995864,0.08235190195958365,3.737642858823119,91.30000000000001,0.3707092422788957
1306893662.03,3.2183598,7.0515432,1585.0066124,62.1,29.7,106.2,-1.0,283.02745327431273,40969.05146297412,40969.05146297412,296.2500487810196,0.08317475916465394,3.741199900616581,88.90000000000002,0.371987370012929
1306893662.5,3.2190209,7.0513964,1642.716588,61.3,29.7,110.0,-1.0,287.1060088670532,41632.444326972436,41632.444326972436,296.0065277926971,0.08203750066322829,3.8004796026620746,88.50000000000001,0.37327200474608735
1306893662.94,3.2196173,7.0512319,1696.1286632000001,60.7,29.6,113.4,-1.0,284.7424448956865,41811.12529174854,41811.12529174854,295.56871953821735,0.07963311527292916,3.8529947643213536,88.80000000000001,0.3745549553147663
1306893663.36,3.2201659,7.0510518,1746.5879824,60.0,29.6,116.6,-1.0,283.0791925034123,40887.47425676434,40887.47425676434,294.7094905988012,0.07950092543613507,3.7501298967122376,89.0,0.37582175321502875
1306893663.79,3.2207089,7.0508444,1798.0643619999998,59.3,29.6,119.7,-1.0,283.07313638009833,40335.37017542843,40335.37017542843,293.41280340749216,0.0776940437447001,3.847999518009646,90.70000000000002,0.3770779102578984
1306893664.22,3.2212274,7.0506168,1848.9501903999999,58.7,29.6,123.0,-1.0,280.9445552051487,39378.84649402859,39378.84649402859,293.3352504876004,0.0743409846672289,3.784168047046724,89.50000000000001,0.3783236561021678
1306893664.65,3.2217295,7.0503663,1900.1641028,58.1,29.6,126.0,-1.0,283.5259970081432,38913.692146737565,38913.692146737565,292.58516290124226,0.07445413662130101,3.6990987263140975,86.90000000000002,0.3795587610890444
1306893665.07,3.2222062,7.0500979,1950.9186975999999,57.6,29.6,129.0,-1.0,288.2872639249722,38509.58852800962,38509.58852800962,293.84160712499914,0.07224922020392549,3.7029074109153353,85.7,0.3807875121826577
1306893665.49,3.2226522,7.0498164,2000.6890403999998,57.2,29.3,131.9,-1.0,283.78674643977536,37669.02181085269,37669.02181085269,293.345804775667,0.07234545540472319,3.661937862319916,88.2,0.3820081486655974
1306893665.91,3.2230722,7.0495207,2050.032874,56.8,29.3,134.8,-1.0,282.0354073594715,37121.931017142466,37121.931017142466,294.5568460530677,0.07100151244023813,3.5411191411902276,87.3,0.3832179146323515
1306893666.35,3.2234933,7.0491899,2102.362272,56.5,29.3,137.8,-1.0,286.1607603649504,36626.43521909702,36626.43521909702,295.48485386423664,0.06803071895771788,3.5101035737700683,89.60000000000001,0.3844250777994557
1306893666.77,3.2238705,7.0488591,2152.3294652,56.3,29.3,140.7,-1.0,286.62483193255207,36206.93136827818,36206.93136827818,295.9638185006757,0.06895982412713582,3.420803298628582,89.90000000000002,0.38561417447487123
1306893667.21,3.224236,7.0485013,2204.1667372,56.1,29.3,143.6,-1.0,284.79726020886454,36230.48020410324,36230.48020410324,298.0254967069222,0.06998271495191619,3.3452044202561333,89.80000000000001,0.38679959660960445
1306893667.65,3.2245784,7.0481256,2256.5617519999996,55.9,29.3,146.5,-1.0,288.2303612338878,36187.83459323374,36187.83459323374,297.42651912882764,0.07074249911404708,3.3192242014211444,90.7,0.38798953536725966
1306893705.11,3.1750344,7.0259397,3016.896422,55.9,29.3,238.0,-1.0,284.2490962381891,36040.783275412,36040.783275412,297.73418985510256,0.07347108271030728,3.32019188545968,92.10000000000001,0.3908334767495869
1306893705.32,3.1745324,7.0257207,3018.0119076,55.9,29.3,237.0,-1.0,502.5215534602133,33944.9104855386,33944.9104855386,300.0148003944326,0.07627432848396096,3.4563124845476385,91.19999999999999,0.3935612873357636
1306893705.54,3.1740287,7.0254928,3019.1273932,55.9,29.3,236.0,-1.0,487.29499969509334,77454.40835225614,77454.40835225614,299.78084441861967,0.07552575189704873,3.563683970194533,94.2,0.39617220159648103
1306893705.75,3.1735306,7.0252591,3020.2428788,55.9,29.3,235.2,-1.0,510.16009711257647,149894.52338201218,149894.52338201218,300.4372176884097,0.07538746373438515,3.523332635532729,95.60000000000001,0.39866729127277156
1306893705.97,3.1730382,7.0250196,3021.325556,55.9,29.3,234.2,-1.0,487.57729821255117,234894.87324453762,234894.87324453762,301.6046174105181,0.07301117741829856,3.566900899609281,93.30000000000001,0.40104877639963055
1306893706.19,3.1725269,7.0247618,3022.47385,55.9,29.3,233.2,-1.0,512.4682686419193,315242.2739349939,315242.2739349939,302.6510019133969,0.07539770939569684,3.680055658258028,93.00000000000001,0.4033178052710217
1306893706.4,3.1720689,7.0245224,3023.5237188,55.9,29.3,232.3,-1.0,487.6531777679448,331705.6685671379,331705.6685671379,301.3463605073289,0.07668247737762124,3.7506624870455543,90.70000000000002,0.40546718191144165
1306893706.63,3.1715615,7.024248,3024.6720127999997,55.9,29.3,231.3,-1.0,499.27148860998864,271091.41940589703,271091.41940589703,299.0938770694928,0.0757912232080868,3.755374184704889,91.00000000000001,0.4075026477907068
1306893706.84,3.1710873,7.023982,3025.7546899999998,55.9,29.3,230.3,-1.0,518.3555172644577,208152.9327411774,208152.9327411774,298.1432614728515,0.0743185425889981,3.832908716753019,89.70000000000002,0.4094196862858949
1306893707.05,3.1706494,7.0237281,3026.7717503999997,55.9,29.3,229.5,-1.0,485.85549360355213,150468.12905089578,150468.12905089578,299.18376876321264,0.07551227705425564,3.93244257662297,88.8,0.4112168428913192
1306893707.26,3.17019,7.0234527,3027.8216192,55.9,29.3,228.5,-1.0,516.6366490704113,87436.01246067078,87436.01246067078,298.00845788030836,0.07542756547188861,3.873582771809359,86.0,0.41124233501730345
1306893707.48,3.1697416,7.0231746,3028.871488,55.9,29.3,227.5,-1.0,489.2021266803617,94684.18736204252,94684.18736204252,295.9380432567311,0.07445075349247608,3.8763548970032087,87.4,0.4112676740374259
1306893707.7,3.1692978,7.02289,3029.9213568,55.9,29.3,226.6,-1.0,491.5041740994271,94743.1642536499,94743.1642536499,295.20710273868326,0.07333584842261699,3.7526982862022202,86.10000000000001,0.41129285995168663
1306893707.91,3.1688609,7.0226002,3030.9712256000003,55.9,29.3,225.7,-1.0,514.772916916812,92829.0196708994,92829.0196708994,292.8496808431797,0.07388132556862144,3.741750775545729,84.50000000000001,0.4113178927600857
1306893708.12,3.1684489,7.0223177,3031.988286,55.9,29.3,224.7,-1.0,493.8005631872167,96005.92342639097,96005.92342639097,294.31830771704597,0.0761129502414569,3.7898320054121566,85.80000000000001,0.4113427724626228
1306893708.34,3.1680221,7.0220152,3033.0381548,55.9,29.3,223.7,-1.0,496.7180755033344,98883.4959775688,98883.4959775688,292.3143458968768,0.07441271762381405,3.7137015597426157,87.80000000000001,0.41136742250636726
1306893708.56,3.1675836,7.0216935,3034.1208319999996,55.9,29.3,222.8,-1.0,519.073267336818,95412.99159874622,95412.99159874622,293.490864009545,0.07305640913541377,3.723673549254674,88.10000000000001,0.41139214910304267
1306893708.77,3.1671946,7.0213983,3035.1050840000003,55.9,29.3,221.9,-1.0,492.33194338582683,107303.80754556178,107303.80754556178,294.7436853537301,0.07401326096250369,3.786486323586148,89.60000000000001,0.41141649293506377
1306893708.99,3.1667903,7.0210811,3036.1549528,55.9,29.3,220.9,-1.0,497.30774716284867,109632.98683806129,109632.98683806129,293.3479529837244,0.07393682934451441,3.744651858795357,87.60000000000001,0.4114407602141539
1306893709.21,3.1663956,7.0207607,3037.1720132,55.9,29.3,220.0,-1.0,495.33192401522086,104764.41095017924,104764.41095017924,292.3437341967551,0.0730874998013932,3.7848386975061112,89.50000000000001,0.411465027493244
1306893709.42,3.1660104,7.0204372,3038.1890736,55.9,29.3,219.0,-1.0,516.116931306013,111776.17044917855,111776.17044917855,293.8195079699667,0.07217197111173368,3.817725053906598,89.80000000000001,0.41148921821940315
1306893709.63,3.1656383,7.0201137,3039.206134,55.9,29.3,218.0,-1.0,509.55659901272827,112462.65683759272,112462.65683759272,295.15648195033884,0.07007690362567562,3.7694972443532206,90.70000000000002,0.41151333239263155
1306893709.84,3.1652908,7.0198016,3040.1575776,55.9,29.3,217.1,-1.0,486.2795532524465,112764.3673856973,112764.3673856973,297.67076026708327,0.06922000193432269,3.7557807020559792,90.00000000000001,0.4115372169070672
1306893710.06,3.1649189,7.0194558,3041.2074464,55.9,29.3,216.2,-1.0,507.2916878595214,117894.96911841356,117894.96911841356,298.63215167849114,0.07025960587953135,3.8188153541434526,91.2,0.4115611014215028
1306893710.27,3.1645718,7.0191215,3042.1916984,-59.9,29.3,215.3,-1.0,507.52674130353773,123819.43074203606,123819.43074203606,297.2022794634307,0.07096941661111494,3.725289628654941,89.9,0.4115849093830077
1306893710.48,3.1642341,7.0187849,3043.1759503999997,-59.2,4.9,214.3,-1.0,505.5596803417629,124551.740249052,124551.740249052,298.00549563916,0.07178415387818839,3.7539687063160705,88.70000000000002,0.4116085642386507
1306893710.69,3.163904,7.0184446,3044.127394,-57.8,4.7,213.5,-1.0,505.78193089036097,125991.29484158197,125991.29484158197,298.52644378882354,0.07496801201270964,3.7243682941441945,90.7,0.41163191288257023
1306893710.9,3.1635842,7.0181042,3045.0788376,-55.7,4.4,212.7,-1.0,501.2617108357783,129293.95190898432,129293.95190898432,297.3147291467047,0.0747970988213506,3.672447977329693,87.60000000000001,0.4116551849735589
1306893711.11,3.1632709,7.0177608,3045.9646644,-53.4,4.1,212.0,-1.0,501.23336204738905,132892.2349411824,132892.2349411824,296.83281238107764,0.07633423455677515,3.609942147385041,90.80000000000001,0.4116780742998931
1306893711.32,3.1629667,7.0174181,3046.7848744,-50.9,3.8,211.3,-1.0,496.9487189938682,128805.32886263738,128805.32886263738,297.8448334979361,0.07434659842215159,3.4717318934441836,91.60000000000001,0.411700504308642
1306893711.54,3.1626549,7.0170581,3047.6050843999997,-48.3,3.6,210.7,-1.0,495.1685703400752,129278.77062198728,129278.77062198728,297.0098658347576,0.07471205991250826,3.405683346488983,94.70000000000002,0.41172247499980563
1306893711.76,3.1623345,7.0166789,3048.3924859999997,-45.8,3.5,210.1,-1.0,517.2910725087253,126917.45595281046,126917.45595281046,295.8218761400231,0.07815490941400034,3.3475507443518016,92.30000000000001,0.411743909820453
1306893711.97,3.1620376,7.0163195,3049.0814624,-43.4,3.3,209.6,-1.0,511.29254760146,126450.66859028365,126450.66859028365,294.2199235512057,0.07877458371581261,3.418744870026947,91.10000000000001,0.41176473221765336
1306893712.18,3.1617601,7.015977,3049.6392052,-40.8,3.2,209.1,-1.0,485.6681918239857,131470.63485700035,131470.63485700035,295.0969710831422,0.07868420376004845,3.397709195648337,91.20000000000002,0.4117844063208905
1306893712.39,3.1614689,7.0156108,3050.2297564,-38.4,3.1,208.7,-1.0,516.0595440043106,129050.28773173418,129050.28773173418,295.1875363057041,0.07720479203709903,3.4689276620798974,92.3,0.4118031617889571
1306893712.61,3.1611709,7.0152295,3050.7546908,-35.8,3.0,208.3,-1.0,511.08588031509356,140358.21048503197,140358.21048503197,294.2395795964686,0.07739117920532798,3.485237597888774,92.8,0.411820845515991
1306893712.82,3.1608938,7.014869,3051.2140084,-33.4,2.9,207.9,-1.0,504.68030999031424,143178.03446071106,143178.03446071106,292.2074952734976,0.07411429620958282,3.448790029285653,93.69999999999999,0.41183738094906197
1306893713.04,3.1606186,7.0145056,3051.6405176,-31.0,2.8,207.6,-1.0,484.6436911451064,135893.62519513306,135893.62519513306,292.9076218421204,0.07453493853231061,3.495571459765686,94.6,0.4118526915352386
1306893713.26,3.1603283,7.014117,3052.0670268,-28.7,2.8,207.2,-1.0,515.8372040939211,132507.72536443546,132507.72536443546,294.3264949724801,0.07449930809320607,3.5527460240055038,95.00000000000001,0.411866930380383
1306893713.47,3.160055,7.0137463,3052.4607276,-26.7,2.7,207.0,-1.0,513.9357715202036,136958.79581589453,136958.79581589453,295.7526565482031,0.07743657230127197,3.6224205946769654,93.5,0.41188017403742594
1306893713.68,3.1597982,7.0133938,3052.82162,-24.6,2.7,206.7,-1.0,488.56787039442366,129977.21214645408,129977.21214645408,295.80566064487806,0.07833849456636126,3.7213879179918745,89.60000000000001,0.41189234595343643
1306893713.89,3.1595285,7.0130196,3053.1825124,-22.8,2.7,206.5,-1.0,516.4246465208253,125260.27587827171,125260.27587827171,297.9214418657332,0.07845576084236609,3.7406462471332156,90.0,0.41190352268134545
1306893714.11,3.1592523,7.0126325,3053.5762132,-20.8,2.6,206.3,-1.0,509.33438602485097,139726.63788020902,139726.63788020902,298.995371814085,0.07664630231797448,3.7685850558517937,89.5,0.41191401043287657
1306893714.32,3.1589931,7.0122656,3053.9699140000002,-19.0,2.6,206.1,-1.0,504.97571889046355,138024.39267436677,138024.39267436677,297.7416710168127,0.07534582196823793,3.7350903504739055,88.89999999999999,0.41192411541975316
1306893714.53,3.158738,7.0119016,3054.3636148,-17.4,2.6,205.9,-1.0,500.4075915444207,134992.75405554826,134992.75405554826,297.46252541825345,0.0770388737159248,3.719628096890083,87.19999999999999,0.41193376108904445
1306893714.75,3.1584723,7.0115196,3054.8229324,-15.7,2.6,205.7,-1.0,500.56263341832704,138704.4585235285,138704.4585235285,297.44185322410647,0.07531374106978712,3.6360730488965367,84.7,0.41194325365247403
1306893714.97,3.1582117,7.0111422,3055.28225,-14.1,2.6,205.6,-1.0,493.8931694758282,138599.56732434194,138599.56732434194,299.11082329014505,0.07539318052887889,3.671342087824877,82.5,0.41195274621590355
1306893715.18,3.1579538,7.0107662,3055.774376,-12.6,2.6,205.4,-1.0,514.3601269044503,119333.11129696653,119333.11129696653,297.90795968358265,0.07609176372339294,3.615967141699599,84.00000000000001,0.4119623918851949
1306893715.39,3.157697,7.0103898,3056.2993103999997,-11.3,2.6,205.3,-1.0,514.2661656880357,124258.3602149068,124258.3602149068,299.15154915555223,0.07680922350540723,3.5676315549416775,83.80000000000001,0.41197226721327895
1306893715.61,3.1574402,7.0100113,3056.8570532,-10.0,2.6,205.2,-1.0,494.08762284980423,132772.31817588906,132772.31817588906,296.6742829500102,0.07371221797902433,3.5600934904091686,82.1,0.41198252530601726
1306893715.82,3.1571878,7.0096378,3057.4476044,-8.7,2.6,205.1,-1.0,509.7139960276328,125692.40836570274,125692.40836570274,296.5917082611976,0.07178515009744807,3.4534837226360144,82.89999999999999,0.41199331926927185
1306893716.03,3.1569363,7.0092639,3058.070964,-7.6,2.6,205.0,-1.0,509.76855819702337,139070.12602075934,139070.12602075934,296.01726497665766,0.06947526032376279,3.5254118749961916,84.6,0.41200472565597357
1306893716.24,3.1566938,7.0089023,3058.6943235999997,-6.4,2.6,205.0,-1.0,493.61677617486174,144596.23330170117,144596.23330170117,294.0097385782184,0.0697874143196331,3.5291687573694546,86.2,0.41201666791319147
1306893716.46,3.1564295,7.0085068,3059.4161083999998,-5.3,2.6,204.9,-1.0,513.8966311923105,133186.5719352214,133186.5719352214,293.5689164108831,0.07193169466544919,3.54996330026807,83.2,0.41202937569971815
1306893716.67,3.1561857,7.0081413,3060.1050848,-4.4,2.6,204.9,-1.0,498.18521323814645,135238.5669265761,135238.5669265761,293.27914587361147,0.06957054709796438,3.4602566934255283,86.5,0.4120427724626228
1306893716.9,3.1559188,7.0077402,3060.9252948,-3.3,2.6,204.8,-1.0,498.8125473192455,132324.2033513828,132324.2033513828,293.2537243392631,0.07180527178167594,3.582252453958182,90.00000000000001,0.412057011307767
1306893717.11,3.1556723,7.0073691,3061.679888,-2.5,2.7,204.8,-1.0,505.1559357508282,120045.24663422398,120045.24663422398,293.9412216884429,0.07458897381921137,3.524220976034351,92.3,0.4120719391292894
1306893717.33,3.1554026,7.0069626,3062.5329064000002,-1.6,2.7,204.8,-1.0,527.1651172171876,125008.39032225241,125008.39032225241,296.68414268581563,0.0744858756038156,3.6545206103062626,91.00000000000001,0.41208770903305153
1306893717.54,3.1551636,7.0066019,3063.3203080000003,-0.8,2.7,204.8,-1.0,491.235088939991,138313.9704919427,138313.9704919427,294.70350013420733,0.07516721664163009,3.7477202071729865,88.4,0.41210409136026066
1306893717.75,3.1549118,7.0062218,3064.2061348,-0.2,2.7,204.8,-1.0,516.7107033809525,127973.24205783599,127973.24205783599,295.47689696789257,0.07608568491743668,3.733637689811139,88.70000000000002,0.4121212392167785
1306893717.96,3.1546706,7.0058576,3065.0263448,0.6,2.7,204.8,-1.0,495.9198415438799,140902.5821727249,140902.5821727249,295.99535328804916,0.07594531295159172,3.733229253616181,90.2,0.41213892294381255
1306893718.17,3.1544271,7.0054899,3065.9121716,1.2,2.7,204.8,-1.0,500.366085066411,143241.36757787896,143241.36757787896,296.00383383784094,0.07845853897788174,3.7208752418721827,87.9,0.4121572190942937
1306893718.59,3.1539304,7.0047405,3067.7166336,2.3,2.7,204.8,-1.0,509.6707470893919,128596.16966179492,128596.16966179492,296.75514317502416,0.08195451184167978,3.700296877164692,86.89999999999999,0.41217827115028677
1306893719.02,3.1534272,7.0039825,3069.6195208,3.4,2.7,204.9,-1.0,503.86233094268533,128707.0247864498,128707.0247864498,297.92623867010315,0.08151785655243908,3.736333312803761,90.80000000000001,0.4122020791117917
1306893719.44,3.152936,7.0032444,3071.4895996,4.3,2.7,204.9,-1.0,502.5856449060817,124923.48575531557,124923.48575531557,297.63536933154586,0.08145474161702176,3.813489392864392,87.5,0.41222864297880824
1306893719.65,3.1526852,7.0028684,3072.4738516,4.7,2.7,205.0,-1.0,511.91192713484514,118418.56259783234,118418.56259783234,297.4508752499805,0.07932654709503457,3.751855779445464,85.4,0.41225558961047926
1306893719.88,3.152421,7.0024732,3073.5237204,5.1,2.7,205.0,-1.0,492.1459112779785,125057.02597570569,125057.02597570569,295.40647397844356,0.07640508889399374,3.8217362193301105,83.60000000000001,0.4122832252185282
1306893720.09,3.1521682,7.0020959,3074.5079724,5.4,2.7,205.1,-1.0,514.043147826548,130250.08897030915,130250.08897030915,293.03350041320715,0.07654698464432093,3.7781883136405625,83.30000000000001,0.41231116703830073
1306893720.3,3.151915,7.0017186,3075.4922244,5.8,2.7,205.1,-1.0,514.1530984423453,129397.64001642434,129397.64001642434,293.98365788290016,0.0730611969071651,3.644230372826472,83.50000000000001,0.4123395681756587
1306893720.51,3.1516719,7.0013574,3076.4764764,6.0,2.7,205.2,-1.0,493.1600089500193,141039.43632053112,141039.43632053112,294.2612427276596,0.0741184879887021,3.7332047664394303,85.30000000000001,0.41236819897180915
1306893720.74,3.1514011,7.0009559,3077.5263452,6.4,2.7,205.2,-1.0,500.47920629514124,132357.36606759296,132357.36606759296,295.25345414061906,0.07442308307365958,3.733319733283574,86.7,0.41239736563847584
1306893720.95,3.1511416,7.0005722,3078.576214,6.6,2.7,205.3,-1.0,523.2117252597004,131104.9629238542,131104.9629238542,293.9665110558224,0.07145057059705003,3.742023394242824,87.2,0.41242691506979695
1306893721.16,3.1508947,7.0002081,3079.5276576,6.8,2.7,205.4,-1.0,497.7663056264401,139989.32049761008,139989.32049761008,295.7127478669099,0.06813708735716004,3.7978068091965653,89.50000000000001,0.412454474124915
1306893721.37,3.1506436,6.9998388,3080.544718,7.0,2.7,205.4,-1.0,504.5877447586099,128337.71541052699,128337.71541052699,294.568953103423,0.06764058643722812,3.8382512907745374,85.90000000000002,0.4124799662508993
1306893721.58,3.1503884,6.9994645,3081.5617784,7.2,2.7,205.5,-1.0,511.5727213604261,127030.73300798198,127030.73300798198,296.53531400260084,0.07006698392401184,3.8182899732187714,87.10000000000001,0.4125034680006805
1306893721.79,3.1501446,6.999108,3082.513222,7.4,2.7,205.6,-1.0,488.4627605422061,138653.81337364682,138653.81337364682,298.4566499360418,0.07332691697637475,3.7824897296262776,88.5,0.4125268931975309
1306893722.01,3.1498833,6.9987271,3083.5302824,7.6,2.7,205.6,-1.0,497.866575148182,121363.91021897171,121363.91021897171,299.3578320897498,0.07574290807908564,3.7809157269225064,87.1,0.41255024184145045
1306893722.22,3.1496202,6.9983447,3084.5801512,7.7,2.7,205.7,-1.0,523.0487395147421,116499.13628162578,116499.13628162578,300.59399114373207,0.073328407639912,3.759782948902117,86.99999999999999,0.41257374359123167
1306893722.44,3.1493577,6.9979643,3085.5972116,7.8,2.7,205.8,-1.0,497.76629455086425,130145.69491054857,130145.69491054857,299.7301977507269,0.07343870280052767,3.825543579457962,89.7,0.41259732189394377
1306893722.66,3.1490957,6.9975858,3086.6470803999996,7.9,2.7,205.9,-1.0,495.79350023979663,120259.59699243061,120259.59699243061,301.34112119853427,0.07232636739013637,3.72619090365398,87.70000000000002,0.4126210533025177
1306893722.87,3.1488342,6.9972094,3087.6641408,8.0,2.7,205.9,-1.0,515.9128351207875,118021.8599020313,118021.8599020313,299.66961963459,0.07419172070605447,3.7806919732419093,87.30000000000001,0.41264470815816084
1306893723.08,3.1485732,6.996835,3088.6812012,8.1,2.7,206.0,-1.0,513.8113436530758,140137.26420740856,140137.26420740856,301.2324935749816,0.07658465679518212,3.6597237695206406,89.3,0.412668286460873
1306893723.3,3.1483128,6.9964625,3089.6654532000002,8.2,2.7,206.1,-1.0,488.8519262708453,137705.77955087658,137705.77955087658,300.8730472489209,0.078552999348057,3.525638875428078,87.60000000000001,0.41269194131651604
1306893723.51,3.1480542,6.9960938,3090.6825135999998,8.3,2.7,206.2,-1.0,506.7349761953237,127124.98983590842,127124.98983590842,302.41180814321626,0.07908003375419458,3.4661823501801727,87.9,0.4127155961721591
1306893723.93,3.1475361,6.9953589,3092.683826,8.3,2.7,206.3,-1.0,505.5096746643643,137084.40227820404,137084.40227820404,300.2325221333368,0.07593579264880848,3.4967790162357373,88.30000000000001,0.41274154761572857
1306893724.14,3.1472766,6.9949926,3093.668078,8.4,2.7,206.4,-1.0,504.37146165850174,130213.08808224493,130213.08808224493,298.9345395640746,0.07393987176348837,3.4741798613373005,87.7,0.4127675756122291
1306893724.35,3.1470165,6.9946266,3094.65233,8.4,2.7,206.5,-1.0,504.32164242358584,118144.43410140963,118144.43410140963,300.03428193443773,0.07201202691097122,3.486330691356771,89.80000000000001,0.4127935270557986
1306893724.56,3.146757,6.9942626,3095.6365819999996,8.4,2.7,206.6,-1.0,501.8774163748721,126818.50039707501,126818.50039707501,300.857974894024,0.07320133344327788,3.4371373504447207,91.6,0.4128193253935064
1306893724.98,3.1462383,6.9935389,3097.605086,8.4,2.7,206.7,-1.0,499.5534128327881,127496.49123080824,127496.49123080824,301.6672796736102,0.07488804518573794,3.4519178203524845,88.60000000000002,0.4128473437662099
1306893725.19,3.1459655,6.99316,3098.6221464,8.4,2.7,206.8,-1.0,522.7573107037325,119680.05983466758,119680.05983466758,299.35447386971254,0.07565710788374366,3.4162007618887813,90.0,0.4128752855859824
1306893725.4,3.1457095,6.9928057,3099.6063983999998,8.4,2.7,206.9,-1.0,490.3386694891435,130783.64724000206,130783.64724000206,299.93490540646076,0.07355445905584845,3.377186010532575,87.8,0.41290315085282403
1306893725.62,3.1454276,6.9924169,3100.6562672,8.3,2.7,206.9,-1.0,512.9150845258646,129363.95733784267,129363.95733784267,299.2316667494626,0.07110699607239723,3.420478137675251,88.8,0.4129310926725964
1306893725.83,3.1451615,6.9920509,3101.6405191999997,8.3,2.7,207.0,-1.0,506.4727278276069,128217.22298236431,128217.22298236431,297.03107582516634,0.07003997447481018,3.5342031270166787,89.50000000000001,0.4129590344923691
1306893726.05,3.1448845,6.9916713,3102.690388,8.2,2.7,207.1,-1.0,501.83304793634386,133233.9442057263,133233.9442057263,296.2710750661979,0.07069311991892135,3.570563931329614,91.7,0.4129870528650725
1306893726.26,3.1446259,6.991318,3103.6418316,8.2,2.7,207.2,-1.0,490.0294676219076,127106.16882154092,127106.16882154092,297.20980477603894,0.07272184564588369,3.5010641263933486,92.00000000000001,0.41301262154398755
1306893726.47,3.1443539,6.9909476,3104.6260835999997,8.2,2.7,207.3,-1.0,513.3535388575831,118375.18955093645,118375.18955093645,299.2182177544258,0.07156008015820904,3.566224439513097,91.8,0.41303819022290283
1306893726.68,3.1440825,6.9905792,3105.643144,8.1,2.7,207.3,-1.0,510.9170533017598,122784.80753554963,122784.80753554963,296.76532279078225,0.0737051488132048,3.487239146934419,92.30000000000001,0.41306383545474873
1306893726.91,3.1437976,6.9901938,3106.6930128,8.0,2.7,207.4,-1.0,489.3073224534214,119226.58481145822,119226.58481145822,295.21506123888406,0.07408583993331636,3.6032148886172064,90.19999999999999,0.41308963379245645
1306893727.12,3.1435274,6.9898294,3107.6772648,8.0,2.7,207.5,-1.0,506.22118514912944,111473.70008216344,111473.70008216344,293.95407409573187,0.07206141601471149,3.5383074349784405,90.80000000000001,0.4131131355422378
1306893727.33,3.1432579,6.989467,3108.6615168,7.9,2.7,207.6,-1.0,503.76692823549143,126648.81406997488,126648.81406997488,295.3129125266625,0.07114076621899237,3.54280562312076,90.29999999999998,0.41313656073908817
1306893727.54,3.1429877,6.9891048,3109.6457688,7.8,2.7,207.6,-1.0,503.9603659581612,123897.12521244871,123897.12521244871,294.5231944281646,0.07373323271866461,3.5146572570335444,90.29999999999998,0.4131599859359386
1306893727.75,3.1427169,6.9887428,3110.6300208,7.8,2.7,207.7,-1.0,503.78125500327843,121249.96627877685,121249.96627877685,293.00259124665433,0.07628643347031555,3.5630829684541405,90.4,0.41318325802692735
1306893727.97,3.1424325,6.9883639,3111.6470812,7.7,2.7,207.8,-1.0,503.8356643480011,124610.0511073366,124610.0511073366,293.9173982106648,0.07835600758973181,3.5013070543763964,88.6,0.4132066066708468
1306893728.18,3.1421604,6.9880024,3112.6313332,7.6,2.7,207.9,-1.0,503.79995093354137,127480.0571920162,127480.0571920162,294.5650780971644,0.07920154827585103,3.408293719735065,86.10000000000001,0.4132298022089045
1306893728.41,3.1418618,6.9876068,3113.7140104,7.5,2.7,207.9,-1.0,503.7247297916498,119846.2491080285,119846.2491080285,295.8328636370875,0.07764268631596026,3.409171618779966,87.60000000000001,0.4132533039586858
1306893728.62,3.1415897,6.9872476,3114.6982624,7.4,2.7,208.0,-1.0,501.38862611668435,122416.20490717886,122416.20490717886,295.0030945331891,0.07736833436955211,3.432779209676156,89.00000000000001,0.4132768057084671
1306893728.83,3.1413028,6.9868697,3115.7153227999997,7.3,2.7,208.1,-1.0,526.8729798139464,123376.59272453109,123376.59272453109,297.42086904397274,0.07728409963324408,3.4271253607973406,88.0,0.4133003074582483
1306893729.04,3.1410296,6.9865109,3116.6995748,7.3,2.7,208.1,-1.0,501.2934774890102,127421.58152147109,127421.58152147109,297.8678106914168,0.07629496457575141,3.3689525050712916,90.5,0.4133236561021678
1306893729.25,3.1407545,6.9861507,3117.6838268,7.2,2.7,208.2,-1.0,503.7115971882573,128409.99400248025,128409.99400248025,299.3099405669857,0.07773772629179407,3.4464798106597647,91.1,0.4133470047460873
1306893729.46,3.1404854,6.9857992,3118.6352703999996,7.1,2.7,208.3,-1.0,491.84024049275746,129419.79490028419,129419.79490028419,299.8789837155412,0.07760491539072921,3.5329222096536643,93.1,0.41337027683707595
1306893729.67,3.1402026,6.9854308,3119.6523308,7.0,2.7,208.3,-1.0,515.2161332878671,126705.48146689586,126705.48146689586,301.2374468069379,0.07443948652346564,3.6350341112720685,92.6,0.4133936254809955
1306893729.88,3.1399259,6.9850713,3120.6365828,6.9,2.7,208.4,-1.0,503.50568273465393,123393.79464036848,123393.79464036848,302.4849105590578,0.0721437317894055,3.652919371421795,92.3,0.41341697412491496
1306893730.09,3.1396499,6.9847136,3121.5880264,6.8,2.7,208.5,-1.0,501.3153585463344,114502.609915193,114502.609915193,302.65775404200986,0.07120965932722158,3.5984959337319276,94.4,0.41344016966297276
1306893730.3,3.1393747,6.9843579,3122.5722784,6.7,2.7,208.5,-1.0,498.8069350834231,113423.94861933401,113423.94861933401,301.19216979263285,0.07035807306555349,3.695568762773281,98.00000000000001,0.4134633652010305
1306893730.51,3.1390977,6.9840007,3123.5565303999997,6.6,2.7,208.6,-1.0,501.16572303442666,115092.42054831704,115092.42054831704,300.02795181658485,0.0703899464707096,3.7049151449427815,97.70000000000002,0.41348633108029553
1306893730.72,3.1388202,6.9836437,3124.5407824,6.5,2.7,208.7,-1.0,501.1563599168524,111989.4534612735,111989.4534612735,298.2028489373024,0.07290490213575171,3.672068042151984,94.90000000000002,0.4135092969595606
1306893730.93,3.1385408,6.9832852,3125.492226,6.4,2.7,208.7,-1.0,503.29424983343137,114660.11678750614,114660.11678750614,295.46779526123976,0.07082088725179436,3.6437502553573125,95.30000000000003,0.413532109732964
1306893731.14,3.1382557,6.9829201,3126.5092864000003,6.3,2.7,208.8,-1.0,512.629297285635,113845.13291714685,113845.13291714685,296.8520528678059,0.06985518304807312,3.64422966957373,94.20000000000002,0.41355499905929816
1306893731.35,3.137974,6.9825603,3127.4935384,6.3,2.7,208.8,-1.0,505.6735747465011,119730.24781877661,119730.24781877661,297.05841899663096,0.06843456082351397,3.6789704236654424,94.00000000000001,0.41357788838563236
1306893731.56,3.1377038,6.982216,3128.444982,6.2,2.7,208.9,-1.0,484.75182840173915,118625.89591019783,118625.89591019783,295.27829543886,0.07168311978604405,3.688361882314928,92.9,0.41360077771196657
1306893731.77,3.1374199,6.9818549,3129.429234,6.1,2.7,209.0,-1.0,507.9618415078449,118077.42243106443,118077.42243106443,295.1438251958567,0.07435380532819892,3.7202107659325914,93.60000000000001,0.4136235904853699
1306893731.98,3.1371354,6.981494,3130.413486,6.0,2.7,209.0,-1.0,507.8898377873879,121284.7022255493,121284.7022255493,294.4950579393342,0.0735379171291375,3.72941525421113,90.39999999999999,0.4136464032587732
1306893732.19,3.1368491,6.9811316,3131.397738,5.9,2.7,209.1,-1.0,510.09721295027805,119041.91525001368,119041.91525001368,293.8179125874646,0.07102968639978524,3.7520359475726472,91.39999999999999,0.41366929258510743
1306893732.4,3.1365651,6.9807728,3132.38199,5.8,2.7,209.1,-1.0,505.5775520881172,115513.40521045684,115513.40521045684,293.9477159149761,0.06840492458857579,3.6831956007176676,90.6,0.4136921819114417
1306893732.61,3.1362928,6.9804295,3133.3334336,5.7,2.7,209.2,-1.0,484.61289024815756,121810.76170892945,121810.76170892945,292.9610103647163,0.06858510195071287,3.778118753615892,90.4,0.413714994684845
1306893732.82,3.1360092,6.9800727,3134.3176856,5.6,2.7,209.2,-1.0,503.1982360162526,119128.7663844995,119128.7663844995,293.4134668060919,0.06618162888419266,3.7673297225516613,90.3,0.4137378074582483
1306893733.03,3.1357239,6.9797144,3135.3019375999997,5.5,2.7,209.3,-1.0,505.58935433098105,115158.21504797177,115158.21504797177,293.67303384814704,0.06737564832658965,3.903089171794563,88.3,0.4137606967845825
1306893733.24,3.1354382,6.9793564,3136.2861896,5.4,2.7,209.3,-1.0,505.39352610768515,114750.15994621428,114750.15994621428,293.80480409232365,0.0704282304530851,3.9482401973031065,86.80000000000001,0.4137835095579858
1306893733.45,3.1351507,6.9789968,3137.2704416,5.3,2.7,209.4,-1.0,507.6595727108001,112413.11220461644,112413.11220461644,292.61072852798986,0.07091225792561409,3.94143307835587,85.10000000000001,0.4138063223313892
1306893733.66,3.1348709,6.9786475,3138.2546936,5.2,2.7,209.4,-1.0,493.6864900453251,112720.0739150707,112720.0739150707,292.23326210743085,0.06779855314813343,3.899392832060336,87.00000000000001,0.41382921165772335
1306893733.87,3.1345744,6.9782781,3139.271754,5.1,2.7,209.5,-1.0,521.7359225986986,117723.87528025369,117723.87528025369,293.07932541339744,0.06734811592821505,3.842447840771992,86.8,0.4138521775369884
1306893734.08,3.1342925,6.9779275,3140.2231976,5.0,2.7,209.5,-1.0,495.92497861237104,126399.86361902287,126399.86361902287,293.0658869651406,0.07054639766042578,3.8393513729256443,87.9,0.41387506686332265
1306893734.29,3.1340103,6.977577,3141.2074496,5.0,2.7,209.6,-1.0,496.08135505352465,125573.50777594488,125573.50777594488,294.86552900351234,0.0724136261258349,3.934842661820494,87.0,0.41389795618965686
1306893734.51,3.1337017,6.9771946,3142.2573184,4.9,2.7,209.6,-1.0,516.2209643244875,121828.2015349717,121828.2015349717,294.60067545435214,0.07278696751553096,3.906157662120307,86.30000000000001,0.41392099862185283
1306893734.72,3.13342,6.9768461,3143.2087619999998,4.8,2.7,209.7,-1.0,493.7057699526293,122155.41939949406,122155.41939949406,297.09495800338897,0.07471762986180176,3.793415805579338,85.60000000000001,0.41394404105404886
1306893734.93,3.1331271,6.9764843,3144.2258224,4.7,2.7,209.7,-1.0,512.1321744997155,114902.20745003747,114902.20745003747,298.5154692523442,0.07756037741196213,3.7873238312811255,86.60000000000001,0.41396716003917566
1306893735.14,3.1328407,6.9761311,3145.1772659999997,4.6,2.7,209.7,-1.0,500.53577010087037,114111.10205461942,114111.10205461942,299.9883179507225,0.07895732976738942,3.789665067166616,87.2,0.41399020247137164
1306893735.35,3.132558,6.9757831,3146.1615180000003,4.5,2.7,209.8,-1.0,493.6993022451817,118818.52335543836,118818.52335543836,297.60722889587043,0.07536479303942002,3.659526829968572,86.5,0.4140132449035676
1306893735.56,3.1322709,6.9754302,3147.14577,4.4,2.7,209.8,-1.0,500.4995818408944,114171.65828126433,114171.65828126433,298.27041884811075,0.07747076495785707,3.623799952366486,88.8,0.41403628733576364
1306893735.78,3.1319601,6.9750488,3148.1956388000003,4.4,2.7,209.9,-1.0,515.9701234828111,107309.15291753986,107309.15291753986,300.36006125327003,0.07897184883741275,3.597234111400037,87.89999999999999,0.4140594828738214
1306893735.99,3.1316806,6.9747063,3149.1470824,4.3,2.7,209.9,-1.0,486.6533902740514,119026.36008734792,119026.36008734792,300.9744695936404,0.07719227090037833,3.589926423746234,90.00000000000001,0.41408252530601736
1306893736.21,3.131376,6.9743336,3150.1641428,4.2,2.7,210.0,-1.0,504.98364425898956,107272.72284316528,107272.72284316528,302.55801198433454,0.07682285284108997,3.6065246157170847,89.30000000000001,0.4141057208440751
1306893736.44,3.13106,6.9739476,3151.24682,4.1,2.7,210.0,-1.0,500.57935665084426,109001.2576301302,109001.2576301302,301.10683847633663,0.07879098032685636,3.55606521081636,87.1,0.4141291460409255
1306893736.66,3.1307547,6.9735752,3152.2638804,4.0,2.7,210.0,-1.0,504.9919795658536,117331.93943620134,117331.93943620134,302.25593008271767,0.08142025305821347,3.535168177910758,85.3,0.41415249468484505
1306893736.87,3.1304574,6.973213,3153.2809408,3.9,2.7,210.1,-1.0,514.1754077321648,110318.59090449949,110318.59090449949,300.3088472831605,0.07818091904410282,3.5590870096225395,83.79999999999998,0.4141759964346262
1306893737.3,3.1298633,6.9724908,3155.2822532,3.8,2.7,210.1,-1.0,501.5579964992204,119394.52998701601,119394.52998701601,300.4648871529006,0.07803501644632344,3.6239637321132068,85.8,0.41420179477233404
1306893737.51,3.129579,6.9721459,3156.2336968,3.7,2.7,210.2,-1.0,491.03872751610163,126257.08462716568,126257.08462716568,300.8765274625432,0.0752176846689282,3.584113908683261,86.2,0.41422759311004187
1306893737.72,3.1292889,6.9717944,3157.2179488,3.6,2.7,210.2,-1.0,500.30830708082624,121175.79611651694,121175.79611651694,302.26339479120486,0.07791904412721533,3.6109594667430387,86.9,0.41425339144774964
1306893737.93,3.1289874,6.9714295,3158.2350092,3.6,2.7,210.2,-1.0,518.6752283858307,121750.20656493401,121750.20656493401,301.030399948171,0.0765575566013939,3.6415547082113213,84.5,0.4142792663383883
1306893738.14,3.1287009,6.9710833,3159.1864527999996,3.5,2.7,210.3,-1.0,493.37518513657744,130352.48068301944,130352.48068301944,299.7563631377531,0.07784903979874376,3.6751800546144144,85.3,0.4143049115702343
1306893738.35,3.1284129,6.9707354,3160.1707048000003,3.4,2.7,210.3,-1.0,495.56145913394226,116992.79260796747,116992.79260796747,298.9446975525792,0.07791217160085907,3.7431768685328333,84.69999999999999,0.41433063335501125
1306893738.57,3.1281009,6.9703592,3161.2205736,3.4,2.7,210.3,-1.0,511.33404572111846,117202.89589116932,117202.89589116932,297.2364531353492,0.07818496252451411,3.6807237209835915,84.79999999999998,0.41435643169271896
1306893738.78,3.1278137,6.9700133,3162.1720172,3.3,2.7,210.4,-1.0,493.25718156205335,122581.26612555316,122581.26612555316,299.01551450752316,0.07762736965751817,3.708139811804449,86.39999999999999,0.4143819238187032
1306893739.0,3.127504,6.9696406,3163.221886,3.2,2.7,210.4,-1.0,506.864567705835,112061.60966804177,112061.60966804177,298.6051483404902,0.0766357236768123,3.7585933796342355,89.60000000000001,0.4144074924976184
1306893739.22,3.1271968,6.9692714,3164.2389464000003,3.2,2.7,210.4,-1.0,502.4039008140723,112252.67647835387,112252.67647835387,298.59924260539253,0.07732079337282333,3.819008023528456,92.00000000000001,0.4144330611765335
1306893739.44,3.126888,6.9689007,3165.2888152,3.1,2.7,210.5,-1.0,504.6994855659312,117428.48458130303,117428.48458130303,297.9985144478515,0.07547367617483965,3.7259457836109204,90.0,0.41445640982045306
1306893739.65,3.1265986,6.9685535,3166.2402588,3.0,2.7,210.5,-1.0,495.4998674354459,112856.93254463347,112856.93254463347,296.0671522510205,0.07657348518373239,3.630751015007261,88.60000000000001,0.4144797584643725
1306893739.86,3.1262963,6.9681914,3167.2573192,3.0,2.7,210.5,-1.0,516.1545363312404,108957.71040033337,108957.71040033337,296.31897106388993,0.07583547319594171,3.711591872887901,91.10000000000001,0.4145031836612229
1306893740.08,3.1259925,6.9678277,3168.2743796,2.9,2.7,210.6,-1.0,495.737015073226,122567.35082351291,122567.35082351291,298.218734779268,0.07483393135691833,3.593526228566009,91.4,0.4145266088580734
1306893740.5,3.125401,6.9671206,3170.2428836,2.8,2.7,210.6,-1.0,504.63521947488596,116213.34790202063,116213.34790202063,299.5852739895016,0.0723452697286875,3.537142608253749,90.20000000000002,0.4145524071957811
1306893740.71,3.1251021,6.9667639,3171.259944,2.7,2.7,210.6,-1.0,509.1710851074063,112845.39975830301,112845.39975830301,299.8135868616742,0.07227888939421602,3.4295082158807007,88.60000000000002,0.4145782820864198
1306893740.92,3.1248087,6.966414,3172.2113876,2.7,2.7,210.7,-1.0,499.9749988003816,119902.54058109765,119902.54058109765,300.6991922457946,0.07277640306134531,3.3876976269124843,88.4,0.4146039273182658
1306893741.13,3.1245193,6.9660692,3173.1956396,2.6,2.7,210.7,-1.0,493.0110833797111,112118.13521606769,112118.13521606769,300.83464409151793,0.07241254892432133,3.3683613194672373,89.80000000000001,0.41462964910304273
1306893741.56,3.1239176,6.965353,3175.196952,2.5,2.7,210.7,-1.0,499.95853188900804,105435.10326042128,105435.10326042128,300.3220572520453,0.07179712212366865,3.421032916176226,86.9,0.41465759092281523
1306893741.78,3.1236038,6.96498,3176.2468208,2.5,2.7,210.8,-1.0,508.84613228942834,103876.00125704276,103876.00125704276,299.6224375556773,0.07188064960424576,3.4109143699793028,85.00000000000001,0.4146856092955187
1306893741.99,3.1233123,6.9646338,3177.1982644,2.4,2.7,210.8,-1.0,495.2759466664695,102858.65334978412,102858.65334978412,300.398271133845,0.07365154917393163,3.4210005072467706,85.80000000000001,0.41471339800942936
1306893742.41,3.1227092,6.9639184,3179.1995767999997,2.3,2.7,210.8,-1.0,511.3359437760499,94812.40073952568,94812.40073952568,302.0542001684796,0.07404237286929644,3.5002685094790214,88.10000000000002,0.41474363641712847
1306893742.83,3.1221253,6.9632266,3181.1352724,2.2,2.7,210.9,-1.0,495.1624401680706,104417.03774930605,104417.03774930605,300.8373984225143,0.07484179116273157,3.4441767076726926,86.30000000000001,0.4147760183068923
1306893743.26,3.1215211,6.9625117,3183.1365848,2.1,2.7,210.9,-1.0,499.8608969928421,105371.86372488717,105371.86372488717,300.27425808855486,0.07506305134279216,3.548497072811801,86.3,0.41481069678458254
1306893743.47,3.1212244,6.9621611,3184.1208368,2.1,2.7,210.9,-1.0,501.95238678132546,104296.57337142504,104296.57337142504,297.8261626805201,0.07675819517933975,3.550251710890182,85.2,0.4148430786743463
1306893743.69,3.1209092,6.9617888,3185.1707056,2.0,2.7,210.9,-1.0,508.62201718765255,107620.57917383635,107620.57917383635,297.3191635091041,0.07820298792844538,3.661331320815839,87.10000000000001,0.414875537117041
1306893743.91,3.1205967,6.9614199,3186.2205744,2.0,2.7,211.0,-1.0,504.11970557171713,111881.37020056555,111881.37020056555,298.1901421925322,0.07616407395348423,3.720779874123692,90.10000000000002,0.41490822521852827
1306893744.35,3.1199785,6.9606907,3188.2546952,1.9,2.7,211.0,-1.0,498.67927412091433,111682.95949636983,111682.95949636983,297.9808100347017,0.07514226422634059,3.774297017646608,87.10000000000001,0.4149433630138039
1306893744.78,3.1193654,6.9599685,3190.2888159999998,1.8,2.7,211.0,-1.0,505.2944698253293,113991.33943044356,113991.33943044356,297.20334600297315,0.07384795685408566,3.719916446509593,88.10000000000001,0.4149785773620103
1306893745.0,3.1190593,6.9596083,3191.3058764,1.8,2.7,211.1,-1.0,493.13915309628214,119384.93832853883,119384.93832853883,298.4678036203082,0.07496688430412754,3.691010764093182,87.0,0.4150137151572859
1306893745.42,3.1184654,6.9589098,3193.241572,1.7,2.7,211.1,-1.0,500.68183208850274,111974.07872166422,111974.07872166422,296.4405381655998,0.07494104635021151,3.710795783707128,85.9,0.41505114954048805
1306893745.84,3.1178654,6.9582049,3195.2428844,1.7,2.7,211.1,-1.0,505.3101531672734,108123.7245223189,108123.7245223189,294.5969264756449,0.07287121730585797,3.64536104699405,86.8,0.41508858392368997
1306893746.06,3.1175518,6.9578366,3196.2599448,1.6,2.7,211.1,-1.0,503.9474403623649,104620.24593271219,104620.24593271219,294.3399702681184,0.07352943080078532,3.616410808355519,86.10000000000001,0.41512387482482743
1306893746.5,3.1169271,6.9571037,3198.326874,1.6,2.7,211.2,-1.0,501.8209555537483,101255.43318367658,101255.43318367658,294.07073849849553,0.07583651988403925,3.534480043232404,85.7,0.41515931883182655
1306893746.72,3.1166161,6.956739,3199.3439344,1.5,2.7,211.2,-1.0,499.48058875984924,101403.6370554232,101403.6370554232,294.43170461982675,0.0757506768075939,3.615067686335416,84.30000000000001,0.41519483939175655
1306893747.38,3.1156781,6.9556402,3202.4607324,1.4,2.7,211.2,-1.0,501.6874525723367,106328.28541231551,106328.28541231551,293.43754043286214,0.07532521178424234,3.5062643045383215,83.80000000000001,0.41523518278633226
1306893748.04,3.1147338,6.9545351,3205.5447219999996,1.3,2.7,211.3,-1.0,504.57128149086697,107750.17900836536,107750.17900836536,293.05986202101553,0.07465466426242914,3.556521393688286,84.2,0.41528027246262283
1306893748.89,3.1135282,6.9531262,3209.5145383999998,1.2,2.7,211.3,-1.0,499.89512124952336,107985.99933085986,107985.99933085986,290.86501158852633,0.07272490729061111,3.460907593655514,88.00000000000001,0.41532987876183536
1306893749.76,3.1122847,6.9516747,3213.6155884,1.1,2.7,211.4,-1.0,503.1915896784424,109781.62761076454,109781.62761076454,291.6372345792979,0.07320422323867977,3.541146571542145,89.50000000000001,0.4153843078956937
1306893751.06,3.1104314,6.9495143,3219.6851424,1.1,2.7,211.4,-1.0,501.4292425616522,108722.10280557207,108722.10280557207,292.3082443106859,0.07407054039001477,3.4949625879260915,90.70000000000002,0.41545052618090794
1306893751.91,3.1092288,6.9481141,3223.6549588000003,1.1,2.7,211.5,-1.0,497.3312291969453,109498.91280980964,109498.91280980964,294.51043673289445,0.07354750789975642,3.4958079105609476,91.7,0.4155214907478371
1306893757.45,3.1013143,6.9389211,3249.5735948,0.6,2.7,211.5,-1.0,501.17625060868613,110021.81453851555,110021.81453851555,295.0525144724652,0.07449590974153553,3.5242048514827364,90.80000000000001,0.4156482624013804
1306893759.98,3.0976937,6.9347234,3261.4502356000003,0.6,2.7,211.5,-1.0,501.34705252749876,110253.60010621403,110253.60010621403,296.583628579662,0.07146873904863059,3.526399913004037,90.30000000000001,0.41580037307504625
1306893762.1,3.0946691,6.9312185,3271.3583724,0.6,2.7,211.8,-1.0,499.6891234939593,110219.71723048098,110219.71723048098,297.71191011207435,0.0710168534257,3.637196763487255,93.4,0.4159707798991932
1306893767.18,3.0874026,6.9228018,3295.1772708,0.6,2.7,211.9,-1.0,500.8035515042593,108964.61346944566,108964.61346944566,299.44272406815276,0.0717220397784883,3.5539812857252002,95.9,0.4161943910103043
1306893780.53,3.0683588,6.9007401,3357.6444644,0.6,2.7,211.9,-1.0,499.55804650500926,108554.35277704513,108554.35277704513,301.5129226679487,0.07274719302176866,3.547582474695584,96.7,0.4165564863733839
1306893784.76,3.0623267,6.8937477,3377.460738,0.6,2.7,212.2,-1.0,499.6430985276814,108942.79672830027,108942.79672830027,301.765284073829,0.07234086223662019,3.530093766767687,94.39999999999999,0.4169576237312142
1306893797.5,3.0442239,6.8727484,3437.0407923999996,0.6,2.7,212.2,-1.0,498.19303973270854,108759.87076367684,108759.87076367684,301.30709654624815,0.07627068200552345,3.6262577525938817,93.00000000000001,0.4174885183068922
1306893803.01,3.0364076,6.8636745,3462.7953864,0.6,2.7,212.2,-1.0,497.6827670587532,108910.68981775809,108910.68981775809,303.32200173733673,0.07728390296669595,3.5592609619025577,90.1,0.41806993781695345
1306893808.62,3.0284653,6.8544501,3489.009298,0.6,2.7,212.2,-1.0,496.90390969019325,108942.76633532866,108942.76633532866,302.6943060229434,0.07603386602373666,3.6541119570660934,89.7,0.4186983608265773
1306893814.16,3.0206265,6.8453419,3514.927934,0.6,2.7,212.2,-1.0,496.80615082535564,108395.98872758985,108395.98872758985,301.01602007089417,0.0770560361115651,3.7210418133792476,88.0,0.4193779977469622
1306893814.58,3.0200355,6.8446551,3516.8636296,0.6,2.7,212.7,-1.0,494.2187181511499,107871.79718464261,107871.79718464261,300.6727062557135,0.07909439384316382,3.816275083989247,86.2,0.42000167447487124
1306893819.66,3.0128511,6.8363037,3540.6169112000002,0.6,2.7,212.7,-1.0,496.73980105447276,106841.45847112042,106841.45847112042,299.27467624002634,0.08100727844385741,3.9303063607883044,87.8,0.4206530633637601
1306893820.5,3.0116722,6.8349329,3544.5211107999994,0.6,2.7,212.8,-1.0,493.17134727715717,105844.45721033972,105844.45721033972,298.095512472276,0.07888556319110546,3.9036087360695775,88.4,0.4212904430662972
1306893825.15,3.0051166,6.827309,3566.2402716,0.6,2.7,212.8,-1.0,495.4045187465033,104575.71729744734,104575.71729744734,296.37528098061875,0.078856000579318,4.023806582213246,85.8,0.42192292338125786
1306893826.41,3.0033286,6.8252293,3572.1457836,0.6,2.7,212.9,-1.0,498.62303041245866,103405.47102780813,103405.47102780813,294.0815704739502,0.07948717526192157,4.043571937584568,84.19999999999999,0.4224234264433751
1306893830.61,2.9974127,6.8183465,3591.7652067999998,0.6,2.7,212.9,-1.0,495.1355707545605,103134.04950729304,103134.04950729304,292.231807752578,0.07909765705407679,4.062030120251115,84.1,0.42292347018790705
1306893836.16,2.9896042,6.8092588,3617.6510344000003,0.6,2.7,212.9,-1.0,494.7128506381311,103293.7561585546,103293.7561585546,292.27264340970135,0.07773518095677871,4.023890036964272,81.9,0.42334489407242154
1306893838.29,2.9866098,6.805773,3627.5919796000003,0.6,2.7,213.1,-1.0,494.4502480949665,103798.05483679395,103798.05483679395,291.08814401819063,0.0765573119192724,3.986263864214294,81.60000000000001,0.42372941944425
1306893841.66,2.9818673,6.8002509,3643.3400116,0.6,2.7,213.1,-1.0,495.0125228965054,104647.3903824568,104647.3903824568,290.8947626581719,0.07600910556289517,3.954966997429041,83.50000000000001,0.4240895244311267
1306893850.1,2.9700209,6.7864519,3682.7429,0.6,2.7,213.3,-1.0,493.92479986059044,105207.03982319127,105207.03982319127,291.9156678302422,0.07241966193198907,3.888269935038519,83.10000000000002,0.42448109267259654
1306893856.07,2.9616551,6.7767025,3710.5644232,0.6,2.7,213.4,-1.0,493.3275573314541,104985.58483064061,104985.58483064061,293.94221255406256,0.07164532607645534,3.7990145046560766,86.00000000000001,0.42493306117653357
1306893867.99,2.9449757,6.7572537,3766.1746612,0.6,2.7,213.6,-1.0,492.8627879701505,104859.15927753694,104859.15927753694,293.23564729298937,0.07239661791452427,3.7805206179522406,84.4,0.4254593625763585
1306893869.68,2.9426151,6.7545002,3774.0486772,0.6,2.7,213.6,-1.0,492.1557797518262,104318.15601793531,104318.15601793531,292.1884664071868,0.07328431579118808,3.701856595384831,80.7,0.42599492688082047
