timestamp,longitude,latitude,altitude,roll,pitch,yaw,heading,air_speed,engine_0,engine_1,temperature_in,humidity_in,pressure_in,heart_rate,oxygen_mask
1306893631.32,3.1802899,7.0335739,-3.28084,-1.0,-0.7,-1.0,-1.0,172.28322021438876,958.0203922935096,958.0203922935096,301.37955000125726,0.07518427183868735,3.787017397285992,85.60000000000001,0.35067303126971416
1306893632.58,3.1811981,7.0340873,119.3569592,-1.0,2.4,-1.0,-1.0,172.28322021438876,1198.7944340003612,1198.7944340003612,300.64080487100034,0.07286673329682401,3.737336933950243,85.5,0.350552077638918
1306893633.01,3.1815218,7.0342703,119.5538096,-1.0,4.8,-1.0,-1.0,166.14464509704828,1856.7119504962118,1856.7119504962118,298.7308938265382,0.07631555648972689,3.7179763935490304,84.5,0.3505374560291192
1306893634.5,3.1826997,7.0349361,119.8490852,-1.0,8.2,-1.0,-1.0,174.66899983781914,2676.101745996617,2676.101745996617,296.40654874158145,0.07757607876581014,3.656423736212172,84.80000000000001,0.35053048971240885
1306893634.92,3.1830425,7.0351298,119.8490852,-1.0,8.6,-1.0,-1.0,180.45234225927172,3289.9308052119886,3289.9308052119886,296.1190756943198,0.079710305866061,3.69555466266215,84.0,0.3505276572539661
1306893635.36,3.1834127,7.0353391,120.17716920000001,-1.0,9.0,-1.0,-1.0,186.089553859882,3289.9308052119886,3289.9308052119886,296.1190756943198,0.079710305866061,3.695554662662149,84.0,0.3505276572539662
1306893635.79,3.1837813,7.0355475,121.062996,-1.0,9.5,-1.0,-1.0,189.84801849286617,2676.101745996617,2676.101745996617,296.40654874158145,0.07757607876581017,3.6564237362121723,84.79999999999998,0.35053048971240885
1306893636.22,3.1841549,7.0357587,122.83464959999999,-1.0,9.8,-1.0,-1.0,192.39424881005493,1856.711950496212,1856.711950496212,298.7308938265382,0.07631555648972689,3.717976393549031,84.5,0.3505374560291192
1306893636.66,3.1845465,7.0359802,125.820214,-1.0,10.0,-1.0,-1.0,197.27367084356288,1198.7944340003617,1198.7944340003617,300.64080487100034,0.07286673329682403,3.7373369339502434,85.5,0.350552077638918
1306893639.24,3.1869576,7.0373501,171.1942312,0.1,10.0,-1.0,-1.0,207.90375089869286,958.0203922935099,958.0203922935099,301.37955000125726,0.07518427183868737,3.787017397285992,85.6,0.35067303126971416
1306893640.09,3.1877994,7.0378328,197.014442,0.1,10.2,-1.0,-1.0,221.90957268256835,692.6521830135549,692.6521830135549,300.6788218843365,0.07228299881495139,3.772164462002563,83.0,0.3511403869127588
1306893640.51,3.1882238,7.0380774,211.6797968,0.2,10.2,-1.0,-1.0,227.22017045138404,831.991528063,831.991528063,301.9700696240644,0.07509716589653447,3.864715459139094,84.0,0.3513558068602653
1306893640.95,3.188673,7.0383372,228.2480388,0.2,10.1,-1.0,-1.0,230.03228510028038,1115.9122081617259,1115.9122081617259,302.7542332697278,0.07506832356176363,3.7766347847447,85.4,0.35160942672028284
1306893642.22,3.1900013,7.0391127,282.8740248,0.5,9.9,51.6,-1.0,236.99929828318682,1606.3842364706795,1606.3842364706795,303.6831872986335,0.07671078095143269,3.7278449013777153,87.69999999999999,0.3519898182338437
1306893642.64,3.19045,7.0393772,303.0183824,0.5,9.9,51.6,-1.0,243.46833435063957,2140.0916509099447,2140.0916509099447,304.70467389979495,0.07574880603113013,3.7306481195591976,85.9,0.35241721324696695
1306893643.06,3.1909045,7.0396464,324.146992,0.8,9.8,51.6,-1.0,247.22793534805703,2571.0244044029782,2571.0244044029782,305.928648248826,0.07426783787650122,3.685615556610253,83.30000000000001,0.3528931428182706
1306893643.48,3.1913605,7.0399178,345.89896120000003,0.9,9.7,51.6,-1.0,248.63843525976523,3202.990738455793,3202.990738455793,304.8477281422494,0.07635600273594154,3.668973653469281,80.90000000000002,0.35341776005361614
1306893643.9,3.1918247,7.0401956,368.1430564,1.1,9.4,51.6,-1.0,253.86657285452398,4006.173887470278,4006.173887470278,304.4953751223065,0.07622459466727927,3.6683197228262725,80.90000000000002,0.3539901463178331
1306893644.33,3.1922999,7.0404812,390.4527684,1.3,9.1,51.6,-1.0,254.0302404514797,4471.324312113456,4471.324312113456,302.7456097433482,0.07833264249942097,3.665772006616349,81.60000000000001,0.3546076222583406
1306893644.75,3.1927765,7.0407691,411.90946199999996,1.5,8.8,51.6,-1.0,261.31007923215753,5256.743658225254,5256.743658225254,301.1041985850572,0.0763140073986062,3.617381373493749,84.4,0.35516929111223383
1306893645.18,3.1932732,7.0410703,432.90683799999994,1.7,8.5,51.6,-1.0,266.16587681419134,5740.856654716626,5740.856654716626,302.297852143305,0.07881056364670581,3.7109207716903225,84.9,0.3557197066852872
1306893645.62,3.1937805,7.0413791,452.5590696,2.0,8.2,51.6,-1.0,265.893585997998,5896.983354327808,5896.983354327808,301.5291484132078,0.0779299872091146,3.706500546743833,83.8,0.3562817583038349
1306893646.04,3.1942742,7.0416804,469.816288,2.3,8.0,51.6,-1.0,271.0200453748558,6288.02054793144,6288.02054793144,300.1110814499452,0.0745657150066256,3.7027613510445123,85.6,0.3568454175339311
1306893646.47,3.1947874,7.0419944,485.6627452,2.6,8.0,51.6,-1.0,275.1058639423719,6518.85709151441,6518.85709151441,301.16431986375034,0.07241411063597615,3.718598043219544,83.6,0.3573185911997229
1306893646.89,3.1953054,7.0423115,499.4750816,2.9,8.0,51.6,-1.0,284.32518069015555,6581.499220378201,6581.499220378201,299.54843107014955,0.0713536864587352,3.706189605854324,84.3,0.35777699014985415
1306893647.31,3.1958196,7.0426264,511.0892552,3.2,7.8,51.6,-1.0,282.00181168881085,6564.9866758982425,6564.9866758982425,299.3089168263336,0.07129878090447626,3.748533003364644,87.2,0.3582131887500291
1306893647.73,3.1963485,7.0429501,521.325476,3.5,7.9,51.6,-1.0,289.94128453358064,6943.829040662198,6943.829040662198,298.32051144760686,0.06844861616804343,3.7395458389353933,89.80000000000001,0.3586225172714639
1306893648.15,3.1968824,7.0432762,530.67587,3.8,8.2,51.6,-1.0,292.27565988482985,6771.0057796452775,6771.0057796452775,298.1965250649617,0.07219088931084994,3.6620871334378142,89.20000000000002,0.3590017604910614
1306893648.58,3.1974445,7.0436186,540.026264,4.1,8.5,51.6,-1.0,300.4095613621559,7123.487295832073,7123.487295832073,297.97396378168395,0.0714043621738818,3.6615039941538337,88.80000000000001,0.35935076530296
1306893649.0,3.1979892,7.0439493,549.1798076,4.3,8.8,52.5,-1.0,297.6312157894497,7392.093126614592,7392.093126614592,299.19813241124183,0.07299932602097936,3.7238865105497156,88.80000000000001,0.35967106276577715
1306893649.44,3.1985787,7.0443058,559.5800704,4.5,9.1,52.6,-1.0,307.0591231945214,8159.261275184261,8159.261275184261,297.6392638655459,0.07318710090251143,3.7155680321980364,89.70000000000002,0.35996663363191883
1306893649.86,3.19915,7.04465,570.3740339999999,4.5,9.3,52.8,-1.0,311.38074244669303,8693.173079109494,8693.173079109494,297.87949838123706,0.07331896652655912,3.7011798010393724,90.6,0.36024153520672203
1306893650.29,3.1997561,7.0450137,582.8084176,4.5,9.5,52.8,-1.0,322.42190318697465,9356.211622971017,9356.211622971017,299.86261011046275,0.07576781332780094,3.7197142709466995,89.6,0.3605051835006853
1306893650.71,3.2003444,7.0453654,595.8661608,4.5,9.5,53.1,-1.0,320.1092635318771,9649.520172236742,9649.520172236742,297.74050082909196,0.07493427824466026,3.7982491623314525,90.6,0.36076232479552345
1306893651.15,3.2009679,7.0457371,610.6955575999999,4.5,9.7,53.1,-1.0,323.57073230966336,9920.79182213218,9920.79182213218,296.3882861005491,0.07547696547563572,3.782777312874999,93.4,0.361021839231219
1306893651.58,3.2015819,7.0461011,626.2467392,4.6,9.7,53.4,-1.0,325.3686818173165,10679.958401786706,10679.958401786706,295.95820112032175,0.07517724976343898,3.6774842575487363,93.4,0.36129054001862054
1306893652.0,3.2021945,7.0464622,642.5197056,4.5,9.7,53.4,-1.0,331.8537097716081,11796.59598785023,11796.59598785023,297.79298607942934,0.07795128352208527,3.637787764238281,91.7,0.36157332654530466
1306893652.43,3.2028307,7.046835,660.105008,4.4,9.6,53.7,-1.0,336.05758345513124,13436.649551990273,13436.649551990273,297.85115954894366,0.07653157349461022,3.645480820851855,93.20000000000002,0.3618753278576407
1306893652.85,3.2034683,7.0472068,678.31367,4.2,9.6,53.8,-1.0,344.28455282225275,14707.518892482933,14707.518892482933,299.9983652837385,0.07552929587363821,3.5612888683878525,94.00000000000001,0.36219799846131523
1306893653.28,3.2041209,7.0475853,697.4409672,4.0,9.5,53.9,-1.0,343.4972695184489,15470.321784705011,15470.321784705011,300.7620912803162,0.07440843883353249,3.5822608306062995,92.2,0.3625439411559783
1306893653.72,3.2048073,7.0479815,718.011834,3.8,9.5,53.9,-1.0,352.59638588947837,15997.909080601292,15997.909080601292,300.27613183761355,0.07287661613801424,3.546045888443185,94.2,0.36291361525921545
1306893654.14,3.2054654,7.0483596,738.0577664,3.6,9.5,53.9,-1.0,353.64689839911733,16106.133844995085,16106.133844995085,299.42360651774493,0.07452792553971883,3.478121133738908,96.0,0.3633048772889617
1306893654.56,3.2061352,7.048743,758.7926752,3.3,9.5,53.9,-1.0,359.45841371799474,16224.6481330322,16224.6481330322,297.25182264136,0.07518722510683244,3.434956618593635,94.1,0.36371550721022156
1306893654.99,3.2068193,7.049133,780.6102612,7.1,12.1,53.9,-1.0,358.196335467609,17233.832298422516,17233.832298422516,298.50433633749446,0.07549072016298769,3.438633089684449,92.89999999999999,0.3641465767640274
1306893655.41,3.2075058,7.0495191,806.0367712,27.9,15.8,55.2,-1.0,366.8378281770157,18795.238760775523,18795.238760775523,300.8111858378297,0.07385100071457402,3.488857951457606,92.69999999999999,0.3646023729145086
1306893655.84,3.2081961,7.0498879,836.8438588,39.6,18.8,57.2,-1.0,354.7438311461119,20084.20026322579,20084.20026322579,299.4812580269811,0.0757088941545417,3.516571152342344,90.39999999999999,0.3650937661778506
1306893656.26,3.2088972,7.0502318,873.3267996,42.8,20.8,59.7,-1.0,360.18708721263033,22821.602901756938,22821.602901756938,298.1643958633067,0.0755832439519243,3.5135258991136262,90.89999999999999,0.365632316046617
1306893656.68,3.2096092,7.0505471,915.0918928000001,48.7,22.7,62.6,-1.0,356.67536997258304,25184.08800791189,25184.08800791189,296.3203040737653,0.07530997009109545,3.595243612009648,92.49999999999999,0.36622728542544464
1306893656.89,3.2099697,7.0506931,937.7624972,51.5,23.6,64.1,-1.0,354.71826171568085,27666.782141163767,27666.782141163767,295.66200392905745,0.07559061182601506,3.6379223721346285,93.0,0.36683266600287245
1306893657.32,3.2107008,7.0509593,986.1220787999999,54.7,24.9,67.6,-1.0,344.3474864900428,31820.38780173598,31820.38780173598,295.3574942400679,0.0772950443738686,3.549962926893731,94.00000000000001,0.36750625524171754
1306893657.74,3.2114339,7.0511874,1037.237566,56.4,25.7,71.0,-1.0,345.6653036614963,35674.63831870493,35674.63831870493,297.3276936338904,0.07768903328888997,3.507891060597167,91.10000000000001,0.36825111525921544
1306893658.18,3.2121916,7.0513837,1092.1588276,58.5,26.6,74.6,-1.0,334.5019179479875,38314.682775908295,38314.682775908295,298.7219103877937,0.07763211368247841,3.5266584266061147,90.6,0.3690773510422426
1306893658.61,3.2129174,7.0515349,1146.2926876,59.8,27.2,78.1,-1.0,322.6775197923159,40422.9801177345,40422.9801177345,299.78301342053334,0.0763313055981364,3.611431211099233,93.3,0.3699815177089092
1306893659.05,3.2136697,7.0516546,1203.6745792,60.6,27.6,81.7,-1.0,323.09155335693475,41460.65312532812,41460.65312532812,299.340048248531,0.07759166900293961,3.527975233803137,95.19999999999999,0.37096866775265375
1306893659.48,3.2143908,7.0517345,1259.7113264,61.4,28.1,85.4,-1.0,314.41579101798015,39961.310788399416,39961.310788399416,299.14709403622726,0.07914196340933052,3.3982918823180372,93.10000000000001,0.3720272416809127
1306893659.9,3.215092,7.0517798,1315.0590972,61.9,28.5,88.8,-1.0,311.78992474689306,39919.205362162895,39919.205362162895,301.58927145139637,0.07848799935637332,3.4148003653684813,95.0,0.3731430772014727
1306893660.33,3.2157887,7.0517926,1370.8333771999999,62.2,28.9,92.3,-1.0,302.7579688973458,39510.19043159323,39510.19043159323,301.2835123593539,0.07572778770499046,3.494402268171512,93.89999999999999,0.3743039258453922
1306893660.75,3.2164465,7.0517745,1424.3110692,62.4,29.3,95.8,-1.0,294.0352738351582,39051.44565306024,39051.44565306024,302.40762739092725,0.07375074966350509,3.4061172639201023,92.4,0.37549210388563714
1306893661.17,3.2170916,7.0517271,1477.5591024,62.6,29.7,99.2,-1.0,290.5080587101345,39255.41875465874,39255.41875465874,302.4143541745193,0.07503722285354206,3.41647809903883,91.7,0.37675162925746564
1306893661.6,3.2177345,7.0516493,1531.5617287999999,62.6,29.7,102.9,-1.0,286.4560080477536,40526.882062176875,40526.882062176875,300.88414200574647,0.0738369981810193,3.4753866788889463,90.30000000000001,0.3780243217334062
1306893662.03,3.2183598,7.0515432,1585.0066124,62.1,29.7,106.2,-1.0,283.02745327431273,40969.05146297412,40969.05146297412,300.79328637444075,0.07402633628943982,3.5876168231713343,91.4,0.3793024494674394
1306893662.5,3.2190209,7.0513964,1642.716588,61.3,29.7,110.0,-1.0,287.1060088670532,41632.444326972436,41632.444326972436,299.8703954492371,0.07279350659404678,3.537501306980936,92.20000000000002,0.3805870842005978
1306893662.94,3.2196173,7.0512319,1696.1286632000001,60.7,29.6,113.4,-1.0,284.7424448956865,41811.12529174854,41811.12529174854,299.7480683219935,0.07420086427474114,3.5523728948065525,92.4,0.3818700347692767
1306893663.36,3.2201659,7.0510518,1746.5879824,60.0,29.6,116.6,-1.0,283.0791925034123,40887.47425676434,40887.47425676434,301.08623506836193,0.07589666731552841,3.5535898062427425,92.9,0.3831368326695392
1306893663.79,3.2207089,7.0508444,1798.0643619999998,59.3,29.6,119.7,-1.0,283.07313638009833,40335.37017542843,40335.37017542843,300.11289526713506,0.07810371398737748,3.629028686374914,92.60000000000001,0.3843929897124089
1306893664.22,3.2212274,7.0506168,1848.9501903999999,58.7,29.6,123.0,-1.0,280.9445552051487,39378.84649402859,39378.84649402859,298.72657627474797,0.07847798624648156,3.642224716809128,91.80000000000001,0.38563873555667827
1306893664.65,3.2217295,7.0503663,1900.1641028,58.1,29.6,126.0,-1.0,283.5259970081432,38913.692146737565,38913.692146737565,300.05146252104026,0.08059666358335651,3.5647197334627503,93.9,0.3868738405435549
1306893665.07,3.2222062,7.0500979,1950.9186975999999,57.6,29.6,129.0,-1.0,288.2872639249722,38509.58852800962,38509.58852800962,300.7664603597373,0.0809088560885991,3.620477386099607,93.2,0.3881025916371682
1306893665.49,3.2226522,7.0498164,2000.6890403999998,57.2,29.3,131.9,-1.0,283.78674643977536,37669.02181085269,37669.02181085269,299.8538974540779,0.08166172909443745,3.6523730225352833,92.49999999999999,0.38932322812010783
1306893665.91,3.2230722,7.0495207,2050.032874,56.8,29.3,134.8,-1.0,282.0354073594715,37121.931017142466,37121.931017142466,299.43201073176846,0.08059202506475932,3.695186676551075,91.60000000000001,0.390532994086862
1306893666.35,3.2234933,7.0491899,2102.362272,56.5,29.3,137.8,-1.0,286.1607603649504,36626.43521909702,36626.43521909702,297.3242938327131,0.07865730902925375,3.6956843478077857,91.30000000000001,0.39174015725396605
1306893666.77,3.2238705,7.0488591,2152.3294652,56.3,29.3,140.7,-1.0,286.62483193255207,36206.93136827818,36206.93136827818,296.4942816735626,0.07765732287210593,3.8152315691956633,87.90000000000002,0.3929292539293817
1306893667.21,3.224236,7.0485013,2204.1667372,56.1,29.3,143.6,-1.0,284.79726020886454,36230.48020410324,36230.48020410324,295.68514753859574,0.07545793952117152,3.786343504948674,85.60000000000002,0.3941146760641148
1306893667.65,3.2245784,7.0481256,2256.5617519999996,55.9,29.3,146.5,-1.0,288.2303612338878,36187.83459323374,36187.83459323374,296.1671068032418,0.07560773133971191,3.8283558300873444,83.7,0.3953046148217701
1306893705.11,3.1750344,7.0259397,3016.896422,55.9,29.3,238.0,-1.0,284.2490962381891,36040.783275412,36040.783275412,297.759268255567,0.07554883679631369,3.860463993049733,83.30000000000001,0.3981485562040974
1306893705.32,3.1745324,7.0257207,3018.0119076,55.9,29.3,237.0,-1.0,502.5215534602133,33944.9104855386,33944.9104855386,296.5445459212379,0.07456394160800367,3.806147838288739,84.80000000000001,0.40087636679027405
1306893705.54,3.1740287,7.0254928,3019.1273932,55.9,29.3,236.0,-1.0,487.29499969509334,77454.40835225614,77454.40835225614,297.59846806152075,0.07262001905501637,3.823476693064504,83.9,0.40348728105099146
1306893705.75,3.1735306,7.0252591,3020.2428788,55.9,29.3,235.2,-1.0,510.16009711257647,149894.52338201218,149894.52338201218,296.59044925120224,0.07551885724131352,3.8203606055462194,85.1,0.40598237072728194
1306893705.97,3.1730382,7.0250196,3021.325556,55.9,29.3,234.2,-1.0,487.57729821255117,234894.87324453762,234894.87324453762,296.2386871928569,0.07296962246495316,3.817221845201874,84.2,0.40836385585414114
1306893706.19,3.1725269,7.0247618,3022.47385,55.9,29.3,233.2,-1.0,512.4682686419193,315242.2739349939,315242.2739349939,296.98257693998795,0.07394743364537458,3.7249632658127343,85.0,0.4106328847255321
1306893706.4,3.1720689,7.0245224,3023.5237188,55.9,29.3,232.3,-1.0,487.6531777679448,331705.6685671379,331705.6685671379,299.6185502168158,0.07671232785071201,3.6564774329071126,87.4,0.4127822613659521
1306893706.63,3.1715615,7.024248,3024.6720127999997,55.9,29.3,231.3,-1.0,499.27148860998864,271091.41940589703,271091.41940589703,301.09354496369986,0.07809916785462438,3.6316964517185553,87.7,0.4148177272452172
1306893706.84,3.1710873,7.023982,3025.7546899999998,55.9,29.3,230.3,-1.0,518.3555172644577,208152.9327411774,208152.9327411774,303.4790885756645,0.07708908392354355,3.6333707493635106,90.3,0.4167347657404052
1306893707.05,3.1706494,7.0237281,3026.7717503999997,55.9,29.3,229.5,-1.0,485.85549360355213,150468.12905089578,150468.12905089578,303.070039651071,0.073745173102421,3.6810876475796865,91.7,0.41853192234582953
1306893707.26,3.17019,7.0234527,3027.8216192,55.9,29.3,228.5,-1.0,516.6366490704113,87436.01246067078,87436.01246067078,302.75196100715914,0.07016955585208519,3.6128767057899935,91.29999999999998,0.4185574144718139
1306893707.48,3.1697416,7.0231746,3028.871488,55.9,29.3,227.5,-1.0,489.2021266803617,94684.18736204252,94684.18736204252,305.1233490813094,0.07158359958714411,3.6529188343418717,91.1,0.41858275349193635
1306893707.7,3.1692978,7.02289,3029.9213568,55.9,29.3,226.6,-1.0,491.5041740994271,94743.1642536499,94743.1642536499,303.1369502297804,0.07167979325731567,3.663409532091007,92.39999999999999,0.41860793940619706
1306893707.91,3.1688609,7.0226002,3030.9712256000003,55.9,29.3,225.7,-1.0,514.772916916812,92829.0196708994,92829.0196708994,303.31274286849913,0.0722100323905049,3.6304688027574015,91.10000000000001,0.41863297221459594
1306893708.12,3.1684489,7.0223177,3031.988286,55.9,29.3,224.7,-1.0,493.8005631872167,96005.92342639097,96005.92342639097,302.44742397629017,0.07219660263857988,3.510717812298522,93.60000000000002,0.41865785191713323
1306893708.34,3.1680221,7.0220152,3033.0381548,55.9,29.3,223.7,-1.0,496.7180755033344,98883.4959775688,98883.4959775688,301.5352655024999,0.07379906716539889,3.5525605605756283,94.9,0.4186825019608777
1306893708.56,3.1675836,7.0216935,3034.1208319999996,55.9,29.3,222.8,-1.0,519.073267336818,95412.99159874622,95412.99159874622,299.43331353465885,0.07401349696470148,3.5094655964192536,93.69999999999999,0.41870722855755316
1306893708.77,3.1671946,7.0213983,3035.1050840000003,55.9,29.3,221.9,-1.0,492.33194338582683,107303.80754556178,107303.80754556178,298.7829220165057,0.07408076043946683,3.504934065241835,93.39999999999999,0.4187315723895741
1306893708.99,3.1667903,7.0210811,3036.1549528,55.9,29.3,220.9,-1.0,497.30774716284867,109632.98683806129,109632.98683806129,296.9077410013207,0.07375644536969288,3.511348345001483,90.00000000000001,0.4187558396686642
1306893709.21,3.1663956,7.0207607,3037.1720132,55.9,29.3,220.0,-1.0,495.33192401522086,104764.41095017924,104764.41095017924,294.93672366055455,0.07394522161925875,3.5309267501174535,90.60000000000002,0.41878010694775436
1306893709.42,3.1660104,7.0204372,3038.1890736,55.9,29.3,219.0,-1.0,516.116931306013,111776.17044917855,111776.17044917855,294.725827308499,0.07609184039704055,3.618638326385049,90.70000000000002,0.41880429767391364
1306893709.63,3.1656383,7.0201137,3039.206134,55.9,29.3,218.0,-1.0,509.55659901272827,112462.65683759272,112462.65683759272,292.3726998325991,0.07527704083833585,3.591829678388868,90.10000000000002,0.4188284118471419
1306893709.84,3.1652908,7.0198016,3040.1575776,55.9,29.3,217.1,-1.0,486.2795532524465,112764.3673856973,112764.3673856973,294.04953684273823,0.07865616229702309,3.703437774632899,87.80000000000001,0.41885229636157767
1306893710.06,3.1649189,7.0194558,3041.2074464,55.9,29.3,216.2,-1.0,507.2916878595214,117894.96911841356,117894.96911841356,292.8723253316032,0.07856636194046748,3.75525348847621,88.10000000000001,0.4188761808760133
1306893710.27,3.1645718,7.0191215,3042.1916984,-59.9,29.3,215.3,-1.0,507.52674130353773,123819.43074203606,123819.43074203606,295.1287748634642,0.07822365444340804,3.854308737247568,86.2,0.41889998883751806
1306893710.48,3.1642341,7.0187849,3043.1759503999997,-59.2,4.9,214.3,-1.0,505.5596803417629,124551.740249052,124551.740249052,296.02088176703904,0.07835552596069023,3.88548981713954,85.00000000000001,0.4189236436931612
1306893710.69,3.163904,7.0184446,3044.127394,-57.8,4.7,213.5,-1.0,505.78193089036097,125991.29484158197,125991.29484158197,296.77429146837954,0.07881328662090133,3.92657187385729,84.30000000000001,0.41894699233708066
1306893710.9,3.1635842,7.0181042,3045.0788376,-55.7,4.4,212.7,-1.0,501.2617108357783,129293.95190898432,129293.95190898432,295.14127355317487,0.07575224104139057,3.96301824815302,85.10000000000001,0.41897026442806934
1306893711.11,3.1632709,7.0177608,3045.9646644,-53.4,4.1,212.0,-1.0,501.23336204738905,132892.2349411824,132892.2349411824,297.30311836376313,0.07769784195209324,3.8933215275981676,86.9,0.4189931537544036
1306893711.32,3.1629667,7.0174181,3046.7848744,-50.9,3.8,211.3,-1.0,496.9487189938682,128805.32886263738,128805.32886263738,298.2167611552559,0.08097382226002484,3.7723575110034417,85.9,0.4190155837631525
1306893711.54,3.1626549,7.0170581,3047.6050843999997,-48.3,3.6,210.7,-1.0,495.1685703400752,129278.77062198728,129278.77062198728,298.2349778228412,0.08166949294219694,3.7145812993079614,86.0,0.4190375544543161
1306893711.76,3.1623345,7.0166789,3048.3924859999997,-45.8,3.5,210.1,-1.0,517.2910725087253,126917.45595281046,126917.45595281046,298.6620853536585,0.07981849322356575,3.7261937370228537,83.39999999999999,0.41905898927496354
1306893711.97,3.1620376,7.0163195,3049.0814624,-43.4,3.3,209.6,-1.0,511.29254760146,126450.66859028365,126450.66859028365,298.7061538739111,0.07911613920675864,3.653775336312082,83.2,0.41907981167216385
1306893712.18,3.1617601,7.015977,3049.6392052,-40.8,3.2,209.1,-1.0,485.6681918239857,131470.63485700035,131470.63485700035,301.3162938212,0.07595728964240714,3.5572627767146985,84.9,0.41909948577540085
1306893712.39,3.1614689,7.0156108,3050.2297564,-38.4,3.1,208.7,-1.0,516.0595440043106,129050.28773173418,129050.28773173418,300.54310324386256,0.0770340156428495,3.4637447187389183,85.4,0.41911824124346736
1306893712.61,3.1611709,7.0152295,3050.7546908,-35.8,3.0,208.3,-1.0,511.08588031509356,140358.21048503197,140358.21048503197,301.33312806370515,0.07775766730906752,3.3949872913229147,84.2,0.41913592497050145
1306893712.82,3.1608938,7.014869,3051.2140084,-33.4,2.9,207.9,-1.0,504.68030999031424,143178.03446071106,143178.03446071106,302.5586748900589,0.07802338413544083,3.3308897871627647,84.30000000000001,0.41915246040357235
1306893713.04,3.1606186,7.0145056,3051.6405176,-31.0,2.8,207.6,-1.0,484.6436911451064,135893.62519513306,135893.62519513306,305.0143533580852,0.0817933650750261,3.2460305259690325,84.9,0.41916777098974906
1306893713.26,3.1603283,7.014117,3052.0670268,-28.7,2.8,207.2,-1.0,515.8372040939211,132507.72536443546,132507.72536443546,303.5056243199573,0.08239869953421522,3.2725854403117864,84.10000000000001,0.4191820098348934
1306893713.47,3.160055,7.0137463,3052.4607276,-26.7,2.7,207.0,-1.0,513.9357715202036,136958.79581589453,136958.79581589453,303.1281944609687,0.08036226161719345,3.2805189587542594,82.20000000000002,0.41919525349193626
1306893713.68,3.1597982,7.0133938,3052.82162,-24.6,2.7,206.7,-1.0,488.56787039442366,129977.21214645408,129977.21214645408,300.9881963715658,0.08106203940762181,3.344135099546491,84.9,0.41920742540794687
1306893713.89,3.1595285,7.0130196,3053.1825124,-22.8,2.7,206.5,-1.0,516.4246465208253,125260.27587827171,125260.27587827171,303.00589252637417,0.08333701360501071,3.322867074946561,87.70000000000002,0.4192186021358558
1306893714.11,3.1592523,7.0126325,3053.5762132,-20.8,2.6,206.3,-1.0,509.33438602485097,139726.63788020902,139726.63788020902,300.773325289171,0.08319961907984505,3.256162142927096,90.49999999999999,0.4192290898873869
1306893714.32,3.1589931,7.0122656,3053.9699140000002,-19.0,2.6,206.1,-1.0,504.97571889046355,138024.39267436677,138024.39267436677,299.3157994503033,0.08494325321567103,3.269932358381116,88.6,0.41923919487426353
1306893714.53,3.158738,7.0119016,3054.3636148,-17.4,2.6,205.9,-1.0,500.4075915444207,134992.75405554826,134992.75405554826,299.16605318557083,0.08436208161814954,3.375519889175546,90.5,0.4192488405435549
1306893714.75,3.1584723,7.0115196,3054.8229324,-15.7,2.6,205.7,-1.0,500.56263341832704,138704.4585235285,138704.4585235285,299.69542917507334,0.08432916477132572,3.3395370774909092,94.20000000000002,0.41925833310698446
1306893714.97,3.1582117,7.0111422,3055.28225,-14.1,2.6,205.6,-1.0,493.8931694758282,138599.56732434194,138599.56732434194,298.94684384521906,0.08424737470276757,3.3456800550365973,94.50000000000001,0.4192678256704141
1306893715.18,3.1579538,7.0107662,3055.774376,-12.6,2.6,205.4,-1.0,514.3601269044503,119333.11129696653,119333.11129696653,297.2685762927597,0.0836954318955464,3.4154555266421918,94.99999999999999,0.4192774713397054
1306893715.39,3.157697,7.0103898,3056.2993103999997,-11.3,2.6,205.3,-1.0,514.2661656880357,124258.3602149068,124258.3602149068,298.06083392351854,0.08114073960764395,3.500087992319523,95.69999999999999,0.41928734666778944
1306893715.61,3.1574402,7.0100113,3056.8570532,-10.0,2.6,205.2,-1.0,494.08762284980423,132772.31817588906,132772.31817588906,298.7988843377991,0.08237111437673411,3.547286420413363,96.69999999999999,0.4192976047605278
1306893715.82,3.1571878,7.0096378,3057.4476044,-8.7,2.6,205.1,-1.0,509.7139960276328,125692.40836570274,125692.40836570274,300.54302853929744,0.08136528910743747,3.5141953988237873,97.1,0.41930839872378234
1306893716.03,3.1569363,7.0092639,3058.070964,-7.6,2.6,205.0,-1.0,509.76855819702337,139070.12602075934,139070.12602075934,297.9755468606785,0.0788990834516933,3.5188320547155105,96.30000000000001,0.419319805110484
1306893716.24,3.1566938,7.0089023,3058.6943235999997,-6.4,2.6,205.0,-1.0,493.61677617486174,144596.23330170117,144596.23330170117,300.50673576857906,0.07811063676880062,3.5342389253718025,94.90000000000002,0.41933174736770185
1306893716.46,3.1564295,7.0085068,3059.4161083999998,-5.3,2.6,204.9,-1.0,513.8966311923105,133186.5719352214,133186.5719352214,300.75667099060513,0.07739388780494824,3.623358162172828,94.4,0.4193444551542285
1306893716.67,3.1561857,7.0081413,3060.1050848,-4.4,2.6,204.9,-1.0,498.18521323814645,135238.5669265761,135238.5669265761,299.6407766810328,0.07820183349396324,3.6391720792450672,93.00000000000001,0.41935785191713326
1306893716.9,3.1559188,7.0077402,3060.9252948,-3.3,2.6,204.8,-1.0,498.8125473192455,132324.2033513828,132324.2033513828,299.7958309694167,0.0751779553974302,3.7547804673267753,92.10000000000001,0.41937209076227755
1306893717.11,3.1556723,7.0073691,3061.679888,-2.5,2.7,204.8,-1.0,505.1559357508282,120045.24663422398,120045.24663422398,298.6830499924354,0.07294501867888502,3.7855713589153837,90.60000000000001,0.4193870185837998
1306893717.33,3.1554026,7.0069626,3062.5329064000002,-1.6,2.7,204.8,-1.0,527.1651172171876,125008.39032225241,125008.39032225241,299.5501481581268,0.07085474572501643,3.797196704489527,89.3,0.41940278848756185
1306893717.54,3.1551636,7.0066019,3063.3203080000003,-0.8,2.7,204.8,-1.0,491.235088939991,138313.9704919427,138313.9704919427,299.59007059822875,0.0722550872571928,3.7125056780836387,87.60000000000001,0.4194191708147709
1306893717.75,3.1549118,7.0062218,3064.2061348,-0.2,2.7,204.8,-1.0,516.7107033809525,127973.24205783599,127973.24205783599,300.7727321935739,0.07242598567509352,3.7777535488724303,88.4,0.41943631867128894
1306893717.96,3.1546706,7.0058576,3065.0263448,0.6,2.7,204.8,-1.0,495.9198415438799,140902.5821727249,140902.5821727249,301.58988359166676,0.07349769656610759,3.686182102149708,88.5,0.41945400239832303
1306893718.17,3.1544271,7.0054899,3065.9121716,1.2,2.7,204.8,-1.0,500.366085066411,143241.36757787896,143241.36757787896,301.9448037374231,0.075706667538944,3.7195015179516977,89.80000000000001,0.41947229854880425
1306893718.59,3.1539304,7.0047405,3067.7166336,2.3,2.7,204.8,-1.0,509.6707470893919,128596.16966179492,128596.16966179492,301.56146281605066,0.07499299083720423,3.752483571700004,89.7,0.41949335060479725
1306893719.02,3.1534272,7.0039825,3069.6195208,3.4,2.7,204.9,-1.0,503.86233094268533,128707.0247864498,128707.0247864498,300.12588518362486,0.07699911473697778,3.752765537927539,92.69999999999999,0.419517158566302
1306893719.44,3.152936,7.0032444,3071.4895996,4.3,2.7,204.9,-1.0,502.5856449060817,124923.48575531557,124923.48575531557,302.2335683521073,0.07613372188079091,3.6960234031945243,93.2,0.4195437224333186
1306893719.65,3.1526852,7.0028684,3072.4738516,4.7,2.7,205.0,-1.0,511.91192713484514,118418.56259783234,118418.56259783234,299.86888760737617,0.07713645204586697,3.650404444896243,93.10000000000001,0.41957066906498963
1306893719.88,3.152421,7.0024732,3073.5237204,5.1,2.7,205.0,-1.0,492.1459112779785,125057.02597570569,125057.02597570569,300.18179884516127,0.07668888014926745,3.6560040351117813,94.50000000000001,0.4195983046730387
1306893720.09,3.1521682,7.0020959,3074.5079724,5.4,2.7,205.1,-1.0,514.043147826548,130250.08897030915,130250.08897030915,300.9222490508667,0.07753863256425306,3.6569095988605964,94.70000000000002,0.4196262464928113
1306893720.3,3.151915,7.0017186,3075.4922244,5.8,2.7,205.1,-1.0,514.1530984423453,129397.64001642434,129397.64001642434,300.9825134572308,0.07630802842026681,3.6946145913673387,94.70000000000002,0.419654647630169
1306893720.51,3.1516719,7.0013574,3076.4764764,6.0,2.7,205.2,-1.0,493.1600089500193,141039.43632053112,141039.43632053112,299.9423684455245,0.07384337681991712,3.5756663110457225,94.9,0.41968327842631953
1306893720.74,3.1514011,7.0009559,3077.5263452,6.4,2.7,205.2,-1.0,500.47920629514124,132357.36606759296,132357.36606759296,298.7221688971554,0.06998821362139418,3.6020303522244337,93.2,0.41971244509298616
1306893720.95,3.1511416,7.0005722,3078.576214,6.6,2.7,205.3,-1.0,523.2117252597004,131104.9629238542,131104.9629238542,300.1449607829833,0.06986166598188942,3.5375116051131705,89.60000000000001,0.4197419945243073
1306893721.16,3.1508947,7.0002081,3079.5276576,6.8,2.7,205.4,-1.0,497.7663056264401,139989.32049761008,139989.32049761008,298.3177003727161,0.07002924392523854,3.4915460803903158,89.3,0.4197695535794254
1306893721.37,3.1506436,6.9998388,3080.544718,7.0,2.7,205.4,-1.0,504.5877447586099,128337.71541052699,128337.71541052699,298.8069510099235,0.07009119492676401,3.44053585276008,89.1,0.4197950457054096
1306893721.58,3.1503884,6.9994645,3081.5617784,7.2,2.7,205.5,-1.0,511.5727213604261,127030.73300798198,127030.73300798198,298.1745806011215,0.07286219375198627,3.4047102034491856,87.80000000000001,0.4198185474551909
1306893721.79,3.1501446,6.999108,3082.513222,7.4,2.7,205.6,-1.0,488.4627605422061,138653.81337364682,138653.81337364682,300.3271621294214,0.07166985070028144,3.4711274713716276,85.80000000000001,0.4198419726520413
1306893722.01,3.1498833,6.9987271,3083.5302824,7.6,2.7,205.6,-1.0,497.866575148182,121363.91021897171,121363.91021897171,299.0778843155816,0.0730105830668103,3.448303995084002,84.7,0.4198653212959609
1306893722.22,3.1496202,6.9983447,3084.5801512,7.7,2.7,205.7,-1.0,523.0487395147421,116499.13628162578,116499.13628162578,299.1630957847018,0.07143448760485635,3.321016008375507,84.4,0.41988882304574204
1306893722.44,3.1493577,6.9979643,3085.5972116,7.8,2.7,205.8,-1.0,497.76629455086425,130145.69491054857,130145.69491054857,299.3758507019702,0.0749756157386299,3.3483977524864335,84.5,0.41991240134845426
1306893722.66,3.1490957,6.9975858,3086.6470803999996,7.9,2.7,205.9,-1.0,495.79350023979663,120259.59699243061,120259.59699243061,298.88944162948565,0.07595109502064643,3.3776380416393645,81.6,0.4199361327570281
1306893722.87,3.1488342,6.9972094,3087.6641408,8.0,2.7,205.9,-1.0,515.9128351207875,118021.8599020313,118021.8599020313,299.0642423440671,0.07674241173383996,3.4472414229193657,80.1,0.41995978761267116
1306893723.08,3.1485732,6.996835,3088.6812012,8.1,2.7,206.0,-1.0,513.8113436530758,140137.26420740856,140137.26420740856,299.6099427032112,0.07716726098620008,3.483478172652521,81.3,0.4199833659153834
1306893723.3,3.1483128,6.9964625,3089.6654532000002,8.2,2.7,206.1,-1.0,488.8519262708453,137705.77955087658,137705.77955087658,300.2321028625892,0.07709016554012701,3.550654262295132,81.10000000000001,0.4200070207710265
1306893723.51,3.1480542,6.9960938,3090.6825135999998,8.3,2.7,206.2,-1.0,506.7349761953237,127124.98983590842,127124.98983590842,300.938715234263,0.07587268701676153,3.5263521267976583,79.6,0.4200306756266694
1306893723.93,3.1475361,6.9953589,3092.683826,8.3,2.7,206.3,-1.0,505.5096746643643,137084.40227820404,137084.40227820404,300.07933156242314,0.07481475378252202,3.561100590561355,79.49999999999999,0.420056627070239
1306893724.14,3.1472766,6.9949926,3093.668078,8.4,2.7,206.4,-1.0,504.37146165850174,130213.08808224493,130213.08808224493,297.7173533993637,0.07516975813190928,3.428982462837147,80.80000000000001,0.42008265506673953
1306893724.35,3.1470165,6.9946266,3094.65233,8.4,2.7,206.5,-1.0,504.32164242358584,118144.43410140963,118144.43410140963,297.9908502292155,0.07497559574132716,3.5213329707682277,82.60000000000002,0.420108606510309
1306893724.56,3.146757,6.9942626,3095.6365819999996,8.4,2.7,206.6,-1.0,501.8774163748721,126818.50039707501,126818.50039707501,296.9612523679902,0.07522331464024039,3.6198791801619037,84.70000000000002,0.4201344048480168
1306893724.98,3.1462383,6.9935389,3097.605086,8.4,2.7,206.7,-1.0,499.5534128327881,127496.49123080824,127496.49123080824,296.9443250243014,0.07276691841918145,3.64430933219495,86.9,0.42016242322072017
1306893725.19,3.1459655,6.99316,3098.6221464,8.4,2.7,206.8,-1.0,522.7573107037325,119680.05983466758,119680.05983466758,295.7843349525547,0.07436741109366246,3.7464715571933,90.70000000000002,0.4201903650404927
1306893725.4,3.1457095,6.9928057,3099.6063983999998,8.4,2.7,206.9,-1.0,490.3386694891435,130783.64724000206,130783.64724000206,294.8537970410584,0.07440195334130764,3.641549551745309,92.70000000000002,0.42021823030733446
1306893725.62,3.1454276,6.9924169,3100.6562672,8.3,2.7,206.9,-1.0,512.9150845258646,129363.95733784267,129363.95733784267,294.3643806447214,0.07449449474400012,3.7212041657190458,91.7,0.42024617212710697
1306893725.83,3.1451615,6.9920509,3101.6405191999997,8.3,2.7,207.0,-1.0,506.4727278276069,128217.22298236431,128217.22298236431,295.26262024578756,0.07375579461796082,3.760730273765811,92.0,0.42027411394687947
1306893726.05,3.1448845,6.9916713,3102.690388,8.2,2.7,207.1,-1.0,501.83304793634386,133233.9442057263,133233.9442057263,296.4086336390257,0.07430869096684793,3.827558718197029,93.5,0.4203021323195829
1306893726.26,3.1446259,6.991318,3103.6418316,8.2,2.7,207.2,-1.0,490.0294676219076,127106.16882154092,127106.16882154092,295.995069171125,0.0723838677528988,3.814018172125406,94.29999999999998,0.42032770099849803
1306893726.47,3.1443539,6.9909476,3104.6260835999997,8.2,2.7,207.3,-1.0,513.3535388575831,118375.18955093645,118375.18955093645,298.78171076090877,0.07430883129510128,3.935362911440441,95.69999999999999,0.4203532696774131
1306893726.68,3.1440825,6.9905792,3105.643144,8.1,2.7,207.3,-1.0,510.9170533017598,122784.80753554963,122784.80753554963,300.3902541856064,0.07432698924653133,3.955576053798096,96.20000000000002,0.4203789149092592
1306893726.91,3.1437976,6.9901938,3106.6930128,8.0,2.7,207.4,-1.0,489.3073224534214,119226.58481145822,119226.58481145822,299.2998055639741,0.076118834980942,3.968064804682692,93.5,0.420404713246967
1306893727.12,3.1435274,6.9898294,3107.6772648,8.0,2.7,207.5,-1.0,506.22118514912944,111473.70008216344,111473.70008216344,297.7591768307217,0.0764758566516664,3.873608629585033,90.80000000000001,0.42042821499674815
1306893727.33,3.1432579,6.989467,3108.6615168,7.9,2.7,207.6,-1.0,503.76692823549143,126648.81406997488,126648.81406997488,298.7831852228954,0.07728189764887922,3.834651120733243,87.7,0.42045164019359865
1306893727.54,3.1429877,6.9891048,3109.6457688,7.8,2.7,207.6,-1.0,503.9603659581612,123897.12521244871,123897.12521244871,299.36622123168496,0.07688619802815695,3.8358080912443917,89.19999999999999,0.42047506539044904
1306893727.75,3.1427169,6.9887428,3110.6300208,7.8,2.7,207.7,-1.0,503.78125500327843,121249.96627877685,121249.96627877685,299.97991177073226,0.07368115636307147,3.742154633226894,91.2,0.42049833748143767
1306893727.97,3.1424325,6.9883639,3111.6470812,7.7,2.7,207.8,-1.0,503.8356643480011,124610.0511073366,124610.0511073366,300.2260111819902,0.07507579306497135,3.710649480694938,91.60000000000001,0.42052168612535723
1306893728.18,3.1421604,6.9880024,3112.6313332,7.6,2.7,207.9,-1.0,503.79995093354137,127480.0571920162,127480.0571920162,298.3899016023668,0.07278395481703054,3.6699391855330092,90.6,0.4205448816634149
1306893728.41,3.1418618,6.9876068,3113.7140104,7.5,2.7,207.9,-1.0,503.7247297916498,119846.2491080285,119846.2491080285,298.72294946304174,0.07613216981869914,3.6976944027234104,92.2,0.42056838341319613
1306893728.62,3.1415897,6.9872476,3114.6982624,7.4,2.7,208.0,-1.0,501.38862611668435,122416.20490717886,122416.20490717886,295.854340177181,0.07393944215673692,3.572584229852789,90.00000000000001,0.4205918851629775
1306893728.83,3.1413028,6.9868697,3115.7153227999997,7.3,2.7,208.1,-1.0,526.8729798139464,123376.59272453109,123376.59272453109,296.41376171684834,0.07357392204481016,3.5572222974022094,89.4,0.4206153869127588
1306893729.04,3.1410296,6.9865109,3116.6995748,7.3,2.7,208.1,-1.0,501.2934774890102,127421.58152147109,127421.58152147109,296.76603885555033,0.07256420784966816,3.5531920497959155,92.00000000000001,0.42063873555667824
1306893729.25,3.1407545,6.9861507,3117.6838268,7.2,2.7,208.2,-1.0,503.7115971882573,128409.99400248025,128409.99400248025,297.6974233132969,0.07292695114613527,3.6056144090367237,92.90000000000002,0.42066208420059775
1306893729.46,3.1404854,6.9857992,3118.6352703999996,7.1,2.7,208.3,-1.0,491.84024049275746,129419.79490028419,129419.79490028419,298.59065696147775,0.07204423543877539,3.5527792180854236,92.9,0.4206853562915864
1306893729.67,3.1402026,6.9854308,3119.6523308,7.0,2.7,208.3,-1.0,515.2161332878671,126705.48146689586,126705.48146689586,297.85549270112756,0.07209695876763965,3.6539192872439776,92.30000000000001,0.42070870493550594
1306893729.88,3.1399259,6.9850713,3120.6365828,6.9,2.7,208.4,-1.0,503.50568273465393,123393.79464036848,123393.79464036848,297.8301994824679,0.07451124847195623,3.729190756236479,92.60000000000001,0.4207320535794254
1306893730.09,3.1396499,6.9847136,3121.5880264,6.8,2.7,208.5,-1.0,501.3153585463344,114502.609915193,114502.609915193,296.3391088908498,0.0750164723063873,3.7772108384531213,91.2,0.4207552491174832
1306893730.3,3.1393747,6.9843579,3122.5722784,6.7,2.7,208.5,-1.0,498.8069350834231,113423.94861933401,113423.94861933401,298.53416239470135,0.07648734482698837,3.747948599431048,91.3,0.42077844465554093
1306893730.51,3.1390977,6.9840007,3123.5565303999997,6.6,2.7,208.6,-1.0,501.16572303442666,115092.42054831704,115092.42054831704,298.2942070268235,0.07418903704452949,3.6849706824246695,89.4,0.42080141053480596
1306893730.72,3.1388202,6.9836437,3124.5407824,6.5,2.7,208.7,-1.0,501.1563599168524,111989.4534612735,111989.4534612735,300.425841762824,0.07705068467089239,3.776086647671806,88.5,0.42082437641407106
1306893730.93,3.1385408,6.9832852,3125.492226,6.4,2.7,208.7,-1.0,503.29424983343137,114660.11678750614,114660.11678750614,300.69849663844076,0.07514829076744592,3.682554613418553,88.2,0.4208471891874743
1306893731.14,3.1382557,6.9829201,3126.5092864000003,6.3,2.7,208.8,-1.0,512.629297285635,113845.13291714685,113845.13291714685,302.2414914367281,0.07575391474571792,3.684538641007909,87.30000000000001,0.4208700785138086
1306893731.35,3.137974,6.9825603,3127.4935384,6.3,2.7,208.8,-1.0,505.6735747465011,119730.24781877661,119730.24781877661,300.9460961289929,0.07409992987428812,3.605314321339755,87.5,0.4208929678401428
1306893731.56,3.1377038,6.982216,3128.444982,6.2,2.7,208.9,-1.0,484.75182840173915,118625.89591019783,118625.89591019783,300.6926217546224,0.07440143556958174,3.570677033529777,86.7,0.42091585716647706
1306893731.77,3.1374199,6.9818549,3129.429234,6.1,2.7,209.0,-1.0,507.9618415078449,118077.42243106443,118077.42243106443,302.27631513512176,0.07505463875899729,3.587290036692942,85.4,0.4209386699398804
1306893731.98,3.1371354,6.981494,3130.413486,6.0,2.7,209.0,-1.0,507.8898377873879,121284.7022255493,121284.7022255493,302.42932568106664,0.07484628827565798,3.511967456186573,83.7,0.42096148271328365
1306893732.19,3.1368491,6.9811316,3131.397738,5.9,2.7,209.1,-1.0,510.09721295027805,119041.91525001368,119041.91525001368,301.96784384349024,0.0754102226185106,3.465709312518729,87.0,0.42098437203961786
1306893732.4,3.1365651,6.9807728,3132.38199,5.8,2.7,209.1,-1.0,505.5775520881172,115513.40521045684,115513.40521045684,299.262092275411,0.07392868208057153,3.5637949498482335,87.70000000000002,0.42100726136595207
1306893732.61,3.1362928,6.9804295,3133.3334336,5.7,2.7,209.2,-1.0,484.61289024815756,121810.76170892945,121810.76170892945,298.64664650744976,0.07370656584649439,3.6364052184135773,89.0,0.42103007413935545
1306893732.82,3.1360092,6.9800727,3134.3176856,5.6,2.7,209.2,-1.0,503.1982360162526,119128.7663844995,119128.7663844995,296.7062654572624,0.07366022590960503,3.5800036470000878,91.6,0.4210528869127587
1306893733.03,3.1357239,6.9797144,3135.3019375999997,5.5,2.7,209.3,-1.0,505.58935433098105,115158.21504797177,115158.21504797177,295.01988993617005,0.07635767640094547,3.6618553469549395,91.6,0.4210757762390929
1306893733.24,3.1354382,6.9793564,3136.2861896,5.4,2.7,209.3,-1.0,505.39352610768515,114750.15994621428,114750.15994621428,294.9116417730299,0.0767314005476598,3.6510536363659414,92.00000000000001,0.4210985890124963
1306893733.45,3.1351507,6.9789968,3137.2704416,5.3,2.7,209.4,-1.0,507.6595727108001,112413.11220461644,112413.11220461644,294.5872385725239,0.08031826809386651,3.661900507431652,91.9,0.4211214017858995
1306893733.66,3.1348709,6.9786475,3138.2546936,5.2,2.7,209.4,-1.0,493.6864900453251,112720.0739150707,112720.0739150707,294.3983342933275,0.08053882617028757,3.7743754226161927,95.30000000000001,0.4211442911122338
1306893733.87,3.1345744,6.9782781,3139.271754,5.1,2.7,209.5,-1.0,521.7359225986986,117723.87528025369,117723.87528025369,292.38046816638723,0.08023706968341207,3.78964638626772,93.7,0.4211672569914989
1306893734.08,3.1342925,6.9779275,3140.2231976,5.0,2.7,209.5,-1.0,495.92497861237104,126399.86361902287,126399.86361902287,290.36954349473274,0.08108980426510824,3.882853191620287,93.4,0.42119014631783314
1306893734.29,3.1340103,6.977577,3141.2074496,5.0,2.7,209.6,-1.0,496.08135505352465,125573.50777594488,125573.50777594488,292.91408260746687,0.07983830479928762,3.8741132925161335,92.7,0.42121303564416734
1306893734.51,3.1337017,6.9771946,3142.2573184,4.9,2.7,209.6,-1.0,516.2209643244875,121828.2015349717,121828.2015349717,294.2336078448344,0.08208369337721645,3.846584359091478,90.9,0.4212360780763633
1306893734.72,3.13342,6.9768461,3143.2087619999998,4.8,2.7,209.7,-1.0,493.7057699526293,122155.41939949406,122155.41939949406,296.19821375477363,0.08138391159449485,3.74289522964931,91.7,0.42125912050855924
1306893734.93,3.1331271,6.9764843,3144.2258224,4.7,2.7,209.7,-1.0,512.1321744997155,114902.20745003747,114902.20745003747,297.7323781906363,0.08073536796754582,3.7914999849249704,91.70000000000002,0.42128223949368615
1306893735.14,3.1328407,6.9761311,3145.1772659999997,4.6,2.7,209.7,-1.0,500.53577010087037,114111.10205461942,114111.10205461942,299.3813770167066,0.08028528060983202,3.6934835375272073,92.90000000000002,0.4213052819258822
1306893735.35,3.132558,6.9757831,3146.1615180000003,4.5,2.7,209.8,-1.0,493.6993022451817,118818.52335543836,118818.52335543836,298.34753995827634,0.08042267867496189,3.710397603217193,94.60000000000001,0.42132832435807804
1306893735.56,3.1322709,6.9754302,3147.14577,4.4,2.7,209.8,-1.0,500.4995818408944,114171.65828126433,114171.65828126433,300.04545258490805,0.07658931939516088,3.7622606547058983,95.30000000000001,0.42135136679027413
1306893735.78,3.1319601,6.9750488,3148.1956388000003,4.4,2.7,209.9,-1.0,515.9701234828111,107309.15291753986,107309.15291753986,299.10151017455024,0.07356643338026304,3.7406557767546555,93.30000000000001,0.42137456232833176
1306893735.99,3.1316806,6.9747063,3149.1470824,4.3,2.7,209.9,-1.0,486.6533902740514,119026.36008734792,119026.36008734792,300.34389373161713,0.07524760801621541,3.7322233863095144,94.80000000000001,0.42139760476052773
1306893736.21,3.131376,6.9743336,3150.1641428,4.2,2.7,210.0,-1.0,504.98364425898956,107272.72284316528,107272.72284316528,300.36112175302964,0.07398007174301262,3.6267423362922564,95.9,0.4214208002985855
1306893736.44,3.13106,6.9739476,3151.24682,4.1,2.7,210.0,-1.0,500.57935665084426,109001.2576301302,109001.2576301302,299.26387158614244,0.074608560464957,3.5971848862579834,94.2,0.4214442254954359
1306893736.66,3.1307547,6.9735752,3152.2638804,4.0,2.7,210.0,-1.0,504.9919795658536,117331.93943620134,117331.93943620134,299.0690423991463,0.07549852061656176,3.4910102855465985,93.89999999999999,0.42146757413935537
1306893736.87,3.1304574,6.973213,3153.2809408,3.9,2.7,210.1,-1.0,514.1754077321648,110318.59090449949,110318.59090449949,299.03128804233256,0.07749325619058793,3.4990293663801544,92.3,0.4214910758891367
1306893737.3,3.1298633,6.9724908,3155.2822532,3.8,2.7,210.1,-1.0,501.5579964992204,119394.52998701601,119394.52998701601,299.30721900848425,0.07578053790764643,3.4223175316932775,90.19999999999999,0.42151687422684453
1306893737.51,3.129579,6.9721459,3156.2336968,3.7,2.7,210.2,-1.0,491.03872751610163,126257.08462716568,126257.08462716568,298.08591854134374,0.07699975825651151,3.4554739714922578,87.6,0.4215426725645523
1306893737.72,3.1292889,6.9717944,3157.2179488,3.6,2.7,210.2,-1.0,500.30830708082624,121175.79611651694,121175.79611651694,297.0812287785823,0.0776143783655006,3.3452790622192343,87.19999999999999,0.4215684709022601
1306893737.93,3.1289874,6.9714295,3158.2350092,3.6,2.7,210.2,-1.0,518.6752283858307,121750.20656493401,121750.20656493401,296.4265124313746,0.08106527020862832,3.4189486775106115,86.6,0.42159434579289873
1306893738.14,3.1287009,6.9710833,3159.1864527999996,3.5,2.7,210.3,-1.0,493.37518513657744,130352.48068301944,130352.48068301944,295.90019608624317,0.0829529890194634,3.387031781027928,85.69999999999999,0.4216199910247447
1306893738.35,3.1284129,6.9707354,3160.1707048000003,3.4,2.7,210.3,-1.0,495.56145913394226,116992.79260796747,116992.79260796747,296.28091020601215,0.08035811097512113,3.3346622405154727,87.10000000000001,0.4216457128095216
1306893738.57,3.1281009,6.9703592,3161.2205736,3.4,2.7,210.3,-1.0,511.33404572111846,117202.89589116932,117202.89589116932,298.5433592985495,0.0789587749811056,3.3847107873319664,88.70000000000002,0.4216715111472294
1306893738.78,3.1278137,6.9700133,3162.1720172,3.3,2.7,210.4,-1.0,493.25718156205335,122581.26612555316,122581.26612555316,297.31274608544993,0.07821935099106997,3.441029278604486,89.7,0.42169700327321363
1306893739.0,3.127504,6.9696406,3163.221886,3.2,2.7,210.4,-1.0,506.864567705835,112061.60966804177,112061.60966804177,297.83102795828336,0.07679094095160391,3.4719549732117554,91.2,0.42172257195212887
1306893739.22,3.1271968,6.9692714,3164.2389464000003,3.2,2.7,210.4,-1.0,502.4039008140723,112252.67647835387,112252.67647835387,297.61857524408595,0.075145764647785,3.495812901239547,92.4,0.421748140631044
1306893739.44,3.126888,6.9689007,3165.2888152,3.1,2.7,210.5,-1.0,504.6994855659312,117428.48458130303,117428.48458130303,298.36023184392207,0.07512458350624274,3.580365902385153,94.0,0.4217714892749635
1306893739.65,3.1265986,6.9685535,3166.2402588,3.0,2.7,210.5,-1.0,495.4998674354459,112856.93254463347,112856.93254463347,299.2605069816424,0.07396129563830219,3.532619394801709,95.60000000000001,0.421794837918883
1306893739.86,3.1262963,6.9681914,3167.2573192,3.0,2.7,210.5,-1.0,516.1545363312404,108957.71040033337,108957.71040033337,299.82600024057245,0.07183294766614462,3.604391886281814,94.80000000000001,0.4218182631157334
1306893740.08,3.1259925,6.9678277,3168.2743796,2.9,2.7,210.6,-1.0,495.737015073226,122567.35082351291,122567.35082351291,299.0796529533584,0.06934505241081804,3.5717395111260384,95.30000000000001,0.42184168831258373
1306893740.5,3.125401,6.9671206,3170.2428836,2.8,2.7,210.6,-1.0,504.63521947488596,116213.34790202063,116213.34790202063,299.83726364012773,0.06751683185811552,3.5208133873665175,97.6,0.4218674866502915
1306893740.71,3.1251021,6.9667639,3171.259944,2.7,2.7,210.6,-1.0,509.1710851074063,112845.39975830301,112845.39975830301,298.59014977663145,0.07082173907108555,3.5837135092422563,97.6,0.4218933615409302
1306893740.92,3.1248087,6.966414,3172.2113876,2.7,2.7,210.7,-1.0,499.9749988003816,119902.54058109765,119902.54058109765,295.7081452021519,0.0736202025753157,3.5316208887229266,95.2,0.4219190067727762
1306893741.13,3.1245193,6.9660692,3173.1956396,2.6,2.7,210.7,-1.0,493.0110833797111,112118.13521606769,112118.13521606769,296.1477489333284,0.07254742648701139,3.552684730756052,96.0,0.42194472855755305
1306893741.56,3.1239176,6.965353,3175.196952,2.5,2.7,210.7,-1.0,499.95853188900804,105435.10326042128,105435.10326042128,295.06390251177106,0.07190651301914733,3.6335036205564566,96.30000000000001,0.42197267037732566
1306893741.78,3.1236038,6.96498,3176.2468208,2.5,2.7,210.8,-1.0,508.84613228942834,103876.00125704276,103876.00125704276,294.59060169011764,0.07502287999670149,3.6473226320274876,92.80000000000001,0.4220006887500291
1306893741.99,3.1233123,6.9646338,3177.1982644,2.4,2.7,210.8,-1.0,495.2759466664695,102858.65334978412,102858.65334978412,293.6086634060286,0.07530014518420597,3.553029220944229,90.69999999999999,0.4220284774639399
1306893742.41,3.1227092,6.9639184,3179.1995767999997,2.3,2.7,210.8,-1.0,511.3359437760499,94812.40073952568,94812.40073952568,293.26451003606377,0.07665020643443216,3.6879329407316845,89.3,0.4220587158716389
1306893742.83,3.1221253,6.9632266,3181.1352724,2.2,2.7,210.9,-1.0,495.1624401680706,104417.03774930605,104417.03774930605,293.99150300645437,0.07607711938375089,3.6145909523746713,89.9,0.4220910977614027
1306893743.26,3.1215211,6.9625117,3183.1365848,2.1,2.7,210.9,-1.0,499.8608969928421,105371.86372488717,105371.86372488717,294.94616877874654,0.07826845668067571,3.561274556706587,91.7,0.422125776239093
1306893743.47,3.1212244,6.9621611,3184.1208368,2.1,2.7,210.9,-1.0,501.95238678132546,104296.57337142504,104296.57337142504,293.9822228810645,0.08016969103686143,3.578786852948107,90.7,0.4221581581288567
1306893743.69,3.1209092,6.9617888,3185.1707056,2.0,2.7,210.9,-1.0,508.62201718765255,107620.57917383635,107620.57917383635,294.8886735021258,0.07917868039007572,3.544256430304376,89.6,0.4221906165715514
1306893743.91,3.1205967,6.9614199,3186.2205744,2.0,2.7,211.0,-1.0,504.11970557171713,111881.37020056555,111881.37020056555,295.4552928582584,0.07932350310030369,3.678455600882021,91.6,0.4222233046730387
1306893744.35,3.1199785,6.9606907,3188.2546952,1.9,2.7,211.0,-1.0,498.67927412091433,111682.95949636983,111682.95949636983,296.2470305663667,0.08193827708849515,3.5782183206196287,88.3,0.4222584424683143
1306893744.78,3.1193654,6.9599685,3190.2888159999998,1.8,2.7,211.0,-1.0,505.2944698253293,113991.33943044356,113991.33943044356,296.0294847336196,0.08156431586780778,3.576145847817516,89.10000000000001,0.42229365681652076
1306893745.0,3.1190593,6.9596083,3191.3058764,1.8,2.7,211.1,-1.0,493.13915309628214,119384.93832853883,119384.93832853883,295.46369528188103,0.07980473438498022,3.6068804433332575,89.4,0.42232879461179634
1306893745.42,3.1184654,6.9589098,3193.241572,1.7,2.7,211.1,-1.0,500.68183208850274,111974.07872166422,111974.07872166422,296.36648671009317,0.07955700158954286,3.721509380147573,90.10000000000001,0.4223662289949984
1306893745.84,3.1178654,6.9582049,3195.2428844,1.7,2.7,211.1,-1.0,505.3101531672734,108123.7245223189,108123.7245223189,295.5836176183576,0.07648905966289392,3.6341229453758794,91.70000000000002,0.42240366337820057
1306893746.06,3.1175518,6.9578366,3196.2599448,1.6,2.7,211.1,-1.0,503.9474403623649,104620.24593271219,104620.24593271219,295.6546062991871,0.07742015423897033,3.662820324824434,90.90000000000002,0.4224389542793379
1306893746.5,3.1169271,6.9571037,3198.326874,1.6,2.7,211.2,-1.0,501.8209555537483,101255.43318367658,101255.43318367658,295.94869346992164,0.0761952504053799,3.6782853187815125,90.30000000000001,0.42247439828633704
1306893746.72,3.1166161,6.956739,3199.3439344,1.5,2.7,211.2,-1.0,499.48058875984924,101403.6370554232,101403.6370554232,297.703648413656,0.07474019421648828,3.644975011593896,91.99999999999999,0.4225099188462671
1306893747.38,3.1156781,6.9556402,3202.4607324,1.4,2.7,211.2,-1.0,501.6874525723367,106328.28541231551,106328.28541231551,297.0757292078389,0.0735027374271253,3.6313618193103276,91.2,0.42255026224084274
1306893748.04,3.1147338,6.9545351,3205.5447219999996,1.3,2.7,211.3,-1.0,504.57128149086697,107750.17900836536,107750.17900836536,297.1541655272459,0.07101512067313638,3.541935234752729,90.6,0.4225953519171331
1306893748.89,3.1135282,6.9531262,3209.5145383999998,1.2,2.7,211.3,-1.0,499.89512124952336,107985.99933085986,107985.99933085986,297.1598277037346,0.07035333014522856,3.5352202173880896,93.20000000000002,0.42264495821634585
1306893749.76,3.1122847,6.9516747,3213.6155884,1.1,2.7,211.4,-1.0,503.1915896784424,109781.62761076454,109781.62761076454,297.1976703103328,0.06908919445545542,3.4722979324393406,91.10000000000001,0.4226993873502041
1306893751.06,3.1104314,6.9495143,3219.6851424,1.1,2.7,211.4,-1.0,501.4292425616522,108722.10280557207,108722.10280557207,297.2091652529286,0.06752725897116271,3.3951062472002436,91.1,0.4227656056354184
1306893751.91,3.1092288,6.9481141,3223.6549588000003,1.1,2.7,211.5,-1.0,497.3312291969453,109498.91280980964,109498.91280980964,297.46740114080484,0.06820319969682645,3.3034653050769247,92.2,0.42283657020234755
1306893757.45,3.1013143,6.9389211,3249.5735948,0.6,2.7,211.5,-1.0,501.17625060868613,110021.81453851555,110021.81453851555,298.38624532601006,0.06977979123424968,3.367592532250262,91.3,0.4229633418558908
1306893759.98,3.0976937,6.9347234,3261.4502356000003,0.6,2.7,211.5,-1.0,501.34705252749876,110253.60010621403,110253.60010621403,298.07798956802986,0.06925469743472695,3.344023395351791,89.89999999999999,0.4231154525295566
1306893762.1,3.0946691,6.9312185,3271.3583724,0.6,2.7,211.8,-1.0,499.6891234939593,110219.71723048098,110219.71723048098,297.32046796685665,0.06988301587289535,3.3967067122889283,88.6,0.4232858593537036
1306893767.18,3.0874026,6.9228018,3295.1772708,0.6,2.7,211.9,-1.0,500.8035515042593,108964.61346944566,108964.61346944566,298.2626193230909,0.07238221521171935,3.391748732088019,86.89999999999999,0.42350947046481474
1306893780.53,3.0683588,6.9007401,3357.6444644,0.6,2.7,211.9,-1.0,499.55804650500926,108554.35277704513,108554.35277704513,297.6914958291415,0.07181141073585215,3.4245750040394456,87.7,0.4238715658278943
1306893784.76,3.0623267,6.8937477,3377.460738,0.6,2.7,212.2,-1.0,499.6430985276814,108942.79672830027,108942.79672830027,297.4385025231872,0.07289592535508159,3.3838313938562794,89.0,0.4242727031857247
1306893797.5,3.0442239,6.8727484,3437.0407923999996,0.6,2.7,212.2,-1.0,498.19303973270854,108759.87076367684,108759.87076367684,297.01047509228124,0.07192152466800454,3.485018419095033,87.2,0.42480359776140264
1306893803.01,3.0364076,6.8636745,3462.7953864,0.6,2.7,212.2,-1.0,497.6827670587532,108910.68981775809,108910.68981775809,298.27623388340834,0.07566793146881969,3.5318809314138946,85.39999999999999,0.4253850172714639
1306893808.62,3.0284653,6.8544501,3489.009298,0.6,2.7,212.2,-1.0,496.90390969019325,108942.76633532866,108942.76633532866,298.4097361243727,0.07815510712203161,3.623608801966815,85.4,0.4260134402810876
1306893814.16,3.0206265,6.8453419,3514.927934,0.6,2.7,212.2,-1.0,496.80615082535564,108395.98872758985,108395.98872758985,295.47938071660246,0.07675240619637749,3.74276393425296,83.30000000000001,0.4266930772014726
1306893814.58,3.0200355,6.8446551,3516.8636296,0.6,2.7,212.7,-1.0,494.2187181511499,107871.79718464261,107871.79718464261,295.58428968282163,0.0766487590576414,3.693344157651672,82.39999999999999,0.4273167539293816
1306893819.66,3.0128511,6.8363037,3540.6169112000002,0.6,2.7,212.7,-1.0,496.73980105447276,106841.45847112042,106841.45847112042,296.4122623071358,0.07921771364356067,3.755826203734305,82.2,0.42796814281827056
1306893820.5,3.0116722,6.8349329,3544.5211107999994,0.6,2.7,212.8,-1.0,493.17134727715717,105844.45721033972,105844.45721033972,297.97153778623687,0.0765552334690208,3.695800340374433,82.5,0.42860552252080775
1306893825.15,3.0051166,6.827309,3566.2402716,0.6,2.7,212.8,-1.0,495.4045187465033,104575.71729744734,104575.71729744734,296.4912589886928,0.07581683660946476,3.821946212917953,83.60000000000001,0.42923800283576846
1306893826.41,3.0033286,6.8252293,3572.1457836,0.6,2.7,212.9,-1.0,498.62303041245866,103405.47102780813,103405.47102780813,298.230948373429,0.07902404883303914,3.7577164231870794,83.60000000000001,0.4297385058978856
1306893830.61,2.9974127,6.8183465,3591.7652067999998,0.6,2.7,212.9,-1.0,495.1355707545605,103134.04950729304,103134.04950729304,300.7743801612959,0.07967751931904751,3.775811478949198,80.5,0.4302385496424176
1306893836.16,2.9896042,6.8092588,3617.6510344000003,0.6,2.7,212.9,-1.0,494.7128506381311,103293.7561585546,103293.7561585546,301.1785440405831,0.07965636770395577,3.69077062311365,83.4,0.43065997352693197
1306893838.29,2.9866098,6.805773,3627.5919796000003,0.6,2.7,213.1,-1.0,494.4502480949665,103798.05483679395,103798.05483679395,301.48038498690005,0.07683824350821898,3.7386359004281413,84.80000000000001,0.4310444988987605
1306893841.66,2.9818673,6.8002509,3643.3400116,0.6,2.7,213.1,-1.0,495.0125228965054,104647.3903824568,104647.3903824568,301.8805871499368,0.0762733263489247,3.7099657381646707,85.6,0.4314046038856372
1306893850.1,2.9700209,6.7864519,3682.7429,0.6,2.7,213.3,-1.0,493.92479986059044,105207.03982319127,105207.03982319127,304.2555906101891,0.07623815450273284,3.64766387284863,88.30000000000001,0.43179617212710697
1306893856.07,2.9616551,6.7767025,3710.5644232,0.6,2.7,213.4,-1.0,493.3275573314541,104985.58483064061,104985.58483064061,303.42635059235573,0.07710808618306297,3.665262934829595,89.2,0.43224814063104394
1306893867.99,2.9449757,6.7572537,3766.1746612,0.6,2.7,213.6,-1.0,492.8627879701505,104859.15927753694,104859.15927753694,303.2356471118854,0.0744676931126044,3.638127422638523,91.80000000000001,0.432774442030869
1306893869.68,2.9426151,6.7545002,3774.0486772,0.6,2.7,213.6,-1.0,492.1557797518262,104318.15601793531,104318.15601793531,302.46376283946654,0.07456994562217743,3.7131967380175874,93.9,0.43331000633533096
1306893874.14,2.9363967,6.7472449,3794.7835860000005,0.6,2.7,213.7,-1.0,491.39679532179264,103705.02763255381,103705.02763255381,303.66914076629394,0.07447814792460095,3.6059534574352967,92.1,0.4338432740518663
1306893875.42,2.9346083,6.745158,3800.7547148,0.6,2.7,213.7,-1.0,492.45088628900857,103294.34777677977,103294.34777677977,303.46674152020347,0.07409877052257839,3.6698938591713604,93.4,0.43437669487426356
