timestamp,longitude,latitude,altitude,roll,pitch,yaw,heading,air_speed,engine_0,temperature_in,humidity_in,pressure_in,heart_rate,oxygen_mask
1306893618.37,7.626053,5.5101195,-3.28084,-1.0,-0.3,-1.0,-1.0,60.839759165093234,138011.93269614957,295.89928799011386,0.06824059127179036,3.5739835170867273,91.70000000000002,0.3182824947689847
1306893621.8,7.6270983,5.51051,-3.28084,-1.0,-0.4,-1.0,-1.0,60.839759165093234,103507.87169343393,295.17979885534686,0.06983547199487457,3.6591490552497237,91.00000000000001,0.31497020255551134
1306893623.52,7.6278048,5.5107738,-3.28084,-1.0,-0.5,-1.0,-1.0,82.33182032401709,69005.22765600235,294.017799975587,0.07032817334749528,3.665166529136118,90.10000000000001,0.31165836965962335
1306893624.6,7.6283082,5.5109619,-3.28084,-1.0,-0.6,-1.0,-1.0,93.53357413026268,34503.479321040875,295.3062148411286,0.0691147301156868,3.7334630048229482,88.60000000000001,0.3083465367637353
1306893625.46,7.6287452,5.5111251,-3.28084,-1.0,-0.7,-1.0,-1.0,102.25956836420433,289.49600030768914,295.54628665328005,0.070821371897338,3.683610046007027,90.50000000000001,0.3050347038678473
1306893626.33,7.6292199,5.5113024,1416.0761608,-1.0,-0.8,-1.0,-1.0,1117.775151502903,289.4960003076892,295.54628665328005,0.07082137189733802,3.683610046007027,90.5,0.30503470386784737
1306893627.4,7.6298394,5.5115338,1416.0761608,-1.0,-0.9,-1.0,-1.0,116.62868742463681,34503.47932104086,295.3062148411286,0.0691147301156868,3.7334630048229482,88.6,0.30834653676373536
1306893628.7,7.6306608,5.5118405,1416.0761608,-1.0,-1.0,-1.0,-1.0,127.32004470314911,69005.22765600235,294.017799975587,0.07032817334749529,3.665166529136119,90.10000000000001,0.3116583696596234
1306893630.01,7.6315608,5.5121767,1416.0761608,-1.0,-1.1,-1.0,-1.0,138.6865859847437,103507.87169343393,295.17979885534686,0.06983547199487457,3.6591490552497237,91.0,0.31497020255551145
1306893630.65,7.6320233,5.5123494,1416.2730112,-1.0,0.8,-1.0,-1.0,145.96080095593868,138011.93269614957,295.89928799011386,0.06824059127179036,3.5739835170867273,91.69999999999999,0.3182824947689848
1306893630.87,7.6321843,5.5124095,1416.4042448,-1.0,2.5,-1.0,-1.0,148.149797268568,138018.55886654145,297.61592511429313,0.06906180196154038,3.536696441424884,90.1,0.3215950931941816
1306893631.1,7.6323579,5.5124744,1416.5354783999999,-1.0,3.9,-1.0,-1.0,152.07374019586112,103535.66180495011,299.66382554006026,0.06806131847573033,3.4396589373090625,91.19999999999999,0.32490799783110197
1306893631.32,7.6325276,5.5125377,1416.6339036000002,-1.0,4.9,-1.0,-1.0,155.79829167275173,69071.85966984382,298.400763659982,0.07004056692502654,3.472993383799447,91.9,0.3282211321268149
1306893631.74,7.6328502,5.5126582,1416.7651372,-1.0,6.4,-1.0,-1.0,155.31918992283553,34668.914406710916,297.0930211020404,0.06937503287346437,3.472879286407293,92.20000000000002,0.3315345726342515
1306893632.16,7.6331888,5.5127846,1416.830754,-1.0,7.4,-1.0,-1.0,162.950955363447,3771.875853779939,295.806565925608,0.06806089817128194,3.393910050251958,91.4,0.3348481662475498
1306893632.58,7.6335234,5.5129096,1416.8963708,-1.0,8.0,-1.0,-1.0,161.26286492175805,4086.411366641154,296.24778021236693,0.06845964221574001,3.4174543070325805,92.2,0.334850080070822
1306893633.01,7.6338784,5.5130422,1416.9619876,-1.0,8.4,-1.0,-1.0,167.00996080229535,4720.9559257738165,298.1415138880913,0.07120599616041975,3.3234667317587077,94.1,0.3348521469999558
1306893634.5,7.6351697,5.5135244,1418.9633,-1.0,9.7,-1.0,-1.0,175.37002213246387,5521.763415093849,300.0403340002034,0.06888397846620488,3.3729553031100363,93.9,0.3348588836578736
1306893634.92,7.6355449,5.5136647,1421.1942712,-1.0,9.9,-1.0,-1.0,180.80507929919267,6435.441415625448,299.097569825007,0.06943063587983907,3.301833813118824,91.50000000000001,0.33487082591509143
1306893635.36,7.6359497,5.5138162,1424.7703867999999,-1.0,10.1,-1.0,-1.0,186.46072015312143,7321.7543059571235,298.65857854929516,0.07063597586441477,3.2891399855695234,89.50000000000001,0.33489065312419036
1306893639.24,7.6398505,5.5152964,1519.7835132,0.3,10.1,-1.0,-1.0,205.08989885997,8168.912599692902,297.9447461219114,0.07262990154259681,3.385801249833923,90.80000000000001,0.33513187140940465
1306893640.51,7.6413142,5.5158665,1581.0367959999999,0.3,10.1,-1.0,-1.0,238.148661278838,9157.5048444412,296.5538482184401,0.07265028259991299,3.475697750907016,91.9,0.3355157078048552
1306893640.95,7.6418431,5.5160751,1606.0696051999998,0.7,10.1,-1.0,-1.0,247.57043717147783,10286.464130304737,297.9549392608715,0.07258209836398426,3.456901829783877,89.2,0.3359577244277774
1306893641.37,7.6423562,5.5162788,1631.6273488,0.7,10.2,63.1,-1.0,252.1000483793817,12028.894580311315,298.76938295200875,0.0744652555369715,3.4968080515722564,87.60000000000001,0.33645906957213434
1306893641.79,7.6428882,5.5164914,1659.28483,1.0,10.2,63.1,-1.0,262.3922545560899,14612.893705614366,301.5182211697172,0.07730322361164736,3.4976663393615923,87.30000000000001,0.33702479573136446
1306893642.22,7.6434345,5.516711,1688.81239,1.2,10.3,63.1,-1.0,263.53012456272444,17775.38849118455,303.6281959342829,0.07670201332133743,3.545111439212969,86.2,0.337659266422528
1306893642.64,7.6439808,5.516932,1719.1273516,1.4,10.2,63.1,-1.0,270.5708425088767,21547.568711879554,301.09591212466626,0.0768527226020543,3.652142939543845,86.70000000000002,0.3383643189159663
1306893643.06,7.644539,5.5171592,1750.2297148,1.6,10.1,63.1,-1.0,277.2458905911093,25654.043881190133,300.2421082536714,0.0767721014438118,3.6237744014727142,86.80000000000001,0.33913727385909836
1306893643.48,7.6451043,5.5173906,1781.2664611999999,1.9,9.8,63.1,-1.0,280.67570826607977,29392.57587195852,298.57754738631223,0.07822958381876087,3.6584368732603125,87.4,0.3399774422755463
1306893643.9,7.6456854,5.5176298,1812.0735488000003,2.2,9.3,63.1,-1.0,288.71896280410385,32863.0051573984,300.46135841055803,0.0772460020991364,3.7147958276592705,90.2,0.3408811496246277
1306893644.33,7.6462861,5.5178782,1842.0932348000001,2.5,8.7,63.4,-1.0,291.2979504119059,35836.20965054215,301.97573626423684,0.0770375136101275,3.6844357119411093,89.9,0.3416332056176286
1306893644.75,7.6468945,5.5181309,1870.1444167999998,2.8,8.3,63.4,-1.0,301.88322567680893,38366.045513595134,300.5440573476557,0.07953839526195247,3.658279451798925,86.5,0.34230779004457523
1306893645.18,7.6475349,5.5183977,1896.7848376,3.2,7.9,63.5,-1.0,310.05371421395944,40485.198759250685,301.3646251934086,0.07688983596546463,3.6366685737632096,88.50000000000001,0.34298612556513525
1306893645.62,7.6481955,5.5186731,1921.0630535999999,3.7,7.7,63.5,-1.0,312.2335245132479,42656.246066798856,302.17648155053627,0.07649733746577041,3.6294206347920763,88.30000000000001,0.3436614755213907
1306893646.04,7.6488451,5.5189426,1941.8307708,4.1,7.5,63.6,-1.0,320.8817923520862,45079.24249633704,301.2262599356845,0.07574240524910908,3.708260758747609,89.30000000000001,0.3443207493621606
1306893646.47,7.649527,5.5192241,1960.7940259999998,4.4,7.6,63.6,-1.0,327.9928652620085,47831.001401475856,301.08670970443296,0.07687860093543378,3.743742277100835,88.9,0.3449553731591859
1306893646.89,7.6502209,5.5195086,1978.1824780000002,4.4,7.9,63.6,-1.0,341.5360655209975,50915.22681417473,301.1368940294514,0.07652492023603813,3.642355040795012,89.5,0.34555983510144317
1306893647.31,7.6509145,5.5197911,1994.75072,4.7,8.3,63.6,-1.0,340.4711163796493,54281.24462478575,299.24370831396374,0.07854931484177706,3.663100732268026,89.0,0.3461303840953189
1306893647.73,7.6516324,5.5200812,2012.0407467999999,4.8,8.7,64.0,-1.0,352.1191098645828,58636.00373028761,301.95016572443143,0.07722681859874339,3.681541649627655,89.8,0.34666885741115444
1306893648.15,7.6523609,5.5203731,2030.3150256000001,4.8,9.1,64.1,-1.0,357.0564196179166,62763.87575438187,300.4010853011887,0.07649934520640654,3.7492811729148423,90.5,0.3471780875073924
1306893648.58,7.6531318,5.5206794,2050.9187008,4.8,9.4,64.1,-1.0,368.541524541648,67920.22649796726,298.8923262262239,0.07562586486341795,3.6713093609740692,87.80000000000001,0.34766534691246676
1306893649.0,7.6538824,5.5209751,2072.4410112,5.5,11.9,64.4,-1.0,366.9192704921186,73320.7357643219,301.2806381645376,0.07437412649199836,3.647836329984611,88.89999999999999,0.3481373722842953
1306893649.44,7.6546939,5.5212903,2100.3609596,20.8,14.0,65.0,-1.0,378.7376141750413,79429.00359114341,299.5972125488611,0.07541646216895237,3.584800114968497,88.5,0.3486123832204282
1306893649.86,7.6554773,5.5215813,2133.0053176,38.0,15.7,66.5,-1.0,380.6837578208878,85392.25142226164,298.50792844760326,0.073788209204536,3.4978705211429726,91.3,0.3491069151539366
1306893650.29,7.656306,5.5218648,2171.8504632,42.4,15.6,68.4,-1.0,389.28582110515396,91826.64904568692,297.4509812303975,0.07118960163351781,3.5278647246747803,92.4,0.3496436277523618
1306893650.71,7.6571064,5.5221163,2211.3517768,46.0,13.6,69.8,-1.0,380.8630739637437,98079.35452897886,297.32774289451885,0.07026435354017367,3.4838684803374718,96.10000000000001,0.35022826248552014
1306893651.15,7.6579488,5.5223642,2251.9685759999998,52.0,12.1,71.0,-1.0,379.2714426507109,104573.71186067554,299.19705158614954,0.07021452967884395,3.526549073263323,92.9,0.35086709669374416
1306893651.58,7.6587706,5.5225929,2288.9108343999997,54.4,10.8,72.0,-1.0,375.62516463845725,111671.14669391286,302.1383401333352,0.07145096584681794,3.471793790788586,91.30000000000001,0.35155347027204686
1306893652.0,7.6595821,5.5228083,2322.01451,55.5,9.7,72.7,-1.0,377.01572639419055,118616.532840945,302.08694106407245,0.07224022938217725,3.5498030815439603,91.10000000000001,0.3522767423630354
1306893652.43,7.6604156,5.5230199,2352.2966632000002,57.2,9.1,73.5,-1.0,376.090609852151,125311.44431331186,302.7619648774544,0.07313680832767702,3.4811971731162297,88.10000000000001,0.35302803282672746
1306893652.85,7.6612418,5.5232193,2378.6746168,58.2,8.7,74.4,-1.0,379.2754145832564,130698.30644894077,304.0240983302419,0.07353301249259368,3.5804460841163688,91.3,0.35379279660625507
1306893653.28,7.6620783,5.5234092,2401.8701556,58.6,8.3,75.5,-1.0,372.8764608159827,134798.05458392124,302.57529081294746,0.07382461699882348,3.605194197247418,90.0,0.35456146458525767
1306893653.72,7.6629485,5.523593,2422.6378728,59.2,8.0,76.7,-1.0,376.8398547918728,138047.06436231302,304.09184908625025,0.07315090989401198,3.6688762791179275,91.2,0.35531344402532766
1306893654.14,7.6637739,5.5237525,2439.468582,59.5,8.0,78.0,-1.0,372.15866631982203,140626.81770987238,305.41341946529644,0.07249142061214817,3.761063052660738,88.2,0.3560285249527117
1306893654.56,7.6646051,5.5238973,2454.0027032000003,59.7,7.7,79.4,-1.0,372.79065940742294,142976.68496092182,306.350225603664,0.07563083826472976,3.7630122413487808,85.70000000000002,0.356686880158311
1306893654.99,7.6654459,5.524026,2466.4698952,59.9,7.7,81.0,-1.0,366.4740832585398,146074.6011849211,306.27360850503607,0.07712706411371975,3.7770279524136536,81.9,0.3572821557488622
1306893655.41,7.6662833,5.5241353,2477.0013916,60.0,7.7,82.7,-1.0,372.376912785444,149304.55126765487,306.5147587308812,0.07511660801580923,3.7361588875536453,84.20000000000002,0.3578072323017931
1306893655.84,7.6671137,5.524224,2485.8596596,60.1,7.7,84.6,-1.0,359.3305610563934,151823.9183430453,304.59225440562903,0.0743520400129405,3.824982582078524,85.7,0.3582667795458876
1306893656.26,7.667941,5.5242916,2493.3399748,60.1,7.7,86.5,-1.0,365.6602493731934,155013.74374555357,302.47478890000326,0.0748535321677441,3.7515514562433543,87.10000000000001,0.358666538950962
1306893656.68,7.6687652,5.5243374,2499.6391876,60.1,7.9,88.5,-1.0,363.8725848295554,156877.43522861967,301.4442457245934,0.07609832751956688,3.7887567071673205,89.2,0.3590103381635605
1306893656.89,7.6691766,5.5243519,2502.4279016,60.1,7.9,89.5,-1.0,363.20708182679107,158167.87583666554,299.9755457387541,0.07730152140359219,3.811562353071241,86.2,0.3592990958188535
1306893657.32,7.6699987,5.5243632,2507.3491616,60.1,8.1,91.8,-1.0,354.9428064388178,160036.259729995,300.14816984340274,0.07493269939590268,3.838659671894816,86.2,0.3595452134916443
1306893657.74,7.670809,5.5243505,2511.48302,60.1,8.2,94.1,-1.0,358.87202393424474,161494.68754958134,297.96674543029116,0.07622678489705831,3.889282031833391,85.3,0.3597525188284772
1306893658.18,7.6716342,5.524312,2515.0591356,60.1,8.4,96.5,-1.0,350.9656255606256,162304.33088675502,296.63290588388486,0.07861403240490329,3.813530936460678,86.5,0.35992889678123313
1306893658.61,7.6724146,5.5242504,2517.9790832,60.1,8.6,98.9,-1.0,341.9919223127316,163889.06025757606,295.93162666166324,0.07690772772542692,3.791123900608024,89.4,0.36007817499645633
1306893659.05,7.6732149,5.5241604,2520.5709468,60.1,8.8,101.5,-1.0,345.60459245413284,165485.6233831731,294.4976430320646,0.07643102995119898,3.7365362023632778,92.9,0.3602044107794834
1306893659.48,7.6739752,5.524048,2522.7363011999996,60.1,9.0,104.1,-1.0,340.1767982555121,164231.82449697368,294.7404983033466,0.07909294620798538,3.7586166537273544,93.9,0.3603111255651352
1306893659.9,7.6747091,5.5239131,2524.5735716,60.1,9.2,106.7,-1.0,340.7975390770089,163352.05378518743,295.69482349524577,0.07646280883346801,3.7234497201197776,93.69999999999999,0.3604014580235779
1306893660.33,7.6754339,5.5237524,2526.2468,60.1,9.4,109.3,-1.0,334.4367588202242,160347.25727412,295.79099856763634,0.07479268268402452,3.7076030573664895,92.30000000000001,0.3604782406132541
1306893660.75,7.6761148,5.5235744,2527.6903696,60.1,9.7,112.0,-1.0,328.13826679992616,156005.07754803775,296.76684287251106,0.0744667127925946,3.6956284366789456,90.5,0.3605436933691597
1306893661.17,7.6767791,5.5233736,2529.0027056,60.1,9.9,114.8,-1.0,327.32321400375423,151471.022786799,298.0408868902148,0.07317581515940001,3.6156140599798667,92.30000000000001,0.3606057012431754
1306893661.6,7.6774366,5.5231455,2530.2166164,60.1,10.2,117.7,-1.0,324.9712654944137,147089.7590617587,297.13457833579866,0.07479624019935369,3.5781847447380155,95.50000000000001,0.3606590586360013
1306893662.03,7.6780696,5.5228954,2531.3649103999996,60.1,10.4,120.5,-1.0,322.31730584978334,141440.6877425182,299.1763784063916,0.07362587212578714,3.4840561186704324,93.40000000000002,0.3607054497121168
1306893662.5,7.6787296,5.5225987,2532.5460128,60.1,10.7,123.8,-1.0,318.68004244332604,135750.70275032945,298.11479856408005,0.07234001219741686,3.5424496195606867,93.20000000000002,0.3607462524242779
1306893662.94,7.6793147,5.5223004,2533.5958816,60.1,11.0,126.8,-1.0,314.7142031323522,129402.62072827891,299.2459174527497,0.0728658590397819,3.4966340852363986,92.0,0.3607826916193785
1306893663.36,7.6798432,5.5219979,2534.5801336,60.1,11.2,129.8,-1.0,311.521857379792,122089.28051538538,301.0280118957438,0.07157241086010564,3.59010063680727,88.7,0.36081537972086575
1306893663.79,7.6803567,5.5216691,2535.5315772,60.1,11.4,132.7,-1.0,310.1615315589542,115181.43837592122,299.97739593824866,0.06906795694141155,3.6268618599549476,86.00000000000001,0.3608452353639104
1306893664.22,7.680838,5.5213241,2536.4830208,60.1,11.4,135.9,-1.0,307.61603609419006,107947.44200623629,299.5672558022296,0.07065893991169855,3.7043898878726975,83.60000000000001,0.3608730240778211
1306893664.65,7.6812957,5.5209567,2537.401656,60.1,11.4,138.9,-1.0,310.5111609033691,101244.76497352519,299.15382728081033,0.07261529596599417,3.7582814969330536,85.4,0.36089905207432155
1306893665.07,7.6817222,5.5205728,2538.3530996,60.1,11.4,141.9,-1.0,316.79787120639065,94983.46043875432,297.9310830274077,0.0728878999374708,3.7709264080459737,88.10000000000002,0.3609239317768587
1306893665.49,7.6821135,5.5201776,2539.2717348,60.1,11.3,144.8,-1.0,313.12142809902065,89235.29886194362,297.48956136633865,0.07346175559689523,3.7520577274802887,87.2,0.36094789284422535
1306893665.91,7.6824735,5.5197688,2540.19037,60.1,11.2,147.8,-1.0,312.98444993842133,84983.6085551019,299.6093576112005,0.07435835742017767,3.7308049122967852,86.70000000000002,0.360971164935214
1306893666.35,7.6828238,5.5193178,2541.174622,60.1,11.1,150.9,-1.0,318.4317857299933,82448.45338777099,297.95425479431105,0.07453644434045148,3.8126804570047867,87.00000000000001,0.3609940542615482
1306893666.77,7.6831252,5.5188741,2542.0932572,60.1,11.1,153.9,-1.0,319.1236936116279,81999.67414807164,298.18725411462697,0.07543070173675298,3.753972065238098,88.50000000000001,0.3610163311644354
1306893667.21,7.6834026,5.5184022,2543.0775092,60.1,11.1,156.9,-1.0,316.3515913962894,83229.85327235893,298.63354570671675,0.07732527491398349,3.7113092915324435,87.30000000000003,0.36103845496146064
1306893667.65,7.6836457,5.5179144,2544.0617611999996,60.1,11.1,160.0,-1.0,319.661029511709,85276.47346502496,297.7176606305963,0.07976808398322666,3.7336093907179557,87.60000000000002,0.3610605787584859
1306893705.11,7.6863616,5.4776163,2658.8255443999997,0.8,11.1,160.0,-1.0,293.82460333618184,88599.72499525528,296.8158956185744,0.08028981840907795,3.656037653939521,88.80000000000001,0.3613482646727468
1306893705.97,7.6870303,5.476727,2660.8268568,0.9,11.1,160.0,-1.0,318.9706195288551,91007.90217727933,296.0007666738961,0.07972216282538105,3.6570277559668276,89.70000000000002,0.3616384002807957
1306893706.63,7.6875453,5.4760408,2662.3688516,0.9,11.1,150.6,-1.0,320.54423648376473,88764.578134953,295.71697942273477,0.07982626063358947,3.6220962141825885,89.90000000000002,0.36192999039453155
1306893707.48,7.6882099,5.4751537,2664.370164,0.9,11.1,150.6,-1.0,321.421674188921,85654.77948599431,295.1848937380088,0.0807129967160583,3.5658400032801714,89.4,0.36222403020205557
1306893708.12,7.6887064,5.4744895,2665.8793504,1.0,11.1,150.7,-1.0,319.7497226230325,80440.99696401495,295.1419497291645,0.08026923004937629,3.604366860608654,91.60000000000002,0.36251944796233554
1306893708.99,7.6893815,5.4735848,2667.9134712,1.0,11.1,150.7,-1.0,320.1214513104056,73162.32701279542,294.5786958414834,0.07785928276584354,3.5929917111316145,92.30000000000001,0.36281746852226554
1306893709.63,7.6898821,5.4729127,2669.4226576,1.0,11.1,150.8,-1.0,322.8984557057517,67877.40353115172,296.5486923962626,0.07687264448603696,3.6140114472708516,95.70000000000002,0.3631167139290897
1306893709.84,7.6900393,5.4727014,2669.8819752,0.9,11.1,150.8,-1.0,310.5408657932687,65668.91894241802,296.9261311528937,0.0784255669800424,3.6907510855628853,96.30000000000001,0.3634148875948815
1306893710.48,7.6905382,5.4720299,2671.3911616,0.9,11.1,150.8,-1.0,322.51584141152193,62788.05489801963,295.62236559600046,0.07470240912959789,3.786132347795413,97.9,0.36371428610756745
1306893711.11,7.6910243,5.4713747,2672.8675396000003,0.9,11.1,150.9,-1.0,319.8111631936704,63243.360218167676,294.117129482721,0.07474687094116007,3.649944016634569,98.39999999999999,0.36401483291421655
1306893712.18,7.6918452,5.4702658,2675.360978,0.9,11.1,150.9,-1.0,318.61207391310757,64775.88045699114,294.4906766172958,0.07721821984923338,3.6311252304557415,97.1,0.36405341559138193
1306893712.61,7.6921827,5.4698091,2676.3780384,0.9,11.1,151.0,-1.0,325.8902464490893,63341.25792642906,296.67210062223177,0.07838957382861714,3.6237519752635494,96.39999999999999,0.3640897016806208
1306893713.04,7.6925068,5.46937,2677.3622904,0.8,11.1,151.0,-1.0,314.1216919864641,64173.927314602726,298.5192789895908,0.07565579976861081,3.5616696941172625,94.3,0.3641246863700346
1306893713.68,7.6930007,5.4687002,2678.8714768,0.8,11.1,151.0,-1.0,321.3671780555842,65454.54275585475,299.0103016153086,0.07390577342907441,3.6525707035758965,92.19999999999999,0.3641585227654851
1306893714.32,7.6934979,5.4680248,2680.3806632,0.8,11.1,151.1,-1.0,323.6425595482957,66537.37367911836,298.5963000857041,0.07187363214310175,3.6072757721037383,90.3,0.3641923591609358
1306893715.18,7.6941542,5.467132,2682.3819756000003,0.7,11.1,151.1,-1.0,318.6900795385156,68070.81202338265,299.56494637088105,0.07478360331519258,3.6970214106330386,87.69999999999999,0.3642261190034554
1306893715.61,7.6944832,5.4666838,2683.3662276,0.7,11.1,151.1,-1.0,319.84487405900296,69058.35578606818,296.9917794455991,0.0753055701045188,3.6487624619833627,87.3,0.364258653999081
1306893716.24,7.6949653,5.4660265,2684.8426056000003,0.7,11.1,151.2,-1.0,320.0056643810206,68466.85083516763,296.8379091957785,0.0727354788729932,3.5834335565263395,85.6,0.36429356213556396
1306893717.33,7.6958057,5.4648787,2687.4344692,0.6,11.1,151.2,-1.0,322.6996435369808,69053.69607572973,298.0521452426633,0.07303311270333707,3.617193861129956,82.6,0.36433099651876605
1306893717.54,7.6959618,5.4646653,2687.8937868,0.6,11.1,151.2,-1.0,311.9219003871605,69101.66147078098,299.00328537540094,0.07359561736549557,3.6195734964886657,82.69999999999999,0.36436605776111064
1306893719.65,7.6975758,5.4624544,2692.8478551999997,0.5,11.1,151.2,-1.0,321.038073793808,67474.48603918853,300.29651197773137,0.0729623944571291,3.6582097061203127,82.2,0.36440686047327164
1306893720.09,7.69791,5.4619959,2693.8649156,0.5,11.1,151.2,-1.0,319.30473781980703,66792.86160230052,297.81375178245446,0.07162705685766552,3.5999251147009175,82.4,0.36444766318543265
1306893720.74,7.6984033,5.4613184,2695.3741019999998,0.5,11.1,151.4,-1.0,319.33392281153283,65055.62394435369,297.61367681736647,0.07504200254795253,3.689943008309059,84.00000000000001,0.3644896907444878
1306893722.22,7.6995354,5.4597617,2698.8517924000002,0.4,11.1,151.4,-1.0,321.91488974168175,63494.413774422705,299.70149466143,0.07616285659076721,3.6682166947001367,85.50000000000001,0.3645363114793959
1306893723.08,7.7001915,5.4588583,2700.8531048,0.4,11.1,151.4,-1.0,321.46019588434143,63605.593675611024,300.6841898226479,0.07981813912023565,3.6884811363427876,85.10000000000001,0.36458408050826724
1306893723.93,7.7008344,5.4579725,2702.8544172,0.4,11.1,151.5,-1.0,318.9840388126454,64925.74140779151,299.6949878626155,0.07675435789785286,3.6987131779483864,87.69999999999999,0.36463184953713873
1306893725.4,7.7019497,5.456434,2706.2664908,0.3,11.1,151.5,-1.0,320.2479670085694,66194.2091914944,301.66350961300947,0.07633628317117211,3.688536506179172,85.0,0.3646852834828955
1306893726.91,7.7030955,5.4548519,2709.8097980000002,0.3,11.1,151.5,-1.0,320.5073050160676,67667.6976809657,302.9435295292575,0.07641840173120791,3.7712617826467048,87.19999999999999,0.36474354026329786
1306893728.18,7.7040606,5.453518,2712.762554,0.3,11.1,151.6,-1.0,321.1978490577837,69251.84146918693,302.92476329349466,0.07688316994815071,3.7596423926481632,88.19999999999999,0.36480263912594013
1306893730.09,7.7055156,5.4515053,2717.2573048,0.2,11.1,151.6,-1.0,322.08934309000256,69158.65287056199,302.339943847258,0.07517696274731818,3.8102674107637986,87.7,0.36487115399908093
1306893732.4,7.7072689,5.4490778,2722.6378824,0.2,11.1,151.6,-1.0,321.21937421767893,69368.95014508243,301.07381163590327,0.0748687084473689,3.8360091592451115,87.49999999999999,0.3649406640603233
1306893734.08,7.7085408,5.4473156,2726.5748903999997,0.2,11.1,151.7,-1.0,320.68345404365573,69563.66546054893,302.6968892596322,0.07605625078771752,3.891046246400459,87.59999999999998,0.3650169873324143
1306893740.5,7.713409,5.4405646,2741.5683292,0.1,11.1,151.7,-1.0,321.337516696121,69693.89717909133,301.292370891571,0.07503698626312806,3.8879952228557015,87.5,0.3651247738590985
1306893742.41,7.7148604,5.4385507,2746.06308,0.1,11.1,151.8,-1.0,322.0640998507508,69901.52025523556,299.097144133666,0.07330079075268191,3.843388917192354,86.5,0.36523493352664
1306893762.1,7.7298001,5.417808,2792.0276484,0.1,11.1,151.8,-1.0,321.82412336585435,70079.8710744076,299.32429714282847,0.07088943147183868,3.830296198469656,86.30000000000001,0.36544767412156565
1306893763.37,7.7307721,5.416458,2795.0132128,0.1,11.1,152.0,-1.0,324.5318168633576,70087.41400755694,300.37380725016686,0.07233439035127694,3.818667563622631,83.30000000000001,0.36566271130441774
1306893773.08,7.7381494,5.4062079,2817.6838172000002,0.1,5.8,152.0,-1.0,322.4108892846006,70279.74238395636,300.2838408301909,0.07576350594594429,3.77559535362254,84.20000000000002,0.3659226850576986
1306893773.5,7.7384648,5.4057695,2818.6680692,0.1,5.8,152.0,-1.0,319.1938198925047,70495.00666050153,298.4163867471305,0.0780088317374327,3.651758817076849,82.5,0.36617668768237055
1306893774.35,7.7391132,5.4048684,2820.7349983999998,0.1,5.8,152.1,-1.0,323.62110250319387,70381.60279700649,297.977532750662,0.08004699034826372,3.6526884353389235,84.4,0.3664286233779086
1306893796.19,7.7557303,5.3817712,2871.8504856,0.1,5.8,152.1,-1.0,322.965547922268,70481.41062818581,299.3413245545114,0.08009313742756699,3.6903259373791992,86.6,0.36678934078823233
1306893806.87,7.7638698,5.370455,2896.7520612,0.1,5.8,152.1,-1.0,323.53966284630525,70433.77854320798,298.5138295566653,0.07737486924476934,3.6259423169338905,87.3,0.3671956071924317
1306893816.26,7.7710383,5.3604868,2918.6680724,0.1,5.8,152.5,-1.0,324.10926900023793,70230.91789545494,297.00673300340515,0.07847703109706222,3.56053189430036,87.7,0.36764382460275546
1306893823.04,7.7762193,5.3532804,2934.4817212,0.1,5.9,152.5,-1.0,324.48143288047834,70377.7082842339,297.56228688470986,0.07822126510161337,3.6031172320203084,87.89999999999999,0.3680939558363513
1306893823.47,7.7765488,5.3528221,2935.8268656,0.1,7.3,152.5,-1.0,325.323013384002,70716.61029266211,299.0121539307004,0.07857827382217643,3.606403922304063,90.19999999999999,0.36853673798858216
1306893823.89,7.7768719,5.3523726,2938.2546872000003,0.1,7.0,152.5,-1.0,326.57191078969885,70974.60445586525,297.3881291409368,0.0783349279994546,3.584406984990855,88.89999999999999,0.36887793440153066
1306893824.31,7.7771951,5.3519233,2941.4042936,0.1,6.7,152.5,-1.0,326.5883265312479,71521.41618980179,297.52865299506516,0.08031027255093971,3.584586276538478,92.29999999999998,0.3692195135791334
1306893824.73,7.77751,5.3514856,2944.6523251999997,0.1,6.3,152.5,-1.0,318.613231077479,72111.00848452919,296.1217501237929,0.07741992846872577,3.6159661965243797,93.1,0.3695157734216531
1306893825.15,7.7778312,5.3510393,2947.8675484,0.1,6.1,152.5,-1.0,324.6114397787865,71607.65334156167,297.2666795714692,0.07535365118879374,3.735150466288197,91.1,0.36981723886347284
1306893825.99,7.7784776,5.3501417,2953.248126,0.1,5.7,152.5,-1.0,326.2247194835838,71552.9355222901,296.12222440716954,0.0730855201323486,3.7260730009054868,90.10000000000001,0.3701264361513119
1306893826.41,7.7788028,5.3496904,2955.3150551999997,0.1,5.6,152.5,-1.0,327.7914674905881,71329.06955511526,295.1395816630022,0.07206757090353105,3.681718934884215,89.2,0.37032118680747983
1306893827.67,7.7797688,5.3483499,2959.4161052,0.1,5.6,152.5,-1.0,324.97213315408106,71108.31638826885,296.94252110794787,0.07277145422002375,3.793542803104258,90.0,0.37046740290546765
1306893833.59,7.784308,5.3420477,2972.112956,0.1,5.7,152.5,-1.0,325.08520365072604,71470.8313166589,297.030278794685,0.07138582374287292,3.8282487225333535,89.3,0.3705921076298771
1306893834.45,7.7849702,5.3411279,2974.1470768,0.1,5.7,152.7,-1.0,326.44741422489983,72178.81834734071,298.6315349152551,0.0725821852644095,3.7324655872552666,89.0,0.37068466012331547
1306893835.73,7.7859476,5.3397698,2977.1326412,0.1,5.7,152.7,-1.0,324.0294544472538,72587.28563662924,298.1860715786377,0.07271010125965637,3.741800461920477,87.60000000000001,0.37078104026329795
1306893842.08,7.7908217,5.332995,2991.8964211999996,0.1,5.7,152.8,-1.0,325.6892558462979,72721.1088043859,298.04884131569713,0.0718656850873685,3.8492857525190844,88.50000000000001,0.3709062043052927
1306893843.85,7.7921836,5.3311015,2996.0302796,0.1,5.7,152.8,-1.0,326.4974801242327,72789.23732323927,297.2536383490176,0.0697624284417647,3.80049707272776,88.20000000000002,0.37103366493521395
1306893852.43,7.7987639,5.3219477,3015.9449784,0.1,5.7,152.8,-1.0,325.64559799873547,72253.96793629217,299.6708448435833,0.07217318314735573,3.8414627525844747,87.80000000000001,0.37120001445402406
1306893858.24,7.8032261,5.3157388,3029.4292308,0.1,6.1,152.8,-1.0,326.1367989545991,72018.63458835354,300.14533826148653,0.07141291051347139,3.7681173213517996,90.80000000000001,0.37139032504020086
1306893858.87,7.803712,5.3150625,3032.152328,0.1,7.3,152.8,-1.0,327.53257497893725,71901.63861574297,301.4622503937688,0.07306350613844068,3.684384321929656,89.0,0.371574434838976
1306893859.08,7.8038693,5.3148436,3033.628706,0.1,7.1,153.0,-1.0,318.6497750387761,72202.19082216999,302.5798432467678,0.07507998987966523,3.6380432894508004,90.1,0.3717571666849952
1306893859.73,7.8043705,5.3141466,3039.1077088,0.1,6.5,153.0,-1.0,327.2376673991075,70973.76783095242,300.6289740423048,0.07620517069600655,3.530741505717899,91.2,0.3719431137541116
1306893860.15,7.8046908,5.3137014,3042.651016,0.1,6.2,153.0,-1.0,323.8681191407465,70118.3195158309,301.47545138598315,0.07577115011245614,3.487778355470899,91.30000000000001,0.3721077025555114
1306893860.57,7.8050169,5.3132484,3045.9318559999997,0.1,6.0,153.0,-1.0,329.1348797303643,69030.1558044565,301.7476916910102,0.07295555930833597,3.4987204586622727,90.70000000000002,0.3722752003682848
1306893861.43,7.8056793,5.3123288,3051.2140084,0.1,5.6,153.0,-1.0,326.4786828105861,68174.80600730337,302.4677229986634,0.07377754554548188,3.5140522517057837,91.20000000000002,0.37244805688622
1306893863.96,7.8076273,5.3096251,3059.1208328,0.1,9.1,153.0,-1.0,326.3293468278829,68494.92032808386,303.0045364563512,0.07680698022335863,3.471430430857615,90.70000000000002,0.37260491384160055
1306893864.38,7.8079518,5.3091748,3063.7468172,0.1,14.5,153.0,-1.0,327.37548965814733,69813.78003194825,301.1793777823085,0.075316339421281,3.4168285736513493,88.7,0.3727629190909444
1306893864.8,7.808273,5.3087295,3075.131332,0.1,19.4,153.0,-1.0,324.47941331761206,71154.96015103812,298.4558429133146,0.0729900981092923,3.3917891438336567,89.9,0.3729010205782586
1306893865.01,7.8084328,5.3085085,3084.0552168,0.1,20.7,153.0,-1.0,323.34878460280765,72050.88029254944,299.0883162802451,0.07531482875763956,3.3761645954675465,87.10000000000001,0.3730284812081798
1306893865.23,7.8085971,5.3082817,3095.6365819999996,0.1,22.1,153.1,-1.0,317.7639933811761,72247.76955464204,298.0555501433198,0.07486020452809973,3.3983592210528135,87.6,0.3731766111294397
1306893865.65,7.808913,5.3078473,3124.507974,0.1,24.6,153.1,-1.0,320.74249126460705,69964.95371875638,298.3217990257381,0.07368805061916306,3.396255112826448,84.6,0.3733886627479873
1306893866.08,7.8092295,5.3074152,3161.8439332000003,0.1,25.7,153.1,-1.0,314.8812249481223,67752.47215850952,300.3552346463237,0.0722185837597227,3.4659390141322053,83.99999999999999,0.37367504726242295
1306893866.93,7.8098671,5.3065568,3254.3636211999997,0.1,20.3,153.1,-1.0,320.24749895729815,64364.71211056909,300.95961572606814,0.07357551415482752,3.4313562218571816,84.5,0.3741690433254151
1306893867.36,7.8101985,5.3061173,3303.2809456,0.3,15.2,153.1,-1.0,325.35763602266064,61645.429098007764,300.1628207592236,0.0727996010189446,3.4037959065527557,82.30000000000001,0.37476952451526635
1306893867.78,7.8105297,5.305682,3347.1457764,0.3,10.9,153.1,-1.0,328.3860482865639,60057.77764729523,297.92442642579124,0.0717584068581302,3.390568612433021,83.20000000000002,0.3754600319518368
1306893867.99,7.8107033,5.3054553,3367.290134,0.3,9.0,153.1,-1.0,340.0153170369609,59748.03961169961,298.60714428163027,0.07146083757319681,3.4381076245344904,83.9,0.3761790936316268
1306893868.2,7.8108716,5.3052362,3384.7442028,0.4,7.3,153.1,-1.0,328.3277494956616,62643.2005615764,299.1825568404833,0.07390058137308374,3.476004991783948,83.60000000000001,0.3769280875073923
1306893868.62,7.8112179,5.3047876,3414.0092956,0.4,4.8,153.1,-1.0,334.10284664638874,65356.80271647035,300.17938194043325,0.07544293435588693,3.537397083158916,83.0,0.3777188027304895
1306893869.26,7.8117491,5.3041037,3442.8150708,0.4,3.1,153.1,-1.0,332.9145972264628,68945.89929340052,298.6688134014516,0.07221572432150934,3.610136162261716,84.7,0.37855590902970204
1306893869.68,7.8121063,5.3036457,3453.7074596,0.8,6.6,153.1,-1.0,338.3472653301725,71644.95688681217,300.27131423239837,0.07132871097564412,3.6765972224781156,86.70000000000002,0.3793914077173662
1306893870.12,7.8124702,5.3031797,3462.8281948,0.9,9.7,153.1,-1.0,329.43402294777053,72880.68110719981,298.88690745999907,0.07115575335974093,3.6935221037667034,89.20000000000002,0.38018082154063826
1306893870.76,7.81301,5.3024893,3478.9043107999996,1.1,10.0,153.1,-1.0,335.2771937543138,72159.07564800307,299.2035626209589,0.07426453887374651,3.753804825726175,87.9,0.3809206290646977
1306893871.18,7.8133723,5.3020263,3491.1090355999995,1.2,8.7,153.1,-1.0,342.1476477274027,72502.56090106252,298.5835796495654,0.07428706802838274,3.869670744651168,88.30000000000001,0.38147303501395413
1306893871.6,7.8137277,5.3015728,3502.7232092000004,1.3,8.7,153.1,-1.0,335.7520079038503,72948.29624056368,296.941206688607,0.07715245090879085,3.9183600502593072,90.30000000000001,0.38193840028079573
1306893872.44,7.8144378,5.300668,3523.8846271999996,1.5,7.2,153.1,-1.0,335.1519274901201,72503.89833563095,296.8851711749794,0.07707121711756088,3.882487604017905,88.70000000000002,0.3823507909194659
1306893872.87,7.8148,5.3002069,3533.2678296000004,1.6,8.1,153.4,-1.0,333.6106088576277,73874.81959459657,296.7192353477039,0.07506739082590025,3.829634065097512,91.30000000000001,0.3827380721968062
1306893873.29,7.8151573,5.2997522,3542.322948,1.7,8.6,153.4,-1.0,336.624529305572,73910.85267397475,296.1643675321498,0.0744886842179198,3.793745848944266,90.8,0.3831057559238404
1306893873.93,7.8157043,5.2990562,3556.7258355999998,1.8,8.6,153.4,-1.0,337.989751243222,73624.59837260272,297.2092663938513,0.07303308791331264,3.679128436537573,90.80000000000001,0.3834387611731842
1306893874.14,7.8158812,5.2988311,3561.5158619999997,1.8,8.3,153.4,-1.0,333.8906713975108,73128.8766218978,296.5701749680569,0.07507042388066154,3.646915970608501,88.80000000000001,0.38371572967712125
1306893874.56,7.8162378,5.2983775,3570.8662560000002,1.9,7.2,153.6,-1.0,335.89915784162747,72913.43323899417,296.22590133468555,0.07422523445932741,3.5449336880480136,88.2,0.38398910019330673
1306893874.78,7.8164261,5.2981381,3575.4266236,1.9,6.7,153.6,-1.0,338.15109049468305,72342.86064553139,295.00519421417675,0.07369092938707361,3.65313761740059,85.7,0.38425182985209927
1306893875.42,7.8169736,5.2974417,3586.4502460000003,2.0,6.7,153.7,-1.0,338.13073514999644,72305.8596207888,295.0640456345772,0.07130168346906512,3.532932093489054,88.5,0.3845027703595359
1306893875.64,7.8171588,5.2972061,3589.4358104,2.0,6.8,153.7,-1.0,333.2825224933137,72633.28658336384,296.4670581745684,0.07186113412265156,3.442804744166094,88.6,0.38473219949339416
1306893876.08,7.8175333,5.2967291,3595.3413223999996,2.1,7.8,153.7,-1.0,336.81021895573605,72412.07697615167,296.9709831943966,0.07052166905266109,3.4185297573899893,89.10000000000002,0.3849483084172787
1306893876.5,7.8178981,5.2962641,3601.54211,2.1,7.7,153.7,-1.0,343.3976598673713,72894.87790360152,298.3864597349016,0.07242542586020759,3.3697148229588394,87.9,0.3851295092046803
1306893876.71,7.8180726,5.2960413,3604.6589080000003,2.1,7.4,153.7,-1.0,330.0711799954205,73382.62005458138,298.35451062432327,0.07345228916453878,3.310312355644462,86.2,0.3852960883822831
1306893877.36,7.8186286,5.2953311,3614.009302,2.1,6.4,153.7,-1.0,338.9693193801868,71927.51202523184,299.85109216594356,0.07409935330797097,3.4053226670089267,87.8,0.3854633565362638
1306893878.0,7.8191685,5.2946402,3621.22715,2.1,5.8,153.7,-1.0,335.13587733662956,71666.5563088363,299.99407719007127,0.07443262267745954,3.432596386901188,86.89999999999999,0.38561385959838096
1306893878.21,7.8193524,5.2944046,3623.1628456,2.1,5.7,153.7,-1.0,347.3201150589971,71032.25335319711,302.14578869237073,0.07240358863193996,3.443314663094635,89.39999999999999,0.3857577025555114
1306893878.84,7.8198836,5.293723,3627.3951292,2.1,5.4,153.7,-1.0,335.53922786063856,71517.14673576735,300.59920589991185,0.07551741902066719,3.4802181365127796,91.1,0.3858896032554239
1306893880.12,7.8209707,5.2923216,3631.3649456,2.1,5.4,153.7,-1.0,338.90246886208257,72944.08244661968,302.52889919859325,0.07670289225713706,3.4848333647861898,93.00000000000001,0.3860201260025805
1306893880.54,7.8213259,5.2918616,3631.9226884,2.1,5.6,154.4,-1.0,338.4733802559395,75970.34229228494,302.46695379661776,0.07733907748008412,3.519379000400941,92.0,0.3861262283647852
1306893880.75,7.8215015,5.2916337,3632.1523472,2.1,5.6,154.4,-1.0,335.9971749850755,78244.72909192108,301.54667667950133,0.07521142995024915,3.624189205936572,93.39999999999999,0.38622590028079573
1306893881.39,7.8220451,5.2909265,3632.7428984,2.1,5.6,154.4,-1.0,341.0857488179756,78630.82331145885,303.2645885930878,0.07590720084595165,3.5939092104809305,92.70000000000002,0.38631317062200304
1306893882.03,7.8225802,5.2902276,3633.3990664000003,2.1,5.8,154.4,-1.0,337.11522031727134,78623.62871614358,302.81884280679816,0.07471129959107192,3.700069868940727,92.5,0.3863875035178911
1306893883.5,7.8238073,5.288615,3635.5316123999996,2.0,5.8,154.4,-1.0,338.1128147579324,77021.55121522436,301.4565056313948,0.07449160494124184,3.8282061045750853,93.10000000000001,0.38645953982585257
1306893883.71,7.8239839,5.2883819,3635.8925048,2.0,5.8,154.9,-1.0,341.6807576384094,75738.52054167826,301.40621666166703,0.07390713731980485,3.828785345797229,91.10000000000001,0.38651060063075193
1306893884.56,7.8246895,5.2874477,3637.5001164,2.0,5.8,154.9,-1.0,338.08290321691385,75256.36977229545,299.27006312301813,0.07370906777041322,3.8247435275442196,91.5,0.3865485708844703
1306893885.4,7.8253855,5.2865225,3639.2061532000002,2.0,5.8,154.9,-1.0,338.55656547097635,76665.11401648964,298.64352012641916,0.07522731905357928,3.8154214959091046,90.2,0.3865860052676724
1306893886.24,7.8260794,5.2855965,3640.91219,2.0,5.8,154.9,-1.0,338.6122089833973,77401.04279183691,299.16251461030845,0.07265450776434701,3.8099582226485174,87.9,0.38661754507519647
1306893886.66,7.8264273,5.2851309,3641.7652084,1.6,5.8,155.3,-1.0,340.1998480373274,78429.67339411294,299.72667535522794,0.07052612815398039,3.8111260066988697,86.60000000000001,0.3866418123542866
1306893887.09,7.8267806,5.2846574,3642.6182268,1.6,5.8,155.3,-1.0,337.81995497855587,79003.07622970393,299.0155144617389,0.06973238343670342,3.819386096395714,86.3,0.3866667686097547
1306893887.94,7.8274782,5.2837198,3644.3242636,1.6,5.8,155.3,-1.0,338.26930813034636,78424.11175089961,298.6865197275055,0.0719578271860056,3.755402432064622,85.5,0.3866951697471125
1306893888.58,7.8280022,5.2830136,3645.5709828000004,1.6,5.8,155.5,-1.0,338.25181018868733,78264.11152238808,297.7657928204317,0.06971251140955637,3.8598096371689463,86.3,0.386725101943088
1306893890.06,7.8292155,5.2813722,3648.458122,1.2,5.8,155.5,-1.0,339.505147179955,77849.71629947139,299.4703441375715,0.06968966418894752,3.7572116947587535,85.5,0.3867602397383635
1306893893.25,7.8318069,5.2778414,3654.691718,0.9,5.8,155.5,-1.0,338.4121626932967,77310.2710211151,300.3079861002879,0.06788819348568093,3.747065558242375,84.89999999999999,0.38680494664999954
1306893894.1,7.8325011,5.2768908,3656.3649464,0.9,5.8,155.5,-1.0,341.3801993911577,77382.965293897,300.3841186103034,0.06731374880683895,3.7639038555580706,85.6,0.386852715678871
1306893894.94,7.8331774,5.2759631,3658.0053664,0.9,5.8,156.0,-1.0,337.25456113299373,77709.92973576562,301.5171924556676,0.06847807268537329,3.809789079993708,86.19999999999999,0.38690056126067324
1306893895.78,7.833856,5.2750305,3659.6457864,0.9,5.8,156.0,-1.0,338.86355031752794,77895.18762871402,300.34907327116866,0.068567103953484,3.8493816811130195,86.0,0.3869482537366137
1306893897.92,7.8355789,5.2726562,3663.8452616,0.9,5.8,156.0,-1.0,338.3927950501322,78111.45401052851,301.1124661882027,0.06910942341309986,3.931036797581543,85.80000000000001,0.38700176423530147
1306893899.18,7.8365918,5.2712565,3666.3058916,0.9,5.8,156.2,-1.0,338.61767379006653,78448.27129428535,300.2406606204752,0.07010993301968833,3.9208730108983723,87.4,0.3870590258276024
1306893899.39,7.8367622,5.2710207,3666.6995924,0.5,5.8,156.2,-1.0,341.7010775227006,78419.69593823006,298.55818559394436,0.06920904571572677,3.861675479436146,89.00000000000001,0.387115215678871
1306893900.24,7.8374458,5.2700742,3668.3728207999998,0.5,5.8,156.2,-1.0,339.3478225543272,78950.2719026076,297.0864745372188,0.06628145820012127,3.8705951891692245,88.30000000000001,0.38717132897720874
1306893901.52,7.8384732,5.2686499,3670.8662592000005,0.4,5.8,156.2,-1.0,338.9699308702894,79503.06970585369,297.08318020368233,0.06882221128927606,3.8105593205255235,85.9,0.3872303512869199
1306893904.27,7.8406766,5.2655905,3676.2468368,0.3,5.8,156.2,-1.0,338.74874315832744,80054.08037647574,297.24898036367523,0.06837324644119706,3.882922792466572,87.9,0.3872951916193784
1306893908.1,7.8437461,5.2613211,3683.7599603999997,0.3,5.8,156.2,-1.0,339.30041581751743,80584.58023014579,297.9202067044184,0.07026567236927633,3.814598145787939,86.0,0.3873630175161413
1306893908.95,7.8444306,5.2603681,3685.4331887999997,0.2,5.8,156.2,-1.0,341.04837893499075,80726.7477742962,296.26679130542493,0.07119288860825647,3.696063414660829,88.60000000000002,0.3874308434129042
1306893911.07,7.8461223,5.2580111,3689.5670471999997,0.2,5.8,156.5,-1.0,338.37828364903646,80283.99021752142,297.1133279926902,0.07234211930116301,3.629296708275393,86.3,0.38750448733241427
1306893914.46,7.8488359,5.2542274,3696.1943439999995,0.2,5.8,156.5,-1.0,339.5346754516419,79916.89155900876,298.5076763634472,0.07187846317731285,3.5707231793152236,85.4,0.3875897672974187
1306893918.5,7.8520678,5.2497186,3704.1011684,0.2,5.8,156.6,-1.0,339.49416870847364,79564.69094070501,297.2324492637573,0.07263116420024479,3.53496476787493,87.80000000000001,0.3876836977436129
1306893930.64,7.8617829,5.2361591,3727.85445,0.1,5.8,156.6,-1.0,339.72382544409004,79216.664408722,297.85845695297814,0.0734541602901039,3.5223814823843043,87.8,0.3878273110419505
1306893942.08,7.8709484,5.2233575,3750.2625872,0.1,5.8,156.6,-1.0,340.28697525012717,79328.30254739417,300.34990156546206,0.07645589323624785,3.5765020471853495,84.4,0.3880222913569112
1306893951.24,7.8783038,5.2130918,3768.2087819999997,0.1,5.8,156.6,-1.0,340.8326808982191,79308.91521095461,302.68150157080794,0.07630821170902982,3.555865777062298,86.20000000000002,0.3882552419255901
1306893954.0,7.8805176,5.2100014,3773.5893596,0.1,5.8,157.0,-1.0,340.5413507601099,79359.11534793177,302.8215316844947,0.07457549578923917,3.4978517088842485,86.3,0.38849492915218675
1306893962.06,7.886993,5.2009558,3789.4030084,0.1,5.8,157.1,-1.0,341.24700621432874,79387.40699498908,301.09694967569004,0.07407153940606309,3.5313860886425137,86.20000000000002,0.3887589602108044
1306893968.46,7.8921328,5.1937713,3801.9358171999997,0.1,5.8,157.1,-1.0,341.2888716871755,79455.48998905922,299.9138639307042,0.07505751231198392,3.516509595222593,88.40000000000002,0.38903470386784733
1306893971.0,7.8941687,5.1909247,3806.8898855999996,0.1,5.8,157.2,-1.0,340.7329274188258,79665.9124093125,302.0524250029019,0.0736731691445847,3.618953283345118,87.00000000000001,0.3893181028179786
1306893977.81,7.8996468,5.1832636,3820.2429044,0.1,5.8,157.2,-1.0,341.95620388544626,79762.63574094449,302.24732391778934,0.07271016620898396,3.6675161903351983,89.10000000000002,0.3896230131416881
1306893979.98,7.9013859,5.1808312,3824.4751880000003,0.1,5.8,157.3,-1.0,340.8077738748981,79888.78819567655,301.07067964541693,0.07324727141972939,3.6737627951001195,89.70000000000002,0.38992233510144314
1306894006.99,7.9231273,5.1504029,3877.3951371999997,0.1,5.8,157.3,-1.0,342.38232765524924,79955.41016042487,301.45627841292696,0.07261897294267594,3.6998709586742304,88.4,0.3903266876823706
1306894017.37,7.9314989,5.1386785,3897.7691535999998,0.1,5.8,157.7,-1.0,343.2105196531792,80005.4486437056,301.0751595452271,0.0735709565604707,3.6073701624658785,88.5,0.3907231553114169
1306894036.47,7.9469017,5.1170861,3936.5814907999998,0.1,10.6,157.9,-1.0,343.446177050403,80110.72787146378,300.78713874878054,0.07332815756928925,3.6898986593339083,89.2,0.3911578994059052
1306894036.69,7.9470779,5.1168391,3939.140546,0.1,13.5,157.9,-1.0,341.45448134784,80259.8316520447,299.8956628428338,0.07605958141927283,3.663152291925111,89.30000000000001,0.3915567401758089
1306894037.55,7.9477622,5.115885,3968.2087884,0.1,21.6,157.9,-1.0,338.6335531607977,80054.68397100994,298.6594359952544,0.07599957807737509,3.7121079370780987,89.4,0.39201085216181064
1306894037.77,7.9479363,5.115644,3981.29934,0.3,22.9,157.9,-1.0,336.92152124860735,79565.00141511307,298.2422276749897,0.07643143009748771,3.6135730275286813,87.5,0.392458610254549
1306894038.2,7.9482764,5.1151764,4013.3859552,0.4,25.2,157.9,-1.0,336.4132264938253,78087.90784307198,299.58249356851275,0.0741830715589344,3.6259106820763662,88.60000000000001,0.392951993894094
1306894039.04,7.9489386,5.1142778,4098.064435599999,0.7,26.6,157.9,-1.0,335.46261198658476,75954.23867353846,299.03062077716703,0.07472554613373185,3.617244784336472,88.9,0.3936314011556864
1306894039.48,7.9492872,5.113811,4151.5093192,0.8,26.2,157.9,-1.0,337.0619184110494,73393.26865849031,297.7683609832051,0.07277330820574428,3.6260580761350143,89.6,0.3944043560988185
1306894039.69,7.9494579,5.1135839,4179.1011836,0.8,25.8,158.1,-1.0,344.95961414429433,70587.52046859574,297.70621501458055,0.07223688549071562,3.5932640440417294,90.60000000000001,0.39523181672873975
1306894039.9,7.9496208,5.1133681,4206.0696884,0.9,24.8,158.1,-1.0,329.718457473419,69226.46022722533,297.31742892138885,0.07144127364135304,3.5149415808074194,89.6,0.39599872399033204
1306894040.11,7.9497911,5.1131432,4234.547379600001,0.9,23.3,158.1,-1.0,343.29387633058053,66498.6189835173,297.8157365491956,0.07194916270826016,3.6335086216689723,88.5,0.3967845398258526
1306894040.32,7.9499618,5.1129184,4262.9922624,0.9,21.0,158.1,-1.0,343.24075356467114,66098.8200727084,295.4280627459758,0.0726158131771246,3.5862294252125118,89.00000000000001,0.3975461649352139
1306894040.75,7.9503151,5.1124552,4319.4555187999995,0.9,16.3,158.1,-1.0,344.5567091904736,66417.89659582922,296.7611708184887,0.07271694289867542,3.5910157668168448,88.80000000000001,0.39843356651001716
1306894042.05,7.9514257,5.1110108,4450.2626096,0.9,4.9,158.1,-1.0,350.07492063156036,66680.71545254832,298.046769844891,0.0728157933093769,3.57390159058415,91.50000000000001,0.39955835872349044
1306894042.48,7.9517986,5.1105283,4474.8361012000005,0.9,3.1,158.1,-1.0,348.809975093607,68690.1391376829,298.5510997903202,0.07244536692574668,3.582450954772742,91.80000000000001,0.40070994446277297
1306894042.69,7.9519847,5.1102877,4483.759986,1.0,2.6,158.0,-1.0,354.8468523595009,72125.71822893173,298.24346936754966,0.07400098284805173,3.5726569615368446,90.70000000000002,0.4018074838328517
1306894042.9,7.9521732,5.1100442,4490.813792,1.0,2.3,158.0,-1.0,358.458885420076,75402.28611922145,297.55668578119906,0.07597229488871786,3.5036188322693733,88.7,0.40272389896845967
1306894043.33,7.9525467,5.1095616,4499.7376767999995,1.1,2.9,158.0,-1.0,347.18289381621213,79543.00934030909,299.2524402902574,0.07600214446694727,3.5172152265032577,86.4,0.40353643177685866
1306894043.96,7.9531118,5.1088312,4505.9384644,1.3,8.3,158.0,-1.0,357.61459435094577,83477.7997429252,300.29435569286835,0.07579098788669669,3.532955972466444,84.7,0.4042990520743215
1306894044.17,7.9532936,5.1085958,4508.0053935999995,1.3,10.6,158.0,-1.0,346.60770980333353,85089.99060892318,302.03558269918926,0.07775628831190612,3.623985084879589,85.80000000000001,0.40500356869724363
1306894044.38,7.9534813,5.1083529,4511.0237664,1.4,12.2,158.0,-1.0,356.99181226891716,84956.40240914855,299.8103817963351,0.0763072045386277,3.58482591290893,88.20000000000002,0.40564868024580014
1306894044.59,7.9536659,5.1081138,4515.0591996,1.4,12.9,158.2,-1.0,351.33904209506403,84180.35938003639,300.9102463736616,0.07401620722579812,3.593660419118508,89.5,0.40623683641377917
1306894046.08,7.9549676,5.106426,4560.7941092,1.4,7.6,158.4,-1.0,350.33558076599803,82470.79017061555,300.8307843204745,0.07116778880180981,3.6002697500764285,88.6,0.4067999597733592
1306894046.29,7.9551501,5.106189,4566.7980464,1.4,7.0,158.4,-1.0,348.92883440236426,80833.89523882541,300.8984556447408,0.07273305477635766,3.5907002141298427,86.8,0.40707187578385784
1306894047.58,7.9562875,5.1047109,4591.207496,1.8,5.0,158.4,-1.0,353.50818405055657,79875.3277120358,299.69169595850184,0.07307929150835343,3.6596446663713253,87.5,0.4073434090297022
1306894047.8,7.9564789,5.1044619,4593.2744252,1.8,4.9,158.4,-1.0,349.2114918856393,80042.09418890932,299.9540235074299,0.07090821285480323,3.682233705178243,85.50000000000001,0.40759894271299174
1306894049.53,7.9580031,5.1024736,4597.5723256,1.8,5.4,158.4,-1.0,353.96268379923725,79442.95098339398,299.69996871979447,0.070021160390195,3.68646089644719,85.50000000000001,0.40784804595008717
1306894049.95,7.9583776,5.1019827,4597.1786248,1.8,5.5,158.4,-1.0,359.34998529521675,78945.84279252483,298.9038620655554,0.07255577198576225,3.5900375064897987,87.80000000000001,0.4080754081548114
1306894050.16,7.9585537,5.1017515,4596.948966,1.8,5.6,158.8,-1.0,339.51126460208815,80157.61520183839,297.42303098542095,0.0726843954282419,3.535882720108964,89.20000000000002,0.40828776598508265
1306894050.37,7.9587374,5.10151,4596.752115599999,1.8,5.7,158.8,-1.0,353.60313485256677,77203.5298505929,296.1004981406925,0.07225460921444403,3.426540860929341,87.30000000000001,0.40849484166312294
1306894051.21,7.959474,5.1005386,4596.2599896,1.8,5.9,158.8,-1.0,355.2462018869727,78053.07112946156,296.9423824426093,0.0736544201808175,3.42938793836884,86.7,0.4086937261775587
1306894051.85,7.9600344,5.0997987,4597.5723256,-17.9,9.2,158.6,-1.0,355.0928908372498,78882.19742037919,297.90273625532757,0.07484624890971417,3.465722778402614,86.60000000000001,0.4088862567987311
1306894052.48,7.9606081,5.0990721,4603.7074964,-34.6,10.4,156.7,-1.0,357.425068292837,78928.68316029377,295.69750152732405,0.07551608808287977,3.5078976991432826,86.0,0.40898638803232684
1306894052.69,7.9608021,5.0988384,4606.5946355999995,-33.4,10.5,156.0,-1.0,349.8583357246846,80697.88231439752,296.30295701943675,0.07388620892821264,3.5855343083280227,85.0,0.4090792467374886
1306894053.33,7.9614397,5.0981068,4618.1431924,-31.3,10.1,154.0,-1.0,363.37934452463753,81128.06781670844,297.14142187997993,0.07631885638915914,3.536058314233856,84.2,0.40914209669374413
1306894053.98,7.9621286,5.0973632,4633.038206,-24.9,9.6,152.3,-1.0,370.0541032849083,78962.80583841118,295.1945415930193,0.07703505156136557,3.6051058584911577,86.9,0.40923487884597504
1306894054.2,7.9623755,5.0971051,4638.8124844,-21.6,9.4,151.9,-1.0,382.1208707356766,76413.7232244306,296.45055805133603,0.0770572956809447,3.6444185024700633,88.60000000000001,0.40933110588009575
1306894054.83,7.9630866,5.096376,4656.3649784,-13.9,8.8,151.1,-1.0,379.9031816140096,75369.85617846638,296.7128399548097,0.07424776741120243,3.6853455416256096,88.20000000000002,0.4094692073674098
1306894055.47,7.9638507,5.0956058,4676.2140604,-6.8,8.3,150.6,-1.0,396.14338443049405,73955.94220534162,297.35067225665045,0.07556620452851921,3.781195388654993,87.4,0.4096541592484248
1306894055.68,7.9640976,5.0953582,4682.775740399999,-4.6,8.2,150.5,-1.0,389.39295058235876,78034.32129398429,298.80161160805187,0.07634674680277223,3.8068018422401977,87.4,0.4098548810332017
1306894056.1,7.964609,5.0948455,4696.4568432,-1.3,8.0,150.4,-1.0,402.433379172733,82132.61097701294,298.62607474116896,0.07702013280575998,3.723360943710251,88.0,0.41008867368412033
1306894056.31,7.9648722,5.0945814,4703.576266,0.0,7.9,150.4,-1.0,413.6403175485535,87570.58486627368,298.0286636629924,0.07527104000077664,3.6514410230504613,88.69999999999999,0.4103360162038054
1306894056.94,7.9656637,5.0937842,4725.1970016,3.3,7.7,150.4,-1.0,415.5874509153896,94923.21477299457,300.3368184461883,0.07635705126931919,3.660557340655563,88.00000000000001,0.4106194917068675
1306894057.15,7.9659282,5.0935164,4732.5132748,4.0,7.7,150.4,-1.0,418.0260338039764,100510.602466828,298.20713025935316,0.07852117286063633,3.672542257186188,88.3,0.4109133018555989
1306894057.58,7.9664749,5.09296,4747.7035639999995,5.2,7.5,150.7,-1.0,423.2574054966404,107191.02947213728,298.29379417210146,0.07630675318028947,3.653170973695294,89.9,0.4112156093796584
1306894057.8,7.9667612,5.0926671,4755.7088136,5.6,7.5,150.7,-1.0,433.95004142245625,114325.41539043344,300.32922881897383,0.07854029589841532,3.5915428977616823,89.1,0.4115018407882324
1306894058.45,7.9676224,5.0917787,4779.9870296,6.3,7.5,150.7,-1.0,443.83303709931124,121412.72571545179,300.6268023886973,0.07607645048728284,3.6374529448365003,87.0,0.4118312480498246
1306894058.66,7.9678929,5.0914975,4787.6970036,6.3,7.2,151.0,-1.0,434.3305795893125,127613.94867412215,299.8918079345575,0.07843690753752897,3.730606469456933,87.9,0.41213768943215184
1306894059.08,7.9684542,5.0909103,4803.7731196,6.3,7.1,151.2,-1.0,451.54543015767473,133118.44027756734,301.12261341072445,0.07773616526779524,3.6448713833984923,88.49999999999999,0.4124353272274274
1306894059.29,7.9687439,5.0906055,4812.1392616,6.2,7.1,151.2,-1.0,466.97968677186884,138495.3918258083,299.3467306265438,0.07545806615123168,3.7271250425359557,90.0,0.41273717543390154
1306894059.93,7.969606,5.0896913,4837.2048792000005,5.9,6.9,151.2,-1.0,458.96144902701707,145563.97929253205,299.32498225644633,0.07452574293373883,3.835552138930977,89.5,0.4130655875073924
1306894060.14,7.9699007,5.0893766,4845.8334884,5.7,6.9,151.5,-1.0,479.76592763844224,151908.18766154876,298.70426987754644,0.07453677591432693,3.8536410916067263,88.10000000000001,0.41339752101570393
1306894060.58,7.9705129,5.088719,4863.8781084,5.4,6.9,151.5,-1.0,477.2767109338917,161950.05026847447,297.6937048951484,0.07404831778907923,3.784361711322323,87.30000000000001,0.41372111025454905
1306894060.79,7.9707999,5.0884092,4872.4082923999995,5.2,6.7,151.7,-1.0,470.91158010793316,172858.92356431583,299.49967644500447,0.07463071299479063,3.7111044927980834,89.30000000000001,0.41404753195183697
1306894061.42,7.9717029,5.0874281,4899.343988799999,4.7,6.7,151.9,-1.0,494.742038779436,179566.30046612784,298.66192446632664,0.07406268437738633,3.7195566587706996,88.1,0.4144013595983811
1306894062.05,7.9725977,5.0864472,4926.3124935999995,4.3,6.3,152.0,-1.0,493.4843358941095,187080.5469549701,296.86541472165675,0.0709717592769976,3.7142597310762597,89.50000000000001,0.414799434838976
1306894062.26,7.9729133,5.0860992,4935.8925464,4.2,6.3,152.0,-1.0,522.6350727709727,192688.51524623396,296.357256285052,0.0735632701729298,3.6686360597109435,92.10000000000001,0.4151632143665351
1306894062.89,7.9738398,5.0850723,4964.1733871999995,3.9,6.3,152.2,-1.0,513.9127932863105,199831.7030161671,297.1580095178833,0.07320155194626976,3.661285699479143,89.80000000000001,0.4155749925817582
1306894063.53,7.9747938,5.0840067,4993.5369052,3.7,6.3,152.3,-1.0,523.4082074200996,209324.75382437897,296.78127501364816,0.0727285385388384,3.734950827904346,89.60000000000001,0.4160177747339891
1306894063.75,7.9751281,5.0836314,5003.8715512,3.6,6.3,152.3,-1.0,534.716553856751,222521.72850268733,295.9882192383949,0.07527683192943839,3.6385431622194044,91.4,0.4164651500620731
1306894065.25,7.9774432,5.0810066,5076.3781152,3.6,5.8,152.3,-1.0,546.5607343237007,237030.6662010675,295.580130493312,0.07399384626744875,3.603667370682962,91.00000000000001,0.4170232209282148
1306894066.73,7.979823,5.0782637,5152.2967528,3.7,5.8,152.8,-1.0,574.9845398808484,251026.39003381078,294.6939589643935,0.07717639021096855,3.599269948696819,91.30000000000001,0.4177383018555989
1306894067.59,7.9812559,5.0765911,5198.6878304,3.7,5.4,152.8,-1.0,600.2470896087789,263375.77145284624,293.030911578687,0.07615435141199071,3.6898817031773383,92.30000000000001,0.4185195245152665
1306894067.81,7.981628,5.0761543,5210.8269384,3.9,5.4,152.8,-1.0,611.3528207784577,279933.5702423841,292.1655730446051,0.07547174991963336,3.791909072841988,90.3,0.4193091679973312
1306894068.45,7.9827154,5.0748716,5246.4896692,4.0,5.3,152.8,-1.0,616.0942919545943,302128.85008519044,293.3595972448598,0.07586952504988216,3.820089168984606,93.5,0.42011917455901093
1306894069.31,7.9842058,5.0730993,5295.8335028,4.2,5.2,153.2,-1.0,631.6103290315252,325914.6015896845,295.34218837239126,0.07852020574930381,3.789781937520843,91.6,0.42098139021955333
1306894069.96,7.9853562,5.0717204,5334.2521392,4.2,5.2,153.3,-1.0,648.0843180809654,357500.99186454347,296.1365006999059,0.07552660823437252,3.793566793004418,89.7,0.42191089590634256
1306894070.38,7.9860973,5.0708269,5359.2193316,4.4,5.2,153.3,-1.0,648.873535265048,388121.1870531908,295.3611321878082,0.0759268534777594,3.786921754410342,88.99999999999999,0.42283266974711253
1306894071.24,7.9876545,5.0689372,5412.040855599999,4.6,5.2,153.5,-1.0,668.3805109352041,413589.8537545527,295.97577571907055,0.07689791583933751,3.7537599886391675,88.29999999999998,0.4238091789334642
1306894071.67,7.9884489,5.0679666,5439.2062108,4.7,5.2,153.5,-1.0,684.8070777433628,438413.33369238063,295.8209209912669,0.07424432983045068,3.7670998341856543,84.49999999999999,0.4248249597733592
1306894072.09,7.9892277,5.0670109,5465.9778651999995,4.8,5.2,153.5,-1.0,689.6459475938254,464244.61553208355,297.70017813238877,0.07291633749918222,3.7304369704889084,85.2,0.4257340258276024
1306894072.94,7.990826,5.0650369,5521.3256360000005,5.0,5.2,153.8,-1.0,702.065493298691,488945.84883804695,298.0904895347948,0.07197039723985851,3.7670470199856783,85.50000000000001,0.42659509319418154
1306894073.58,7.9920313,5.063537,5563.4844299999995,5.1,5.2,153.9,-1.0,707.0143662463024,515679.6855543406,300.3379653653981,0.07341824179024778,3.7457228197420465,87.70000000000002,0.4274462852326767
1306894073.8,7.9924607,5.0630004,5578.5762939999995,5.1,5.2,153.9,-1.0,733.7137053147321,544895.990655607,301.7913591495052,0.07396160556867484,3.6142373288685397,90.30000000000001,0.42830436703495145
1306894074.44,7.9936858,5.0614627,5621.8505736,5.3,4.9,153.9,-1.0,722.8143579682643,578897.7538736966,303.0581328879402,0.07447993621660426,3.6562044503141387,89.3,0.4291802091171912
1306894075.3,7.9953561,5.0593507,5681.3978196,5.5,4.9,154.2,-1.0,736.8877053583008,608668.2333368495,301.4383182900147,0.07405208508422689,3.723696667353465,87.60000000000001,0.4300798591609357
1306894075.93,7.9965775,5.0577953,5725.295458799999,5.5,4.8,154.3,-1.0,739.4356419227853,639175.0062472641,300.892016197674,0.07471046598987156,3.714203144898833,90.50000000000001,0.4309922935441378
1306894076.56,7.9978226,5.0561999,5770.4398172,5.5,4.8,154.4,-1.0,756.8424239490355,667193.6239933709,301.831822515138,0.07312132714723629,3.694562361488721,90.80000000000001,0.4319518079798334
1306894076.78,7.9982499,5.0556502,5785.9909988,5.8,4.8,154.4,-1.0,746.2998679075808,689234.3575370196,300.4695432156032,0.07412972009638982,3.7047673164722563,93.0,0.43282435828604515
1306894078.05,8.0007851,5.0523656,5879.1340464,6.1,4.8,154.7,-1.0,770.411678254904,702036.96960213,300.5811165332245,0.07736179073852907,3.711806270921091,95.50000000000001,0.43385085653626376
1306894078.26,8.0012011,5.0518228,5894.5539944,6.1,4.8,154.7,-1.0,768.8216201388532,717219.0796293409,301.2019766057831,0.07821782054087674,3.7265571804764677,93.80000000000001,0.4348508674723968
1306894078.68,8.0020447,5.0507189,5925.9516332,6.1,4.7,154.8,-1.0,780.8162598226867,731838.5514371047,303.09606676260995,0.07775205008233681,3.7072186050941065,93.10000000000001,0.43579499476898476
1306894079.1,8.0028841,5.0496161,5957.3164636,6.3,4.7,154.9,-1.0,779.2637044882756,746080.7018719023,302.677742500874,0.07549239792275547,3.7365594949379375,93.5,0.43671393615131193
1306894079.31,8.0033145,5.049049,5973.4910048,6.3,4.7,154.9,-1.0,800.6430024314463,769107.0626833878,301.4758809273618,0.07454728249314306,3.8215354455583266,90.30000000000001,0.43763540378035837
1306894079.94,8.0045735,5.0473836,6020.9647596,6.5,4.7,154.9,-1.0,783.2648060606389,800171.934712346,300.3200243563559,0.0756046002147582,3.821712346486066,88.40000000000002,0.4385666701845578
1306894080.57,8.0058532,5.0456808,6069.554,6.5,4.9,154.9,-1.0,799.3623586500005,826765.3308450403,301.1528228812794,0.07576117214569726,3.8276706125354547,89.9,0.43947236790984207
1306894080.99,8.0067041,5.0445429,6102.0671244000005,6.7,4.9,154.9,-1.0,800.3629961064129,852136.4555948526,300.59566808682234,0.07593100341278852,3.867166896331664,87.4,0.4403515017681098
