timestamp,longitude,latitude,altitude,roll,pitch,yaw,heading,air_speed,engine_0,temperature_in,humidity_in,pressure_in,heart_rate,oxygen_mask
1306893618.37,7.626053,5.5101195,-3.28084,-1.0,-0.3,-1.0,-1.0,60.839759165093234,138011.93269614957,299.373547438837,0.07678739498693252,3.3981061476769443,87.70000000000002,0.2712514900660077
1306893621.8,7.6270983,5.51051,-3.28084,-1.0,-0.4,-1.0,-1.0,60.839759165093234,103507.87169343393,299.270104062384,0.07438915753844591,3.295763866311248,88.20000000000002,0.2679391978525344
1306893623.52,7.6278048,5.5107738,-3.28084,-1.0,-0.5,-1.0,-1.0,82.33182032401709,69005.22765600235,299.06583212009514,0.0736526027468388,3.2752521337583214,85.20000000000002,0.2646273649566464
1306893624.6,7.6283082,5.5109619,-3.28084,-1.0,-0.6,-1.0,-1.0,93.53357413026268,34503.479321040875,298.1039241964555,0.07368924046387289,3.2525670764913865,87.80000000000001,0.2613155320607584
1306893625.46,7.6287452,5.5111251,-3.28084,-1.0,-0.7,-1.0,-1.0,102.25956836420433,289.49600030768914,299.3040695398307,0.07338063818847818,3.215875214449433,90.2,0.25800369916487037
1306893626.33,7.6292199,5.5113024,1416.0761608,-1.0,-0.8,-1.0,-1.0,1117.775151502903,289.4960003076892,299.3040695398307,0.07338063818847818,3.2158752144494334,90.2,0.2580036991648704
1306893627.4,7.6298394,5.5115338,1416.0761608,-1.0,-0.9,-1.0,-1.0,116.62868742463681,34503.47932104086,298.1039241964555,0.07368924046387289,3.252567076491387,87.8,0.2613155320607584
1306893628.7,7.6306608,5.5118405,1416.0761608,-1.0,-1.0,-1.0,-1.0,127.32004470314911,69005.22765600235,299.06583212009514,0.0736526027468388,3.2752521337583214,85.19999999999999,0.2646273649566465
1306893630.01,7.6315608,5.5121767,1416.0761608,-1.0,-1.1,-1.0,-1.0,138.6865859847437,103507.87169343393,299.270104062384,0.0743891575384459,3.295763866311248,88.2,0.2679391978525345
1306893630.65,7.6320233,5.5123494,1416.2730112,-1.0,0.8,-1.0,-1.0,145.96080095593868,138011.93269614957,299.373547438837,0.0767873949869325,3.3981061476769443,87.7,0.2712514900660078
1306893630.87,7.6321843,5.5124095,1416.4042448,-1.0,2.5,-1.0,-1.0,148.149797268568,138018.55886654145,299.8322033103758,0.07701225872348134,3.4128088661886893,86.60000000000001,0.2745640884912046
1306893631.1,7.6323579,5.5124744,1416.5354783999999,-1.0,3.9,-1.0,-1.0,152.07374019586112,103535.66180495011,298.9457416078881,0.07632847744833443,3.4983827165848274,86.9,0.27787699312812497
1306893631.32,7.6325276,5.5125377,1416.6339036000002,-1.0,4.9,-1.0,-1.0,155.79829167275173,69071.85966984382,298.5195565064435,0.07706849509538541,3.5595938042207247,87.7,0.28119012742383803
1306893631.74,7.6328502,5.5126582,1416.7651372,-1.0,6.4,-1.0,-1.0,155.31918992283553,34668.914406710916,297.9828759005529,0.07639653678703077,3.58901386469112,84.7,0.28450356793127457
1306893632.16,7.6331888,5.5127846,1416.830754,-1.0,7.4,-1.0,-1.0,162.950955363447,3771.875853779939,296.49675762521287,0.07834112769772289,3.5776883453037023,82.8,0.2878171615445729
1306893632.58,7.6335234,5.5129096,1416.8963708,-1.0,8.0,-1.0,-1.0,161.26286492175805,4086.411366641154,296.25528993694235,0.07568232442112559,3.709989112696241,83.4,0.287819075367845
1306893633.01,7.6338784,5.5130422,1416.9619876,-1.0,8.4,-1.0,-1.0,167.00996080229535,4720.9559257738165,295.7254328562104,0.07800317506118645,3.625159522030751,83.3,0.28782114229697886
1306893634.5,7.6351697,5.5135244,1418.9633,-1.0,9.7,-1.0,-1.0,175.37002213246387,5521.763415093849,295.5066178886774,0.07770597763968405,3.585094845626268,84.0,0.28782787895489664
1306893634.92,7.6355449,5.5136647,1421.1942712,-1.0,9.9,-1.0,-1.0,180.80507929919267,6435.441415625448,294.78384380479497,0.0769765106144905,3.66671700085085,84.00000000000001,0.2878398212121145
1306893635.36,7.6359497,5.5138162,1424.7703867999999,-1.0,10.1,-1.0,-1.0,186.46072015312143,7321.7543059571235,295.80685145301834,0.0766105395222927,3.559613751447123,83.50000000000001,0.2878596484212133
1306893639.24,7.6398505,5.5152964,1519.7835132,0.3,10.1,-1.0,-1.0,205.08989885997,8168.912599692902,293.9940750960216,0.07783584154394614,3.574254429080092,86.60000000000001,0.2881008667064277
1306893640.51,7.6413142,5.5158665,1581.0367959999999,0.3,10.1,-1.0,-1.0,238.148661278838,9157.5048444412,295.41490295081786,0.0811615169697422,3.491769630529599,86.70000000000002,0.28848470310187824
1306893640.95,7.6418431,5.5160751,1606.0696051999998,0.7,10.1,-1.0,-1.0,247.57043717147783,10286.464130304737,295.92996609693563,0.0802489198708773,3.436037653418796,85.5,0.2889267197248004
1306893641.37,7.6423562,5.5162788,1631.6273488,0.7,10.2,63.1,-1.0,252.1000483793817,12028.894580311315,296.5258955327314,0.08219089060879721,3.385314121061347,88.6,0.28942806486915734
1306893641.79,7.6428882,5.5164914,1659.28483,1.0,10.2,63.1,-1.0,262.3922545560899,14612.893705614366,295.5201112394892,0.08014678061452753,3.415756778153366,88.89999999999999,0.28999379102838746
1306893642.22,7.6434345,5.516711,1688.81239,1.2,10.3,63.1,-1.0,263.53012456272444,17775.38849118455,297.6931869059104,0.08234761472216444,3.406784473323109,89.3,0.29062826171955103
1306893642.64,7.6439808,5.516932,1719.1273516,1.4,10.2,63.1,-1.0,270.5708425088767,21547.568711879554,296.9328003875299,0.08260322201224979,3.502713268681005,89.19999999999999,0.29133331421298936
1306893643.06,7.644539,5.5171592,1750.2297148,1.6,10.1,63.1,-1.0,277.2458905911093,25654.043881190133,294.9655535405881,0.08182702768500424,3.6209150674447064,89.99999999999999,0.2921062691561215
1306893643.48,7.6451043,5.5173906,1781.2664611999999,1.9,9.8,63.1,-1.0,280.67570826607977,29392.57587195852,295.54232903717184,0.07952779029364923,3.546754411337257,86.6,0.29294643757256944
1306893643.9,7.6456854,5.5176298,1812.0735488000003,2.2,9.3,63.1,-1.0,288.71896280410385,32863.0051573984,293.4646655364093,0.07986795540731205,3.636826348666845,86.60000000000001,0.2938501449216508
1306893644.33,7.6462861,5.5178782,1842.0932348000001,2.5,8.7,63.4,-1.0,291.2979504119059,35836.20965054215,294.166391664201,0.07904078216366728,3.605600002422659,86.10000000000002,0.29460220091465167
1306893644.75,7.6468945,5.5181309,1870.1444167999998,2.8,8.3,63.4,-1.0,301.88322567680893,38366.045513595134,292.52798078791085,0.07769732920335232,3.57800883019749,85.00000000000001,0.2952767853415983
1306893645.18,7.6475349,5.5183977,1896.7848376,3.2,7.9,63.5,-1.0,310.05371421395944,40485.198759250685,293.21322245188475,0.07584456484102098,3.6536783004015954,88.5,0.29595512086215825
1306893645.62,7.6481955,5.5186731,1921.0630535999999,3.7,7.7,63.5,-1.0,312.2335245132479,42656.246066798856,292.05652216086764,0.07464505199892323,3.7477068580299675,88.2,0.2966304708184137
1306893646.04,7.6488451,5.5189426,1941.8307708,4.1,7.5,63.6,-1.0,320.8817923520862,45079.24249633704,293.48021468333786,0.07530888229909133,3.7503292045710213,86.89999999999999,0.2972897446591836
1306893646.47,7.649527,5.5192241,1960.7940259999998,4.4,7.6,63.6,-1.0,327.9928652620085,47831.001401475856,294.10340245022115,0.07372603182359731,3.630107038207308,84.9,0.29792436845620895
1306893646.89,7.6502209,5.5195086,1978.1824780000002,4.4,7.9,63.6,-1.0,341.5360655209975,50915.22681417473,294.20842581473124,0.07285705086672083,3.6503480801257395,87.2,0.2985288303984661
1306893647.31,7.6509145,5.5197911,1994.75072,4.7,8.3,63.6,-1.0,340.4711163796493,54281.24462478575,294.18260878076677,0.0756194093043547,3.660194907778744,86.7,0.299099379392342
1306893647.73,7.6516324,5.5200812,2012.0407467999999,4.8,8.7,64.0,-1.0,352.1191098645828,58636.00373028761,294.6151788719731,0.0785836233704659,3.6538507757060295,87.9,0.2996378527081775
1306893648.15,7.6523609,5.5203731,2030.3150256000001,4.8,9.1,64.1,-1.0,357.0564196179166,62763.87575438187,294.7234156322125,0.07899358030433878,3.5533353831683194,89.5,0.3001470828044155
1306893648.58,7.6531318,5.5206794,2050.9187008,4.8,9.4,64.1,-1.0,368.541524541648,67920.22649796726,294.0315832411274,0.07724797031493885,3.5533962168184474,88.3,0.3006343422094898
1306893649.0,7.6538824,5.5209751,2072.4410112,5.5,11.9,64.4,-1.0,366.9192704921186,73320.7357643219,295.430528169446,0.07844327111993292,3.6012390052058225,89.6,0.30110636758131837
1306893649.44,7.6546939,5.5212903,2100.3609596,20.8,14.0,65.0,-1.0,378.7376141750413,79429.00359114341,294.98369879544185,0.08008937150586481,3.5533930215916034,87.19999999999999,0.30158137851745137
1306893649.86,7.6554773,5.5215813,2133.0053176,38.0,15.7,66.5,-1.0,380.6837578208878,85392.25142226164,294.7256551748233,0.07977339571530141,3.502251907672121,84.4,0.3020759104509596
1306893650.29,7.656306,5.5218648,2171.8504632,42.4,15.6,68.4,-1.0,389.28582110515396,91826.64904568692,293.1626983838046,0.08154399856457696,3.496197412302209,84.50000000000001,0.30261262304938485
1306893650.71,7.6571064,5.5221163,2211.3517768,46.0,13.6,69.8,-1.0,380.8630739637437,98079.35452897886,290.4819390706763,0.07992992419190599,3.501763670391177,84.9,0.30319725778254314
1306893651.15,7.6579488,5.5223642,2251.9685759999998,52.0,12.1,71.0,-1.0,379.2714426507109,104573.71186067554,293.02460900188385,0.07885874467082163,3.410114348257538,83.5,0.30383609199076717
1306893651.58,7.6587706,5.5225929,2288.9108343999997,54.4,10.8,72.0,-1.0,375.62516463845725,111671.14669391286,295.37258070520835,0.07755332229292894,3.3253203592018195,82.10000000000001,0.30452246556906987
1306893652.0,7.6595821,5.5228083,2322.01451,55.5,9.7,72.7,-1.0,377.01572639419055,118616.532840945,295.53173443695704,0.07680982979804243,3.391037488834505,84.5,0.30524573766005847
1306893652.43,7.6604156,5.5230199,2352.2966632000002,57.2,9.1,73.5,-1.0,376.090609852151,125311.44431331186,295.13430816192545,0.07713466603997911,3.514276295060897,82.7,0.30599702812375057
1306893652.85,7.6612418,5.5232193,2378.6746168,58.2,8.7,74.4,-1.0,379.2754145832564,130698.30644894077,297.0784906455648,0.07665993926662733,3.5549078512045127,81.8,0.3067617919032781
1306893653.28,7.6620783,5.5234092,2401.8701556,58.6,8.3,75.5,-1.0,372.8764608159827,134798.05458392124,295.5116984318612,0.07565177468930435,3.6138908794965654,79.7,0.3075304598822807
1306893653.72,7.6629485,5.523593,2422.6378728,59.2,8.0,76.7,-1.0,376.8398547918728,138047.06436231302,296.54690473774855,0.07336719950108841,3.5867629493671744,79.60000000000001,0.30828243932235067
1306893654.14,7.6637739,5.5237525,2439.468582,59.5,8.0,78.0,-1.0,372.15866631982203,140626.81770987238,297.15907797258905,0.07353948924914612,3.5694597548527325,82.5,0.3089975202497348
1306893654.56,7.6646051,5.5238973,2454.0027032000003,59.7,7.7,79.4,-1.0,372.79065940742294,142976.68496092182,298.1377417745611,0.07096584828077185,3.519574818815312,83.0,0.309655875455334
1306893654.99,7.6654459,5.524026,2466.4698952,59.9,7.7,81.0,-1.0,366.4740832585398,146074.6011849211,298.88399161806035,0.0708928488226649,3.590608379617545,84.5,0.31025115104588524
1306893655.41,7.6662833,5.5241353,2477.0013916,60.0,7.7,82.7,-1.0,372.376912785444,149304.55126765487,298.01690466871617,0.06934762779138598,3.65432904668268,86.3,0.3107762275988161
1306893655.84,7.6671137,5.524224,2485.8596596,60.1,7.7,84.6,-1.0,359.3305610563934,151823.9183430453,297.6451572524732,0.06875674467626613,3.672352898690173,89.60000000000001,0.3112357748429106
1306893656.26,7.667941,5.5242916,2493.3399748,60.1,7.7,86.5,-1.0,365.6602493731934,155013.74374555357,297.57497817350895,0.06967870822708577,3.624249171316651,89.9,0.31163553424798496
1306893656.68,7.6687652,5.5243374,2499.6391876,60.1,7.9,88.5,-1.0,363.8725848295554,156877.43522861967,298.1731377213333,0.06960389426930597,3.553466614542899,91.9,0.31197933346058343
1306893656.89,7.6691766,5.5243519,2502.4279016,60.1,7.9,89.5,-1.0,363.20708182679107,158167.87583666554,296.3199284156477,0.07004152880588978,3.624101964594619,93.9,0.3122680911158765
1306893657.32,7.6699987,5.5243632,2507.3491616,60.1,8.1,91.8,-1.0,354.9428064388178,160036.259729995,297.2056308413993,0.06854369507771507,3.5982419287233047,97.60000000000001,0.31251420878866737
1306893657.74,7.670809,5.5243505,2511.48302,60.1,8.2,94.1,-1.0,358.87202393424474,161494.68754958134,295.7450930622553,0.07176096926571446,3.702094495784352,96.60000000000001,0.3127215141255003
1306893658.18,7.6716342,5.524312,2515.0591356,60.1,8.4,96.5,-1.0,350.9656255606256,162304.33088675502,296.9540943630026,0.06992795465718603,3.7145453490016775,94.2,0.31289789207825625
1306893658.61,7.6724146,5.5242504,2517.9790832,60.1,8.6,98.9,-1.0,341.9919223127316,163889.06025757606,298.1623718354943,0.07173670821847608,3.6884584634356394,95.00000000000001,0.31304717029347934
1306893659.05,7.6732149,5.5241604,2520.5709468,60.1,8.8,101.5,-1.0,345.60459245413284,165485.6233831731,299.92617759397757,0.0716563143547997,3.7094999421271173,92.5,0.3131734060765065
1306893659.48,7.6739752,5.524048,2522.7363011999996,60.1,9.0,104.1,-1.0,340.1767982555121,164231.82449697368,298.56466110849397,0.07159336716063437,3.616375768678007,92.60000000000001,0.31328012086215823
1306893659.9,7.6747091,5.5239131,2524.5735716,60.1,9.2,106.7,-1.0,340.7975390770089,163352.05378518743,296.88620882005387,0.07354306182976228,3.5882162022196527,89.2,0.31337045332060093
1306893660.33,7.6754339,5.5237524,2526.2468,60.1,9.4,109.3,-1.0,334.4367588202242,160347.25727412,296.6799970065221,0.07381960906491841,3.6465574002982803,88.60000000000001,0.3134472359102772
1306893660.75,7.6761148,5.5235744,2527.6903696,60.1,9.7,112.0,-1.0,328.13826679992616,156005.07754803775,296.4211232533749,0.07324023813616364,3.62152143501552,86.39999999999999,0.31351268866618276
1306893661.17,7.6767791,5.5233736,2529.0027056,60.1,9.9,114.8,-1.0,327.32321400375423,151471.022786799,298.58862223732575,0.07574503415514244,3.5627996831023627,86.69999999999999,0.3135746965401985
1306893661.6,7.6774366,5.5231455,2530.2166164,60.1,10.2,117.7,-1.0,324.9712654944137,147089.7590617587,297.6097136868236,0.07871975117331491,3.481366414722465,84.0,0.31362805393302434
1306893662.03,7.6780696,5.5228954,2531.3649103999996,60.1,10.4,120.5,-1.0,322.31730584978334,141440.6877425182,298.3789700334635,0.07811637676081473,3.3768378214508163,84.70000000000002,0.3136744450091399
1306893662.5,7.6787296,5.5225987,2532.5460128,60.1,10.7,123.8,-1.0,318.68004244332604,135750.70275032945,297.3859508111699,0.08192813527673684,3.475416705819709,84.90000000000002,0.3137152477213009
1306893662.94,7.6793147,5.5223004,2533.5958816,60.1,11.0,126.8,-1.0,314.7142031323522,129402.62072827891,295.65835886443296,0.08085160944456328,3.5199224719602245,83.70000000000002,0.31375168691640143
1306893663.36,7.6798432,5.5219979,2534.5801336,60.1,11.2,129.8,-1.0,311.521857379792,122089.28051538538,293.0549161666136,0.08160060246469648,3.5341757979109873,84.30000000000001,0.31378437501788875
1306893663.79,7.6803567,5.5216691,2535.5315772,60.1,11.4,132.7,-1.0,310.1615315589542,115181.43837592122,295.20527112600405,0.0819264374222218,3.6220085242886615,82.40000000000002,0.3138142306609334
1306893664.22,7.680838,5.5213241,2536.4830208,60.1,11.4,135.9,-1.0,307.61603609419006,107947.44200623629,295.1478630680116,0.08044881228420583,3.618574659795535,85.7,0.3138420193748441
1306893664.65,7.6812957,5.5209567,2537.401656,60.1,11.4,138.9,-1.0,310.5111609033691,101244.76497352519,294.5191277639716,0.07788660186604301,3.5871338934283226,84.0,0.31386804737134455
1306893665.07,7.6817222,5.5205728,2538.3530996,60.1,11.4,141.9,-1.0,316.79787120639065,94983.46043875432,293.97875866314274,0.07566846317548513,3.6497610429183114,87.5,0.3138929270738818
1306893665.49,7.6821135,5.5201776,2539.2717348,60.1,11.3,144.8,-1.0,313.12142809902065,89235.29886194362,292.42571006206583,0.07427189318053598,3.6501648224364467,84.0,0.31391688814124835
1306893665.91,7.6824735,5.5197688,2540.19037,60.1,11.2,147.8,-1.0,312.98444993842133,84983.6085551019,294.5701862184234,0.07403630116443949,3.762634244234465,83.3,0.313940160232237
1306893666.35,7.6828238,5.5193178,2541.174622,60.1,11.1,150.9,-1.0,318.4317857299933,82448.45338777099,294.1794337322827,0.071548187613322,3.786907630591923,83.8,0.3139630495585712
1306893666.77,7.6831252,5.5188741,2542.0932572,60.1,11.1,153.9,-1.0,319.1236936116279,81999.67414807164,295.7042447674999,0.07022455670516957,3.660319266654883,84.30000000000001,0.3139853264614583
1306893667.21,7.6834026,5.5184022,2543.0775092,60.1,11.1,156.9,-1.0,316.3515913962894,83229.85327235893,297.0859349902234,0.07099794626487985,3.6324659062186773,85.00000000000001,0.3140074502584837
1306893667.65,7.6836457,5.5179144,2544.0617611999996,60.1,11.1,160.0,-1.0,319.661029511709,85276.47346502496,297.6597667536634,0.07316068859652364,3.5831893998946645,88.20000000000002,0.314029574055509
1306893705.11,7.6863616,5.4776163,2658.8255443999997,0.8,11.1,160.0,-1.0,293.82460333618184,88599.72499525528,297.1666157023088,0.07402266322248853,3.5634634518041923,87.4,0.3143172599697698
1306893705.97,7.6870303,5.476727,2660.8268568,0.9,11.1,160.0,-1.0,318.9706195288551,91007.90217727933,298.77153751586854,0.0751151559640993,3.6428268838344864,84.10000000000001,0.3146073955778188
1306893706.63,7.6875453,5.4760408,2662.3688516,0.9,11.1,150.6,-1.0,320.54423648376473,88764.578134953,298.02596828554954,0.07594367476915215,3.6815156331196857,85.4,0.31489898569155456
1306893707.48,7.6882099,5.4751537,2664.370164,0.9,11.1,150.6,-1.0,321.421674188921,85654.77948599431,299.8808975136342,0.07767340192378086,3.711841546818767,83.60000000000001,0.3151930254990786
1306893708.12,7.6887064,5.4744895,2665.8793504,1.0,11.1,150.7,-1.0,319.7497226230325,80440.99696401495,301.48045056122834,0.0762527571165156,3.787158892378209,86.7,0.3154884432593586
1306893708.99,7.6893815,5.4735848,2667.9134712,1.0,11.1,150.7,-1.0,320.1214513104056,73162.32701279542,300.3836095872845,0.07462267825975029,3.731448119495638,89.30000000000001,0.3157864638192886
1306893709.63,7.6898821,5.4729127,2669.4226576,1.0,11.1,150.8,-1.0,322.8984557057517,67877.40353115172,299.4379703764964,0.07555826972433768,3.6939603288902143,88.80000000000001,0.31608570922611273
1306893709.84,7.6900393,5.4727014,2669.8819752,0.9,11.1,150.8,-1.0,310.5408657932687,65668.91894241802,299.7146014220835,0.07386100075642081,3.7685185165292854,87.80000000000001,0.3163838828919045
1306893710.48,7.6905382,5.4720299,2671.3911616,0.9,11.1,150.8,-1.0,322.51584141152193,62788.05489801963,298.04074119623914,0.07517011337253791,3.8562121166327246,88.10000000000002,0.31668328140459046
1306893711.11,7.6910243,5.4713747,2672.8675396000003,0.9,11.1,150.9,-1.0,319.8111631936704,63243.360218167676,298.06750226775983,0.07593538149335612,3.821110372168978,85.7,0.31698382821123966
1306893712.18,7.6918452,5.4702658,2675.360978,0.9,11.1,150.9,-1.0,318.61207391310757,64775.88045699114,296.3321616430386,0.07505225769575893,3.775651416635508,88.9,0.317022410888405
1306893712.61,7.6921827,5.4698091,2676.3780384,0.9,11.1,151.0,-1.0,325.8902464490893,63341.25792642906,294.8558815705746,0.07408889848505401,3.6848710095338957,91.70000000000002,0.3170586969776439
1306893713.04,7.6925068,5.46937,2677.3622904,0.8,11.1,151.0,-1.0,314.1216919864641,64173.927314602726,295.4082143376952,0.07277709869647377,3.6776118782518568,89.50000000000001,0.3170936816670576
1306893713.68,7.6930007,5.4687002,2678.8714768,0.8,11.1,151.0,-1.0,321.3671780555842,65454.54275585475,296.0235044790114,0.0725868440490606,3.6423158568960927,89.8,0.3171275180625082
1306893714.32,7.6934979,5.4680248,2680.3806632,0.8,11.1,151.1,-1.0,323.6425595482957,66537.37367911836,294.5833739562437,0.07280632918179482,3.580441198267604,89.1,0.3171613544579588
1306893715.18,7.6941542,5.467132,2682.3819756000003,0.7,11.1,151.1,-1.0,318.6900795385156,68070.81202338265,294.5072118776967,0.0734693176992172,3.6250309931613396,86.3,0.3171951143004785
1306893715.61,7.6944832,5.4666838,2683.3662276,0.7,11.1,151.1,-1.0,319.84487405900296,69058.35578606818,295.51307890842406,0.07274170424531647,3.6455862404709247,85.69999999999999,0.317227649296104
1306893716.24,7.6949653,5.4660265,2684.8426056000003,0.7,11.1,151.2,-1.0,320.0056643810206,68466.85083516763,295.26647133691927,0.07367244242301246,3.6937578902819324,85.59999999999998,0.3172625574325869
1306893717.33,7.6958057,5.4648787,2687.4344692,0.6,11.1,151.2,-1.0,322.6996435369808,69053.69607572973,297.4897368008429,0.07398664854310072,3.663422449258137,84.8,0.31729999181578905
1306893717.54,7.6959618,5.4646653,2687.8937868,0.6,11.1,151.2,-1.0,311.9219003871605,69101.66147078098,298.83632398893485,0.07246267042357067,3.651514973344296,84.80000000000001,0.31733505305813375
1306893719.65,7.6975758,5.4624544,2692.8478551999997,0.5,11.1,151.2,-1.0,321.038073793808,67474.48603918853,299.2016520224488,0.07227098942070836,3.6255878114430944,84.7,0.31737585577029476
1306893720.09,7.69791,5.4619959,2693.8649156,0.5,11.1,151.2,-1.0,319.30473781980703,66792.86160230052,300.91697983382033,0.07345684864051524,3.6657833681731558,85.2,0.3174166584824557
1306893720.74,7.6984033,5.4613184,2695.3741019999998,0.5,11.1,151.4,-1.0,319.33392281153283,65055.62394435369,300.62718075890575,0.07568154615518422,3.6040845792474894,87.90000000000002,0.3174586860415108
1306893722.22,7.6995354,5.4597617,2698.8517924000002,0.4,11.1,151.4,-1.0,321.91488974168175,63494.413774422705,298.49139298642405,0.07406892896610714,3.5524576887038286,86.60000000000001,0.3175053067764189
1306893723.08,7.7001915,5.4588583,2700.8531048,0.4,11.1,151.4,-1.0,321.46019588434143,63605.593675611024,299.1399821637826,0.07700308678422715,3.501841179678716,88.0,0.31755307580529035
1306893723.93,7.7008344,5.4579725,2702.8544172,0.4,11.1,151.5,-1.0,318.9840388126454,64925.74140779151,299.28724604705457,0.07821941876040878,3.5270262744673317,89.5,0.31760084483416173
1306893725.4,7.7019497,5.456434,2706.2664908,0.3,11.1,151.5,-1.0,320.2479670085694,66194.2091914944,298.6551549480759,0.08077681206177782,3.6054496777953156,92.3,0.31765427877991853
1306893726.91,7.7030955,5.4548519,2709.8097980000002,0.3,11.1,151.5,-1.0,320.5073050160676,67667.6976809657,296.35977064258486,0.07978360782297236,3.5076951954048883,92.1,0.317712535560321
1306893728.18,7.7040606,5.453518,2712.762554,0.3,11.1,151.6,-1.0,321.1978490577837,69251.84146918693,296.5300804858075,0.0770518424752228,3.490867714527761,95.0,0.31777163442296313
1306893730.09,7.7055156,5.4515053,2717.2573048,0.2,11.1,151.6,-1.0,322.08934309000256,69158.65287056199,294.9557754562144,0.07504167873374638,3.5487947825109654,94.8,0.31784014929610405
1306893732.4,7.7072689,5.4490778,2722.6378824,0.2,11.1,151.6,-1.0,321.21937421767893,69368.95014508243,294.4943381906652,0.07641819482588383,3.673312947840398,94.6,0.31790965935734633
1306893734.08,7.7085408,5.4473156,2726.5748903999997,0.2,11.1,151.7,-1.0,320.68345404365573,69563.66546054893,294.46572991068666,0.07475881083099321,3.742173260709013,92.80000000000001,0.31798598262943734
1306893740.5,7.713409,5.4405646,2741.5683292,0.1,11.1,151.7,-1.0,321.337516696121,69693.89717909133,296.3355090685615,0.07373671783822877,3.7845223894708733,92.30000000000001,0.3180937691561214
1306893742.41,7.7148604,5.4385507,2746.06308,0.1,11.1,151.8,-1.0,322.0640998507508,69901.52025523556,297.0005092242297,0.07311334042116541,3.750113482233449,93.7,0.31820392882366305
1306893762.1,7.7298001,5.417808,2792.0276484,0.1,11.1,151.8,-1.0,321.82412336585435,70079.8710744076,296.7887379462107,0.07011557830225805,3.7388106476769805,91.70000000000002,0.3184166694185887
1306893763.37,7.7307721,5.416458,2795.0132128,0.1,11.1,152.0,-1.0,324.5318168633576,70087.41400755694,295.23293265520465,0.06663646784132984,3.621311272000113,92.30000000000003,0.3186317066014408
1306893773.08,7.7381494,5.4062079,2817.6838172000002,0.1,5.8,152.0,-1.0,322.4108892846006,70279.74238395636,297.00461185627205,0.06478586878074538,3.5802216462310357,90.50000000000001,0.31889168035472165
1306893773.5,7.7384648,5.4057695,2818.6680692,0.1,5.8,152.0,-1.0,319.1938198925047,70495.00666050153,297.90805322398546,0.06714937129724506,3.6638390336999835,94.30000000000001,0.31914568297939355
1306893774.35,7.7391132,5.4048684,2820.7349983999998,0.1,5.8,152.1,-1.0,323.62110250319387,70381.60279700649,297.73332022583145,0.06953766348569906,3.605464327633942,94.4,0.31939761867493166
1306893796.19,7.7557303,5.3817712,2871.8504856,0.1,5.8,152.1,-1.0,322.965547922268,70481.41062818581,299.0272239538075,0.07200225095348596,3.597727412191474,94.30000000000001,0.3197583360852553
1306893806.87,7.7638698,5.370455,2896.7520612,0.1,5.8,152.1,-1.0,323.53966284630525,70433.77854320798,300.55184568843464,0.07438354808064233,3.5041411224865295,92.40000000000002,0.32016460248945483
1306893816.26,7.7710383,5.3604868,2918.6680724,0.1,5.8,152.5,-1.0,324.10926900023793,70230.91789545494,300.7274903639775,0.07412786817982274,3.3898136278733304,91.60000000000001,0.3206128198997785
1306893823.04,7.7762193,5.3532804,2934.4817212,0.1,5.9,152.5,-1.0,324.48143288047834,70377.7082842339,301.48138227585395,0.07241683967051823,3.318412509932863,89.4,0.3210629511333743
1306893823.47,7.7765488,5.3528221,2935.8268656,0.1,7.3,152.5,-1.0,325.323013384002,70716.61029266211,302.74014415655455,0.07278390666800348,3.392793430973113,91.10000000000001,0.3215057332856053
1306893823.89,7.7768719,5.3523726,2938.2546872000003,0.1,7.0,152.5,-1.0,326.57191078969885,70974.60445586525,302.3818568794848,0.075088661970427,3.4469741538399843,92.70000000000002,0.3218469296985537
1306893824.31,7.7771951,5.3519233,2941.4042936,0.1,6.7,152.5,-1.0,326.5883265312479,71521.41618980179,305.12497321472404,0.07683940901098615,3.517839285131161,92.10000000000001,0.32218850887615647
1306893824.73,7.77751,5.3514856,2944.6523251999997,0.1,6.3,152.5,-1.0,318.613231077479,72111.00848452919,303.18083594787225,0.07624108112956861,3.5672070979795336,94.50000000000001,0.3224847687186761
1306893825.15,7.7778312,5.3510393,2947.8675484,0.1,6.1,152.5,-1.0,324.6114397787865,71607.65334156167,303.25155720027425,0.07421469027268472,3.450110671608566,90.6,0.32278623416049584
1306893825.99,7.7784776,5.3501417,2953.248126,0.1,5.7,152.5,-1.0,326.2247194835838,71552.9355222901,303.71404569186046,0.07278672678244388,3.438053979904502,89.0,0.3230954314483349
1306893826.41,7.7788028,5.3496904,2955.3150551999997,0.1,5.6,152.5,-1.0,327.7914674905881,71329.06955511526,301.89872301362567,0.07257009333929605,3.4402573057323527,87.89999999999999,0.32329018210450294
1306893827.67,7.7797688,5.3483499,2959.4161052,0.1,5.6,152.5,-1.0,324.97213315408106,71108.31638826885,302.83313710032775,0.06983560883043019,3.4760496568027106,89.29999999999998,0.32343639820249065
1306893833.59,7.784308,5.3420477,2972.112956,0.1,5.7,152.5,-1.0,325.08520365072604,71470.8313166589,302.31727989550336,0.0720394465730488,3.500592111265244,91.8,0.3235611029269002
1306893834.45,7.7849702,5.3411279,2974.1470768,0.1,5.7,152.7,-1.0,326.44741422489983,72178.81834734071,301.6832243643637,0.0733537146942585,3.5488297815444887,94.30000000000001,0.32365365542033847
1306893835.73,7.7859476,5.3397698,2977.1326412,0.1,5.7,152.7,-1.0,324.0294544472538,72587.28563662924,299.8913118499237,0.0747515389768929,3.6065557504077757,92.30000000000001,0.323750035560321
1306893842.08,7.7908217,5.332995,2991.8964211999996,0.1,5.7,152.8,-1.0,325.6892558462979,72721.1088043859,299.28111798585354,0.07239828584922098,3.5521057928731894,90.10000000000001,0.3238751996023157
1306893843.85,7.7921836,5.3311015,2996.0302796,0.1,5.7,152.8,-1.0,326.4974801242327,72789.23732323927,298.96257189946516,0.07329601789640794,3.5515188361416743,89.70000000000002,0.32400266023223695
1306893852.43,7.7987639,5.3219477,3015.9449784,0.1,5.7,152.8,-1.0,325.64559799873547,72253.96793629217,299.77765360746776,0.07608168989472802,3.532081647468116,87.00000000000001,0.3241690097510471
1306893858.24,7.8032261,5.3157388,3029.4292308,0.1,6.1,152.8,-1.0,326.1367989545991,72018.63458835354,299.09584455270004,0.07588596009268421,3.649578940495591,88.5,0.32435932033722387
1306893858.87,7.803712,5.3150625,3032.152328,0.1,7.3,152.8,-1.0,327.53257497893725,71901.63861574297,296.34644130545973,0.07617771102243065,3.7744752483504604,88.7,0.324543430135999
1306893859.08,7.8038693,5.3148436,3033.628706,0.1,7.1,153.0,-1.0,318.6497750387761,72202.19082216999,296.9552881224454,0.07372438624075486,3.745231644902238,92.5,0.3247261619820182
1306893859.73,7.8043705,5.3141466,3039.1077088,0.1,6.5,153.0,-1.0,327.2376673991075,70973.76783095242,294.93264932486846,0.0747565910373808,3.742467141063845,91.7,0.3249121090511346
1306893860.15,7.8046908,5.3137014,3042.651016,0.1,6.2,153.0,-1.0,323.8681191407465,70118.3195158309,293.98549147808785,0.07378924850244634,3.7782887725340597,89.0,0.3250766978525344
1306893860.57,7.8050169,5.3132484,3045.9318559999997,0.1,6.0,153.0,-1.0,329.1348797303643,69030.1558044565,292.49837020017304,0.07357220609759968,3.8367288072572854,86.0,0.3252441956653078
1306893861.43,7.8056793,5.3123288,3051.2140084,0.1,5.6,153.0,-1.0,326.4786828105861,68174.80600730337,292.02683419357714,0.07348651326045862,3.8361155896602606,86.89999999999999,0.325417052183243
1306893863.96,7.8076273,5.3096251,3059.1208328,0.1,9.1,153.0,-1.0,326.3293468278829,68494.92032808386,293.48510543416205,0.07461560019585671,3.9074405585873935,86.89999999999999,0.3255739091386236
1306893864.38,7.8079518,5.3091748,3063.7468172,0.1,14.5,153.0,-1.0,327.37548965814733,69813.78003194825,293.95776636488057,0.07327244808823949,3.9116382833206624,89.4,0.3257319143879675
1306893864.8,7.808273,5.3087295,3075.131332,0.1,19.4,153.0,-1.0,324.47941331761206,71154.96015103812,293.02719934595547,0.07186303379845206,3.841643508507134,89.7,0.3258700158752816
1306893865.01,7.8084328,5.3085085,3084.0552168,0.1,20.7,153.0,-1.0,323.34878460280765,72050.88029254944,292.78560782078597,0.0724025635554437,3.806381452928331,91.60000000000001,0.32599747650520283
1306893865.23,7.8085971,5.3082817,3095.6365819999996,0.1,22.1,153.1,-1.0,317.7639933811761,72247.76955464204,294.29360201201257,0.07393902344869838,3.7214315886393665,89.30000000000001,0.3261456064264627
1306893865.65,7.808913,5.3078473,3124.507974,0.1,24.6,153.1,-1.0,320.74249126460705,69964.95371875638,296.57438663161594,0.07602913183042823,3.73519907541903,87.5,0.3263576580450103
1306893866.08,7.8092295,5.3074152,3161.8439332000003,0.1,25.7,153.1,-1.0,314.8812249481223,67752.47215850952,297.5742064494347,0.07642498283387959,3.6517221852746533,87.0,0.32664404255944596
1306893866.93,7.8098671,5.3065568,3254.3636211999997,0.1,20.3,153.1,-1.0,320.24749895729815,64364.71211056909,298.8506735000486,0.07482920569788329,3.698572343696051,86.99999999999999,0.3271380386224381
1306893867.36,7.8101985,5.3061173,3303.2809456,0.3,15.2,153.1,-1.0,325.35763602266064,61645.429098007764,300.40404151446756,0.07518493646660407,3.7028567203582257,87.7,0.32773851981228935
1306893867.78,7.8105297,5.305682,3347.1457764,0.3,10.9,153.1,-1.0,328.3860482865639,60057.77764729523,300.56772232689025,0.07346248850582719,3.5956954205489207,88.30000000000001,0.3284290272488598
1306893867.99,7.8107033,5.3054553,3367.290134,0.3,9.0,153.1,-1.0,340.0153170369609,59748.03961169961,299.9945309096161,0.07452743669600106,3.554417599307186,88.50000000000001,0.32914808892864983
1306893868.2,7.8108716,5.3052362,3384.7442028,0.4,7.3,153.1,-1.0,328.3277494956616,62643.2005615764,297.4789635521757,0.07342955020829206,3.6122193029440846,87.50000000000001,0.3298970828044153
1306893868.62,7.8112179,5.3047876,3414.0092956,0.4,4.8,153.1,-1.0,334.10284664638874,65356.80271647035,299.25695241814356,0.07479193244343273,3.6737744931466394,90.1,0.3306877980275125
1306893869.26,7.8117491,5.3041037,3442.8150708,0.4,3.1,153.1,-1.0,332.9145972264628,68945.89929340052,299.6790346838279,0.07461410736488185,3.6606124711229784,88.4,0.3315249043267251
1306893869.68,7.8121063,5.3036457,3453.7074596,0.8,6.6,153.1,-1.0,338.3472653301725,71644.95688681217,300.723630544453,0.0721103884718087,3.6389985161486305,91.9,0.3323604030143892
1306893870.12,7.8124702,5.3031797,3462.8281948,0.9,9.7,153.1,-1.0,329.43402294777053,72880.68110719981,300.061646213019,0.07109047489641936,3.6523099236918797,91.30000000000001,0.33314981683766126
1306893870.76,7.81301,5.3024893,3478.9043107999996,1.1,10.0,153.1,-1.0,335.2771937543138,72159.07564800307,298.64143685782216,0.06905321717020596,3.6983243460989565,90.0,0.3338896243617208
1306893871.18,7.8133723,5.3020263,3491.1090355999995,1.2,8.7,153.1,-1.0,342.1476477274027,72502.56090106252,296.36990016604886,0.07070743862157268,3.601856615341117,92.60000000000001,0.33444203031097713
1306893871.6,7.8137277,5.3015728,3502.7232092000004,1.3,8.7,153.1,-1.0,335.7520079038503,72948.29624056368,295.92542730626855,0.07232254085953073,3.5162611489695985,94.9,0.33490739557781873
1306893872.44,7.8144378,5.300668,3523.8846271999996,1.5,7.2,153.1,-1.0,335.1519274901201,72503.89833563095,297.0613112183717,0.07414648636638752,3.5802873737938286,92.30000000000001,0.3353197862164889
1306893872.87,7.8148,5.3002069,3533.2678296000004,1.6,8.1,153.4,-1.0,333.6106088576277,73874.81959459657,296.49980720357746,0.07450996787859446,3.58331189421594,92.6,0.3357070674938292
1306893873.29,7.8151573,5.2997522,3542.322948,1.7,8.6,153.4,-1.0,336.624529305572,73910.85267397475,297.75830780164233,0.07435637806564482,3.4609559358032365,93.60000000000001,0.33607475122086344
1306893873.93,7.8157043,5.2990562,3556.7258355999998,1.8,8.6,153.4,-1.0,337.989751243222,73624.59837260272,296.1248178003008,0.07314339502174005,3.430705234658425,90.9,0.33640775647020726
1306893874.14,7.8158812,5.2988311,3561.5158619999997,1.8,8.3,153.4,-1.0,333.8906713975108,73128.8766218978,297.30599953709014,0.07426516963606021,3.436357546883252,89.4,0.3366847249741442
1306893874.56,7.8162378,5.2983775,3570.8662560000002,1.9,7.2,153.6,-1.0,335.89915784162747,72913.43323899417,296.9087595332864,0.07479428343926832,3.4274715470979316,86.9,0.33695809549032973
1306893874.78,7.8164261,5.2981381,3575.4266236,1.9,6.7,153.6,-1.0,338.15109049468305,72342.86064553139,296.9965785457897,0.07739810715689881,3.4233652747351258,86.30000000000001,0.3372208251491223
1306893875.42,7.8169736,5.2974417,3586.4502460000003,2.0,6.7,153.7,-1.0,338.13073514999644,72305.8596207888,296.60021162901586,0.07745259326329403,3.499278139047139,86.00000000000001,0.3374717656565589
1306893875.64,7.8171588,5.2972061,3589.4358104,2.0,6.8,153.7,-1.0,333.2825224933137,72633.28658336384,296.9669600812381,0.07621390782163333,3.546926257978443,83.80000000000001,0.33770119479041716
1306893876.08,7.8175333,5.2967291,3595.3413223999996,2.1,7.8,153.7,-1.0,336.81021895573605,72412.07697615167,297.64387997915844,0.07624386052953412,3.6232453559735065,80.60000000000001,0.3379173037143017
1306893876.5,7.8178981,5.2962641,3601.54211,2.1,7.7,153.7,-1.0,343.3976598673713,72894.87790360152,297.81216458956743,0.07721027483898689,3.603264274192944,81.60000000000001,0.3380985045017033
1306893876.71,7.8180726,5.2960413,3604.6589080000003,2.1,7.4,153.7,-1.0,330.0711799954205,73382.62005458138,297.64759450742946,0.07606077513828581,3.6931362770091165,80.8,0.3382650836793061
1306893877.36,7.8186286,5.2953311,3614.009302,2.1,6.4,153.7,-1.0,338.9693193801868,71927.51202523184,297.7253577914136,0.07952277869702834,3.810841472147372,80.9,0.33843235183328674
1306893878.0,7.8191685,5.2946402,3621.22715,2.1,5.8,153.7,-1.0,335.13587733662956,71666.5563088363,297.1949807360765,0.07893369260412625,3.8181324228084668,83.5,0.338582854895404
1306893878.21,7.8193524,5.2944046,3623.1628456,2.1,5.7,153.7,-1.0,347.3201150589971,71032.25335319711,296.23479417142477,0.0800061433402301,3.868166892278496,83.70000000000002,0.33872669785253445
1306893878.84,7.8198836,5.293723,3627.3951292,2.1,5.4,153.7,-1.0,335.53922786063856,71517.14673576735,295.41241368450954,0.07840480409150415,3.8853894213213684,84.10000000000002,0.3388585985524469
1306893880.12,7.8209707,5.2923216,3631.3649456,2.1,5.4,153.7,-1.0,338.90246886208257,72944.08244661968,295.8281259271374,0.07819191090567389,3.834129089158653,86.60000000000001,0.3389891212996035
1306893880.54,7.8213259,5.2918616,3631.9226884,2.1,5.6,154.4,-1.0,338.4733802559395,75970.34229228494,297.8675752883847,0.07851990169895175,3.7602601500422344,89.0,0.3390952236618082
1306893880.75,7.8215015,5.2916337,3632.1523472,2.1,5.6,154.4,-1.0,335.9971749850755,78244.72909192108,298.28311169106877,0.07893589276225908,3.7866496859443175,89.8,0.33919489557781873
1306893881.39,7.8220451,5.2909265,3632.7428984,2.1,5.6,154.4,-1.0,341.0857488179756,78630.82331145885,296.5964910462017,0.07921497573746733,3.7133318848212267,93.3,0.33928216591902605
1306893882.03,7.8225802,5.2902276,3633.3990664000003,2.1,5.8,154.4,-1.0,337.11522031727134,78623.62871614358,294.9994895573839,0.08003061611724391,3.759210037261893,92.8,0.3393564988149141
1306893883.5,7.8238073,5.288615,3635.5316123999996,2.0,5.8,154.4,-1.0,338.1128147579324,77021.55121522436,296.8497683617207,0.07811109258046202,3.7414082308768033,93.5,0.3394285351228756
1306893883.71,7.8239839,5.2883819,3635.8925048,2.0,5.8,154.9,-1.0,341.6807576384094,75738.52054167826,297.20492815157337,0.07615846206609517,3.7371574074863316,91.0,0.339479595927775
1306893884.56,7.8246895,5.2874477,3637.5001164,2.0,5.8,154.9,-1.0,338.08290321691385,75256.36977229545,298.6839959278625,0.07534376068284612,3.7326889687124956,88.10000000000001,0.3395175661814933
1306893885.4,7.8253855,5.2865225,3639.2061532000002,2.0,5.8,154.9,-1.0,338.55656547097635,76665.11401648964,297.928460840207,0.07294505370078302,3.6439187868010645,87.8,0.3395550005646954
1306893886.24,7.8260794,5.2855965,3640.91219,2.0,5.8,154.9,-1.0,338.6122089833973,77401.04279183691,296.60009308730935,0.0739265427042284,3.683846292618519,89.69999999999999,0.33958654037221947
1306893886.66,7.8264273,5.2851309,3641.7652084,1.6,5.8,155.3,-1.0,340.1998480373274,78429.67339411294,294.2473217659319,0.07154587809381079,3.7616532460828442,86.5,0.3396108076513096
1306893887.09,7.8267806,5.2846574,3642.6182268,1.6,5.8,155.3,-1.0,337.81995497855587,79003.07622970393,293.5851922102777,0.07157104696377824,3.7236250525137544,84.60000000000002,0.33963576390677774
1306893887.94,7.8274782,5.2837198,3644.3242636,1.6,5.8,155.3,-1.0,338.26930813034636,78424.11175089961,294.8872126823931,0.07039734055096827,3.7515575572487494,84.00000000000001,0.3396641650441355
1306893888.58,7.8280022,5.2830136,3645.5709828000004,1.6,5.8,155.5,-1.0,338.25181018868733,78264.11152238808,295.1393870321407,0.07066599124653279,3.7115801808964934,83.20000000000002,0.339694097240111
1306893890.06,7.8292155,5.2813722,3648.458122,1.2,5.8,155.5,-1.0,339.505147179955,77849.71629947139,294.9903579822007,0.0676774945110494,3.5956800207489343,83.7,0.33972923503538655
1306893893.25,7.8318069,5.2778414,3654.691718,0.9,5.8,155.5,-1.0,338.4121626932967,77310.2710211151,294.9666135096622,0.07142940945600301,3.552250771079789,85.40000000000002,0.33977394194702254
1306893894.1,7.8325011,5.2768908,3656.3649464,0.9,5.8,155.5,-1.0,341.3801993911577,77382.965293897,295.0961674622777,0.07347836707850146,3.452950936108916,85.00000000000003,0.33982171097589403
1306893894.94,7.8331774,5.2759631,3658.0053664,0.9,5.8,156.0,-1.0,337.25456113299373,77709.92973576562,296.08114453840653,0.07345847849555495,3.4828180519578096,87.80000000000003,0.3398695565576963
1306893895.78,7.833856,5.2750305,3659.6457864,0.9,5.8,156.0,-1.0,338.86355031752794,77895.18762871402,296.7396239821098,0.07472881804448236,3.5827521138962073,90.30000000000001,0.33991724903363674
1306893897.92,7.8355789,5.2726562,3663.8452616,0.9,5.8,156.0,-1.0,338.3927950501322,78111.45401052851,298.05996128528597,0.07627224786366452,3.523568039243763,90.8,0.3399707595323245
1306893899.18,7.8365918,5.2712565,3666.3058916,0.9,5.8,156.2,-1.0,338.61767379006653,78448.27129428535,300.1995386639866,0.07793497647580824,3.5102752537085413,92.4,0.3400280211246254
1306893899.39,7.8367622,5.2710207,3666.6995924,0.5,5.8,156.2,-1.0,341.7010775227006,78419.69593823006,301.49626247917104,0.07976828355152601,3.5070570396207983,93.1,0.340084210975894
1306893900.24,7.8374458,5.2700742,3668.3728207999998,0.5,5.8,156.2,-1.0,339.3478225543272,78950.2719026076,301.7137188639243,0.08176520042028798,3.4096014282516287,93.0,0.3401403242742317
1306893901.52,7.8384732,5.2686499,3670.8662592000005,0.4,5.8,156.2,-1.0,338.9699308702894,79503.06970585369,301.54626458040275,0.0809328319349822,3.4396089230751836,93.8,0.3401993465839429
1306893904.27,7.8406766,5.2655905,3676.2468368,0.3,5.8,156.2,-1.0,338.74874315832744,80054.08037647574,301.9258219282568,0.08355297854248595,3.4686847068148787,93.6,0.34026418691640137
1306893908.1,7.8437461,5.2613211,3683.7599603999997,0.3,5.8,156.2,-1.0,339.30041581751743,80584.58023014579,300.832208258518,0.08129746803095048,3.512155473475411,92.99999999999999,0.3403320128131643
1306893908.95,7.8444306,5.2603681,3685.4331887999997,0.2,5.8,156.2,-1.0,341.04837893499075,80726.7477742962,299.026358928696,0.08103680482154059,3.605362869853606,94.39999999999999,0.3403998387099272
1306893911.07,7.8461223,5.2580111,3689.5670471999997,0.2,5.8,156.5,-1.0,338.37828364903646,80283.99021752142,299.1627523126183,0.08362853261489755,3.646097338716783,92.49999999999999,0.3404734826294373
1306893914.46,7.8488359,5.2542274,3696.1943439999995,0.2,5.8,156.5,-1.0,339.5346754516419,79916.89155900876,298.66228542304424,0.08146699029004018,3.626700101899626,93.1,0.3405587625944417
1306893918.5,7.8520678,5.2497186,3704.1011684,0.2,5.8,156.6,-1.0,339.49416870847364,79564.69094070501,297.67052853344296,0.0803320066330325,3.7242582014644046,93.2,0.3406526930406359
1306893930.64,7.8617829,5.2361591,3727.85445,0.1,5.8,156.6,-1.0,339.72382544409004,79216.664408722,296.85170235775036,0.07876281448649503,3.701294155464068,92.4,0.3407963063389735
1306893942.08,7.8709484,5.2233575,3750.2625872,0.1,5.8,156.6,-1.0,340.28697525012717,79328.30254739417,295.92546875956674,0.07696113735018954,3.8376245067463834,91.7,0.34099128665393424
1306893951.24,7.8783038,5.2130918,3768.2087819999997,0.1,5.8,156.6,-1.0,340.8326808982191,79308.91521095461,296.1532697651621,0.07569561487047508,3.9235576147538738,91.60000000000001,0.3412242372226131
1306893954.0,7.8805176,5.2100014,3773.5893596,0.1,5.8,157.0,-1.0,340.5413507601099,79359.11534793177,297.89682508299984,0.07413925954027828,4.003522718356973,89.80000000000001,0.34146392444920975
1306893962.06,7.886993,5.2009558,3789.4030084,0.1,5.8,157.1,-1.0,341.24700621432874,79387.40699498908,299.54885356817095,0.07437202653335348,4.054728197290113,91.10000000000001,0.3417279555078274
1306893968.46,7.8921328,5.1937713,3801.9358171999997,0.1,5.8,157.1,-1.0,341.2888716871755,79455.48998905922,299.5058065590446,0.07436203749005184,4.039468899263667,91.50000000000001,0.34200369916487033
1306893971.0,7.8941687,5.1909247,3806.8898855999996,0.1,5.8,157.2,-1.0,340.7329274188258,79665.9124093125,299.40588522314454,0.073439881354812,3.9427124595237983,91.60000000000002,0.3422870981150017
1306893977.81,7.8996468,5.1832636,3820.2429044,0.1,5.8,157.2,-1.0,341.95620388544626,79762.63574094449,297.86341637365996,0.07299301496462586,3.946066000106832,90.30000000000001,0.3425920084387111
1306893979.98,7.9013859,5.1808312,3824.4751880000003,0.1,5.8,157.3,-1.0,340.8077738748981,79888.78819567655,298.3167773800521,0.0740752847337252,3.9379391712764953,88.0,0.3428913303984662
1306894006.99,7.9231273,5.1504029,3877.3951371999997,0.1,5.8,157.3,-1.0,342.38232765524924,79955.41016042487,299.4629212871761,0.0755753488067207,3.872681476592529,84.50000000000001,0.3432956829793936
1306894017.37,7.9314989,5.1386785,3897.7691535999998,0.1,5.8,157.7,-1.0,343.2105196531792,80005.4486437056,299.30935044937456,0.07656072905196586,3.822362627305334,85.70000000000002,0.34369215060843994
1306894036.47,7.9469017,5.1170861,3936.5814907999998,0.1,10.6,157.9,-1.0,343.446177050403,80110.72787146378,298.85053999747674,0.07554203513783712,3.693488308993158,87.0,0.3441268947029282
1306894036.69,7.9470779,5.1168391,3939.140546,0.1,13.5,157.9,-1.0,341.45448134784,80259.8316520447,298.8142109994525,0.07481387539660868,3.6928930994438085,86.1,0.3445257354728319
1306894037.55,7.9477622,5.115885,3968.2087884,0.1,21.6,157.9,-1.0,338.6335531607977,80054.68397100994,296.33725554899934,0.0759176284931969,3.659811772650729,87.69999999999999,0.34497984745883364
1306894037.77,7.9479363,5.115644,3981.29934,0.3,22.9,157.9,-1.0,336.92152124860735,79565.00141511307,294.7279281849552,0.07475080423005726,3.637976391542731,85.89999999999999,0.34542760555157204
1306894038.2,7.9482764,5.1151764,4013.3859552,0.4,25.2,157.9,-1.0,336.4132264938253,78087.90784307198,294.88618988833605,0.07376252058867741,3.589367130452806,83.9,0.34592098919111713
1306894039.04,7.9489386,5.1142778,4098.064435599999,0.7,26.6,157.9,-1.0,335.46261198658476,75954.23867353846,295.12886362465,0.07183862392438878,3.661366913064643,84.2,0.3466003964527094
1306894039.48,7.9492872,5.113811,4151.5093192,0.8,26.2,157.9,-1.0,337.0619184110494,73393.26865849031,294.78050923339663,0.07152299377974526,3.596772627923722,86.4,0.3473733513958415
1306894039.69,7.9494579,5.1135839,4179.1011836,0.8,25.8,158.1,-1.0,344.95961414429433,70587.52046859574,294.8110126961365,0.07230152551260399,3.50781708202106,87.3,0.34820081202576275
1306894039.9,7.9496208,5.1133681,4206.0696884,0.9,24.8,158.1,-1.0,329.718457473419,69226.46022722533,293.4419666451948,0.06984178988509505,3.578598574241057,89.90000000000002,0.34896771928735504
1306894040.11,7.9497911,5.1131432,4234.547379600001,0.9,23.3,158.1,-1.0,343.29387633058053,66498.6189835173,292.604911230705,0.07141858253189816,3.6171289829414306,91.2,0.3497535351228756
1306894040.32,7.9499618,5.1129184,4262.9922624,0.9,21.0,158.1,-1.0,343.24075356467114,66098.8200727084,292.1373949549933,0.07227889921424398,3.6268304207773423,92.30000000000001,0.350515160232237
1306894040.75,7.9503151,5.1124552,4319.4555187999995,0.9,16.3,158.1,-1.0,344.5567091904736,66417.89659582922,291.4163206043667,0.07486812955383257,3.609140791753892,95.20000000000002,0.35140256180704016
1306894042.05,7.9514257,5.1110108,4450.2626096,0.9,4.9,158.1,-1.0,350.07492063156036,66680.71545254832,293.06411173295345,0.07608987496394455,3.6192495963638613,94.9,0.35252735402051344
1306894042.48,7.9517986,5.1105283,4474.8361012000005,0.9,3.1,158.1,-1.0,348.809975093607,68690.1391376829,293.77758430261633,0.07538810024739828,3.678878267879977,96.80000000000001,0.353678939759796
1306894042.69,7.9519847,5.1102877,4483.759986,1.0,2.6,158.0,-1.0,354.8468523595009,72125.71822893173,292.5142977938282,0.07723603851196813,3.68202798887531,96.3,0.3547764791298747
1306894042.9,7.9521732,5.1100442,4490.813792,1.0,2.3,158.0,-1.0,358.458885420076,75402.28611922145,294.5017870630997,0.07933439838625857,3.60217681214587,95.9,0.3556928942654828
1306894043.33,7.9525467,5.1095616,4499.7376767999995,1.1,2.9,158.0,-1.0,347.18289381621213,79543.00934030909,295.60649610843114,0.07844351505098664,3.603558584930152,94.30000000000001,0.3565054270738818
1306894043.96,7.9531118,5.1088312,4505.9384644,1.3,8.3,158.0,-1.0,357.61459435094577,83477.7997429252,295.89763941942283,0.07758959939567327,3.6728150667529484,94.5,0.3572680473713445
1306894044.17,7.9532936,5.1085958,4508.0053935999995,1.3,10.6,158.0,-1.0,346.60770980333353,85089.99060892318,297.883473918239,0.08051189092067608,3.6948239820802953,93.10000000000001,0.35797256399426675
1306894044.38,7.9534813,5.1083529,4511.0237664,1.4,12.2,158.0,-1.0,356.99181226891716,84956.40240914855,299.86368027076486,0.07929240878737123,3.693855307530003,90.50000000000001,0.35861767554282314
1306894044.59,7.9536659,5.1081138,4515.0591996,1.4,12.9,158.2,-1.0,351.33904209506403,84180.35938003639,299.4573025824475,0.0795526516541888,3.6877200359922866,91.0,0.3592058317108021
1306894046.08,7.9549676,5.106426,4560.7941092,1.4,7.6,158.4,-1.0,350.33558076599803,82470.79017061555,300.095306806287,0.07814303772508562,3.6951322667690425,90.0,0.35976895507038215
1306894046.29,7.9551501,5.106189,4566.7980464,1.4,7.0,158.4,-1.0,348.92883440236426,80833.89523882541,298.33974457634855,0.07668832921565276,3.649882215667136,88.1,0.36004087108088084
1306894047.58,7.9562875,5.1047109,4591.207496,1.8,5.0,158.4,-1.0,353.50818405055657,79875.3277120358,299.6149227130851,0.07711196288585791,3.545356197854261,86.39999999999999,0.3603124043267251
1306894047.8,7.9564789,5.1044619,4593.2744252,1.8,4.9,158.4,-1.0,349.2114918856393,80042.09418890932,300.3453444140198,0.07850317228979856,3.6121437859519445,88.5,0.36056793801001474
1306894049.53,7.9580031,5.1024736,4597.5723256,1.8,5.4,158.4,-1.0,353.96268379923725,79442.95098339398,300.0414921501751,0.07727747294702093,3.6264759264493,87.5,0.36081704124711
1306894049.95,7.9583776,5.1019827,4597.1786248,1.8,5.5,158.4,-1.0,359.34998529521675,78945.84279252483,299.89644925023987,0.07740203346845248,3.6688335691366287,89.0,0.3610444034518344
1306894050.16,7.9585537,5.1017515,4596.948966,1.8,5.6,158.8,-1.0,339.51126460208815,80157.61520183839,299.8691251583084,0.07705676963652161,3.697034522617005,87.8,0.3612567612821057
1306894050.37,7.9587374,5.10151,4596.752115599999,1.8,5.7,158.8,-1.0,353.60313485256677,77203.5298505929,299.1483400596354,0.07458673029361274,3.701457062513473,87.9,0.361463836960146
1306894051.21,7.959474,5.1005386,4596.2599896,1.8,5.9,158.8,-1.0,355.2462018869727,78053.07112946156,298.3789269236273,0.07301114567444875,3.710682512321708,88.1,0.3616627214745817
1306894051.85,7.9600344,5.0997987,4597.5723256,-17.9,9.2,158.6,-1.0,355.0928908372498,78882.19742037919,300.281273876806,0.0751439128303338,3.808970267857675,86.3,0.3618552520957541
1306894052.48,7.9606081,5.0990721,4603.7074964,-34.6,10.4,156.7,-1.0,357.425068292837,78928.68316029377,299.51465539892513,0.07359023976557111,3.721423305703883,86.2,0.36195538332934973
1306894052.69,7.9608021,5.0988384,4606.5946355999995,-33.4,10.5,156.0,-1.0,349.8583357246846,80697.88231439752,301.5913494145303,0.07505200919752035,3.6948640946442644,86.60000000000002,0.3620482420345117
1306894053.33,7.9614397,5.0981068,4618.1431924,-31.3,10.1,154.0,-1.0,363.37934452463753,81128.06781670844,300.3869387137778,0.07363106714531172,3.806091341238397,87.50000000000001,0.3621110919907671
1306894053.98,7.9621286,5.0973632,4633.038206,-24.9,9.6,152.3,-1.0,370.0541032849083,78962.80583841118,300.53520062504487,0.0714512556885578,3.7573953103059794,86.5,0.3622038741429981
1306894054.2,7.9623755,5.0971051,4638.8124844,-21.6,9.4,151.9,-1.0,382.1208707356766,76413.7232244306,299.45716422694414,0.07091584609624696,3.837574206523188,86.4,0.36230010117711886
1306894054.83,7.9630866,5.096376,4656.3649784,-13.9,8.8,151.1,-1.0,379.9031816140096,75369.85617846638,300.15301857477175,0.06998494162666241,3.7276772207021214,87.60000000000002,0.3624382026644329
1306894055.47,7.9638507,5.0956058,4676.2140604,-6.8,8.3,150.6,-1.0,396.14338443049405,73955.94220534162,301.4861956489808,0.07015679825492611,3.6906972852549544,86.9,0.36262315454544786
1306894055.68,7.9640976,5.0953582,4682.775740399999,-4.6,8.2,150.5,-1.0,389.39295058235876,78034.32129398429,302.21453705154545,0.07036771025500062,3.643273968215615,86.79999999999998,0.3628238763302247
1306894056.1,7.964609,5.0948455,4696.4568432,-1.3,8.0,150.4,-1.0,402.433379172733,82132.61097701294,302.2938087608835,0.0705610945147022,3.734848743818376,87.60000000000001,0.36305766898114333
1306894056.31,7.9648722,5.0945814,4703.576266,0.0,7.9,150.4,-1.0,413.6403175485535,87570.58486627368,300.53446171795144,0.07092603809263145,3.7579437138831993,86.4,0.3633050115008284
1306894056.94,7.9656637,5.0937842,4725.1970016,3.3,7.7,150.4,-1.0,415.5874509153896,94923.21477299457,300.15533748218763,0.07393388737969951,3.827079225930229,88.4,0.3635884870038905
1306894057.15,7.9659282,5.0935164,4732.5132748,4.0,7.7,150.4,-1.0,418.0260338039764,100510.602466828,299.34018759930825,0.07041089947357147,3.8665630595149953,88.30000000000001,0.3638822971526218
1306894057.58,7.9664749,5.09296,4747.7035639999995,5.2,7.5,150.7,-1.0,423.2574054966404,107191.02947213728,299.82071401675944,0.0718385773308664,3.7327889577382525,89.10000000000001,0.3641846046766814
1306894057.8,7.9667612,5.0926671,4755.7088136,5.6,7.5,150.7,-1.0,433.95004142245625,114325.41539043344,299.166391574736,0.07352024194327379,3.71921512595143,88.20000000000002,0.3644708360852553
1306894058.45,7.9676224,5.0917787,4779.9870296,6.3,7.5,150.7,-1.0,443.83303709931124,121412.72571545179,299.93411400117685,0.07600333536420056,3.694599094842395,89.6,0.36480024334684763
1306894058.66,7.9678929,5.0914975,4787.6970036,6.3,7.2,151.0,-1.0,434.3305795893125,127613.94867412215,298.6919520002511,0.07575951856033644,3.7516360465733722,89.3,0.3651066847291748
1306894059.08,7.9684542,5.0909103,4803.7731196,6.3,7.1,151.2,-1.0,451.54543015767473,133118.44027756734,298.75697359497434,0.07857757335398835,3.6774269423330317,90.10000000000001,0.3654043225244504
1306894059.29,7.9687439,5.0906055,4812.1392616,6.2,7.1,151.2,-1.0,466.97968677186884,138495.3918258083,297.9578389577949,0.08092440482098599,3.6674974801135645,91.4,0.36570617073092465
1306894059.93,7.969606,5.0896913,4837.2048792000005,5.9,6.9,151.2,-1.0,458.96144902701707,145563.97929253205,297.73319683863724,0.08022658661191195,3.6395204949093394,90.90000000000002,0.3660345828044154
1306894060.14,7.9699007,5.0893766,4845.8334884,5.7,6.9,151.5,-1.0,479.76592763844224,151908.18766154876,297.3959457697888,0.07884217109456639,3.5885561535842068,92.50000000000003,0.36636651631272693
1306894060.58,7.9705129,5.088719,4863.8781084,5.4,6.9,151.5,-1.0,477.2767109338917,161950.05026847447,297.29169129253734,0.07824533633268191,3.527005449532658,90.50000000000001,0.36669010555157205
1306894060.79,7.9707999,5.0884092,4872.4082923999995,5.2,6.7,151.7,-1.0,470.91158010793316,172858.92356431583,297.66571600199455,0.07993160603354064,3.573720310743785,89.8,0.36701652724885997
1306894061.42,7.9717029,5.0874281,4899.343988799999,4.7,6.7,151.9,-1.0,494.742038779436,179566.30046612784,297.80694591810607,0.07797932852123131,3.5946088459514507,90.60000000000001,0.3673703548954041
1306894062.05,7.9725977,5.0864472,4926.3124935999995,4.3,6.3,152.0,-1.0,493.4843358941095,187080.5469549701,298.8488662014656,0.07630094172523161,3.639964247022307,90.3,0.367768430135999
1306894062.26,7.9729133,5.0860992,4935.8925464,4.2,6.3,152.0,-1.0,522.6350727709727,192688.51524623396,299.04420845064095,0.07396498228280049,3.557068528688482,88.9,0.3681322096635581
1306894062.89,7.9738398,5.0850723,4964.1733871999995,3.9,6.3,152.2,-1.0,513.9127932863105,199831.7030161671,300.1453529775066,0.07381998410115292,3.6235303668452086,86.7,0.3685439878787812
1306894063.53,7.9747938,5.0840067,4993.5369052,3.7,6.3,152.3,-1.0,523.4082074200996,209324.75382437897,299.9552759967709,0.07214272941491584,3.659782771441734,89.7,0.3689867700310121
1306894063.75,7.9751281,5.0836314,5003.8715512,3.6,6.3,152.3,-1.0,534.716553856751,222521.72850268733,300.11805789950887,0.07142002559768983,3.635663858539141,87.9,0.36943414535909613
1306894065.25,7.9774432,5.0810066,5076.3781152,3.6,5.8,152.3,-1.0,546.5607343237007,237030.6662010675,299.44412107986415,0.07294465453549055,3.6343216159031297,88.0,0.36999221622523776
1306894066.73,7.979823,5.0782637,5152.2967528,3.7,5.8,152.8,-1.0,574.9845398808484,251026.39003381078,300.9000920840306,0.07458937537577666,3.611210885488521,88.4,0.37070729715262196
1306894067.59,7.9812559,5.0765911,5198.6878304,3.7,5.4,152.8,-1.0,600.2470896087789,263375.77145284624,302.7267030356188,0.07397332115507456,3.634514050353799,90.1,0.37148851981228953
1306894067.81,7.981628,5.0761543,5210.8269384,3.9,5.4,152.8,-1.0,611.3528207784577,279933.5702423841,302.9660167069055,0.07573082993158436,3.5370836925870415,93.2,0.3722781632943542
1306894068.45,7.9827154,5.0748716,5246.4896692,4.0,5.3,152.8,-1.0,616.0942919545943,302128.85008519044,301.5906745289685,0.07863589130838262,3.5799067804057514,90.49999999999999,0.37308816985603394
1306894069.31,7.9842058,5.0730993,5295.8335028,4.2,5.2,153.2,-1.0,631.6103290315252,325914.6015896845,302.4321092958537,0.07752334335779555,3.5414019282160494,92.8,0.37395038551657644
1306894069.96,7.9853562,5.0717204,5334.2521392,4.2,5.2,153.3,-1.0,648.0843180809654,357500.99186454347,301.84470995234165,0.07676680082183802,3.5971727749565283,92.2,0.37487989120336557
1306894070.38,7.9860973,5.0708269,5359.2193316,4.4,5.2,153.3,-1.0,648.873535265048,388121.1870531908,300.98627082095004,0.07869026282669479,3.599122750371829,92.0,0.3758016650441355
1306894071.24,7.9876545,5.0689372,5412.040855599999,4.6,5.2,153.5,-1.0,668.3805109352041,413589.8537545527,300.2339950663034,0.07807541980320694,3.6942045532689467,89.2,0.37677817423048715
1306894071.67,7.9884489,5.0679666,5439.2062108,4.7,5.2,153.5,-1.0,684.8070777433628,438413.33369238063,298.69775684860065,0.0760642992429426,3.731629951922889,90.3,0.3777939550703822
1306894072.09,7.9892277,5.0670109,5465.9778651999995,4.8,5.2,153.5,-1.0,689.6459475938254,464244.61553208355,299.6554775157399,0.07613826073449582,3.618932251974905,90.39999999999999,0.3787030211246254
1306894072.94,7.990826,5.0650369,5521.3256360000005,5.0,5.2,153.8,-1.0,702.065493298691,488945.84883804695,299.5739062300759,0.0759360496671926,3.697169975625129,89.7,0.3795640884912046
1306894073.58,7.9920313,5.063537,5563.4844299999995,5.1,5.2,153.9,-1.0,707.0143662463024,515679.6855543406,298.29425478278,0.07546960773873894,3.753509699996382,86.30000000000001,0.3804152805296998
1306894073.8,7.9924607,5.0630004,5578.5762939999995,5.1,5.2,153.9,-1.0,733.7137053147321,544895.990655607,298.956724848068,0.07315223733738116,3.842822246851521,86.40000000000002,0.38127336233197445
1306894074.44,7.9936858,5.0614627,5621.8505736,5.3,4.9,153.9,-1.0,722.8143579682643,578897.7538736966,300.992474368523,0.07307046107186548,3.8846268641922537,88.70000000000002,0.3821492044142142
1306894075.3,7.9953561,5.0593507,5681.3978196,5.5,4.9,154.2,-1.0,736.8877053583008,608668.2333368495,300.16821683509625,0.07489806253591053,3.8689431137320303,87.70000000000002,0.3830488544579588
1306894075.93,7.9965775,5.0577953,5725.295458799999,5.5,4.8,154.3,-1.0,739.4356419227853,639175.0062472641,301.52760033136383,0.07718679218912117,3.8346086822817473,90.30000000000001,0.3839612888411608
1306894076.56,7.9978226,5.0561999,5770.4398172,5.5,4.8,154.4,-1.0,756.8424239490355,667193.6239933709,302.07751025515154,0.0781406559625338,3.7155041801519806,89.60000000000001,0.3849208032768564
1306894076.78,7.9982499,5.0556502,5785.9909988,5.8,4.8,154.4,-1.0,746.2998679075808,689234.3575370196,301.9373664219889,0.07751057559298684,3.6778300792341727,89.40000000000002,0.38579335358306804
1306894078.05,8.0007851,5.0523656,5879.1340464,6.1,4.8,154.7,-1.0,770.411678254904,702036.96960213,304.0513071490856,0.07793498597493971,3.6508400849831966,88.3,0.3868198518332868
1306894078.26,8.0012011,5.0518228,5894.5539944,6.1,4.8,154.7,-1.0,768.8216201388532,717219.0796293409,304.85126228653183,0.07729836760783637,3.7931261050682554,88.0,0.3878198627694199
1306894078.68,8.0020447,5.0507189,5925.9516332,6.1,4.7,154.8,-1.0,780.8162598226867,731838.5514371047,305.1056520914963,0.07745939147484146,3.653023684138465,89.39999999999999,0.38876399006600776
1306894079.1,8.0028841,5.0496161,5957.3164636,6.3,4.7,154.9,-1.0,779.2637044882756,746080.7018719023,305.99653762002697,0.07619472691123558,3.590141922801294,92.2,0.38968293144833493
1306894079.31,8.0033145,5.049049,5973.4910048,6.3,4.7,154.9,-1.0,800.6430024314463,769107.0626833878,304.42715125896603,0.0780352757941014,3.5839080162236776,88.39999999999999,0.39060439907738137
1306894079.94,8.0045735,5.0473836,6020.9647596,6.5,4.7,154.9,-1.0,783.2648060606389,800171.934712346,302.2741840238044,0.07771509954927833,3.5860882573066966,88.0,0.39153566548158075
1306894080.57,8.0058532,5.0456808,6069.554,6.5,4.9,154.9,-1.0,799.3623586500005,826765.3308450403,303.29763343552514,0.07911357890645627,3.572593278636771,89.39999999999999,0.39244136320686507
1306894080.99,8.0067041,5.0445429,6102.0671244000005,6.7,4.9,154.9,-1.0,800.3629961064129,852136.4555948526,302.5504342319517,0.07688923563422102,3.6198259933388734,86.4,0.39332049706513283
1306894081.43,8.0075942,5.0433477,6136.286285599999,6.8,4.9,154.9,-1.0,801.664196001017,877643.8489226488,303.4653895896341,0.07637637233381775,3.7305265694748093,88.80000000000001,0.3941741387974163
