timestamp,longitude,latitude,altitude,roll,pitch,yaw,u,v,heading,air_speed,engine_0,temperature_in,humidity_in,pressure_in,heart_rate,oxygen_mask
1306893631.32,3.9486208,5.4467126,104.2979036,-1.0,5.0,-1.0,1518397.9816596,-538659.0723552,-1.0,173.7162389499265,22293.559196760398,294.4351997529417,0.07158759081870558,3.461113323257084,93.19999999999999,0.30623670881552745
1306893631.74,3.9482558,5.4465985,104.4291372,-1.0,6.5,-1.0,1518304.4777196,-538708.8098896,-1.0,173.7162389499265,20012.326231597333,294.1806082003728,0.0713201324778393,3.4981278937155107,95.9,0.3061043487980296
1306893632.16,3.9478735,5.446479,104.5275624,-1.0,7.4,-1.0,1518206.6758792,-538760.8768204,-1.0,181.63961978702787,18072.310684177995,294.1550467159551,0.07094543426229878,3.4737499162151555,95.7,0.3060627040036289
1306893632.58,3.9474962,5.4463611,104.5931792,-1.0,8.0,-1.0,1518110.0879496,-538812.2547748,-1.0,179.37518111975177,17017.03047254621,295.64777521127417,0.07191564085371979,3.362310186883625,95.5,0.30603537460730346
1306893633.01,3.9470966,5.4462362,104.658796,-1.0,8.4,-1.0,1518007.75855,-538866.6839104,-1.0,185.54211955966952,16118.788780692,298.15594716945867,0.07126125968175696,3.2948812884054828,96.60000000000001,0.30601922193888703
1306893634.5,3.9456465,5.445783,108.3661452,-1.0,9.9,-1.0,1517636.4986956,-539064.15767,-1.0,194.17764092080319,16118.788780691995,298.15594716945867,0.07126125968175696,3.2948812884054828,96.60000000000001,0.30601922193888703
1306893634.92,3.9452248,5.4456513,111.58136839999999,-1.0,10.1,-1.0,1517528.4606344,-539121.5067532001,-1.0,200.35871326395906,17017.03047254621,295.64777521127417,0.07191564085371979,3.362310186883625,95.50000000000001,0.30603537460730346
1306893635.36,3.944769,5.445509,116.305778,-1.0,10.3,-1.0,1517411.7611556,-539183.5146292,-1.0,206.62966173210089,18072.310684177995,294.1550467159551,0.0709454342622988,3.473749916215155,95.70000000000002,0.3060627040036289
1306893635.79,3.9443148,5.4453675,122.37533199999999,-1.0,10.4,-1.0,1517295.5209944,-539245.2272296,-1.0,210.60964806224223,20012.32623159733,294.1806082003728,0.0713201324778393,3.4981278937155103,95.90000000000002,0.3061043487980296
1306893637.52,3.9424082,5.4447765,161.1548608,-0.1,10.4,-1.0,1516807.1679604,-539503.0356368,-1.0,219.84500525183086,22293.559196760398,294.4351997529417,0.07158759081870558,3.461113323257084,93.20000000000002,0.30623670881552745
1306893638.8,3.940859,5.4443015,206.8241536,-0.2,10.5,-1.0,1516410.1863204,-539710.647192,-1.0,241.4641103999274,24519.551354929754,296.36487403133003,0.07176805202844207,3.5245644490500396,93.80000000000003,0.3064759367245388
1306893639.66,3.9397457,5.4439638,247.1456772,-0.2,10.5,-1.0,1516124.8516656,-539858.4162255999,-1.0,258.27957916223863,27244.871160437167,296.9206160918925,0.07038659797976057,3.5045947739422614,93.20000000000002,0.30680894197388264
1306893640.09,3.939174,5.443792,270.0459404,-0.4,10.5,-1.0,1515978.2637343998,-539933.7771204,-1.0,265.3478349686431,31101.638492275375,297.57752392735887,0.07249156744746825,3.451073159412133,93.80000000000001,0.3071951515101906
1306893640.51,3.9385951,5.443619,294.5538152,-0.5,10.3,246.7,1515829.8057243999,-540009.695758,-1.0,275.0485522087121,35570.082671376316,296.53200291029856,0.07221105784242342,3.502316389316511,93.6,0.30763839298000684
1306893640.95,3.9379756,5.443435,322.0800628,-0.6,10.3,246.7,1515670.8818348,-540090.5356556,-1.0,280.99108744807046,41707.76504802639,294.0411789374482,0.07254856065008007,3.499557443846546,93.0,0.30814570925297274
1306893641.79,3.9367474,5.4430738,379.46195439999997,-0.9,10.1,246.7,1515355.7243444,-540249.4595452,-1.0,291.62842716816635,48419.68457880652,294.7263970142749,0.07256532399869256,3.5067792468247565,92.9,0.3087782661208643
1306893642.22,3.936102,5.442886,409.8097244,-1.1,9.9,246.7,1515190.0419244,-540332.3007552,-1.0,298.96362101972505,55033.827665466975,297.41602113724275,0.07105920293887191,3.469390399657079,92.39999999999999,0.30947413226259657
1306893642.64,3.9354538,5.4426986,439.5341348,-1.3,9.5,246.7,1515023.5392944,-540414.9779232,-1.0,306.9117462228929,61491.95498664837,297.3236199502475,0.07334932411041162,3.432240825439498,93.19999999999999,0.3102283317376622
1306893643.06,3.9347886,5.4425075,468.6351856,-1.5,8.9,246.7,1514852.7059556001,-540499.4267448,-1.0,314.2175307664696,67524.39760018534,298.289833443175,0.07532397617689064,3.3789917957947693,93.00000000000001,0.3110362713702081
1306893643.48,3.9341121,5.4423143,496.2926668,-1.7,8.5,246.5,1514678.9526692,-540584.8926268,-1.0,318.7792482150313,73077.5661381271,298.8183074920763,0.07483729149090772,3.4147485483585047,95.30000000000001,0.31181825955918446
1306893643.9,3.9334141,5.442116,522.3753448,-2.0,8.1,246.5,1514499.6219547999,-540672.6879052,-1.0,328.11202896250666,78739.22235841803,298.7592155701611,0.07302187305216287,3.3751030363538366,96.20000000000002,0.31255454564842333
1306893644.33,3.9326905,5.4419112,546.7191776,-2.3,7.8,246.5,1514313.6311352002,-540763.3703228,-1.0,331.5624388906319,85153.18152034526,298.6745848310246,0.07281732991339393,3.4269394429427282,93.80000000000001,0.3132535504603218
1306893644.75,3.9319561,5.441704,568.5367636,-2.7,7.6,246.4,1514124.88441,-540855.2010344,-1.0,343.7707417862036,91116.95213959995,298.46458460922344,0.07118535804613449,3.481920247125236,94.1,0.3139500290255011
1306893645.18,3.9311823,5.4414861,588.582696,-3.1,7.6,246.4,1513925.9998892,-540951.8217723999,-1.0,353.2159440026453,98015.72369815636,297.44334681894856,0.07195597168219442,3.454291578930504,92.7,0.3146360963920804
1306893645.62,3.9303845,5.4412613,606.7585496,-3.5,7.7,246.3,1513720.9473892,-541051.4608832,-1.0,355.5726001164223,105669.72512529796,297.721139704317,0.07078023780678973,3.5743589468056127,94.30000000000001,0.3153003461733577
1306893646.04,3.9296029,5.4410397,623.3596,-3.8,8.1,246.2,1513520.1927896,-541149.5908076001,-1.0,364.95093338074645,112869.9262450326,297.411220053714,0.06930576901852373,3.6890808703404208,93.80000000000001,0.3158694406615467
1306893646.47,3.9287863,5.4408067,640.4199679999999,-4.2,8.5,246.1,1513310.41588,-541252.6419919999,-1.0,372.80029422208656,120817.7731628386,297.4586035531765,0.0707584640325632,3.6969651971769677,96.0,0.3164075312127278
1306893646.89,3.9279598,5.4405689,658.2677375999999,-4.4,8.9,246.0,1513098.0799152001,-541357.6616804,-1.0,386.89152731078644,129044.02772607333,297.7751314683721,0.069025355733548,3.621977035456608,95.20000000000002,0.31691790960292904
1306893647.31,3.9271378,5.4403305,677.165376,-4.6,9.3,246.0,1512886.9906696,-541462.8126024,-1.0,385.3434782512547,137645.6088998864,296.9652666586065,0.06872214974036037,3.589251318681816,95.00000000000003,0.3174044800316254
1306893647.73,3.9262916,5.4400829,698.0643268,-4.6,9.5,245.7,1512669.8318699999,-541571.8021071999,-1.0,397.2011102684418,145027.3434221125,295.3181993744912,0.06752501058155963,3.656571650646855,91.9,0.3178752805565598
1306893648.15,3.9254371,5.4398308,720.7677396,-4.8,9.7,245.6,1512450.5405243998,-541682.6944992,-1.0,401.9572319984285,153822.7013824343,294.26520293116954,0.06762414773290537,3.6841105010701543,92.0,0.31833819612961317
1306893648.58,3.924537,5.4395631,746.2598664,-4.8,9.7,245.4,1512219.6350052,-541800.2141880001,-1.0,414.1668639918756,161520.64499016246,293.3080681261986,0.07004006827989084,3.6322363610903574,94.89999999999999,0.3188037910552475
1306893649.0,3.9236646,5.4393018,772.6050116,-6.8,12.8,245.3,1511995.8161004,-541914.8467376,-1.0,411.85024038221655,169540.1876993259,293.8870908333759,0.0705871250546189,3.5710563264619664,95.0,0.31927995028534367
1306893649.44,3.9227286,5.4390168,806.0039628,-25.6,14.0,244.6,1511755.9210796,-542039.4858492,-1.0,423.5527410190132,176511.55364498697,294.7623881746117,0.06897533115283953,3.5478194383773705,96.50000000000001,0.31978726655830964
1306893649.86,3.9218414,5.4387326,842.9790296,-39.9,15.3,243.0,1511528.91976,-542162.7141996,-1.0,425.2313359037211,183726.9778866504,294.5978350412788,0.07042315410522924,3.4784730043282392,95.40000000000002,0.32033844766067177
1306893650.29,3.9209294,5.4384172,885.5643328000001,-42.8,14.8,241.3,1511296.2753956001,-542297.8848076,-1.0,433.91207637770145,188981.56752646508,295.45101993269316,0.07231826616894449,3.46468590180461,95.50000000000001,0.32095025868429383
1306893650.71,3.9200714,5.4381005,927.7887436000001,-47.4,13.0,240.0,1511078.0011104,-542432.3664392,-1.0,424.0617613172789,192162.01397166803,293.67864330230043,0.07376544908787817,3.5275504366954062,92.60000000000001,0.3216207858059037
1306893651.15,3.9191857,5.4377583,970.5380888,-52.8,11.7,239.0,1510853.1651452,-542576.7233992,-1.0,421.766461522223,192079.96185814711,292.74994092133784,0.0767661505091992,3.5040609493413624,90.80000000000001,0.3223494166020541
1306893651.58,3.9183352,5.4374177,1009.1863840000001,-54.6,10.4,238.1,1510637.6467656,-542719.7352148,-1.0,417.31672034363265,187423.4882060101,292.45519338182396,0.07495617480312966,3.508937848269033,91.20000000000002,0.3231241322625965
1306893652.0,3.9175062,5.4370761,1043.6680124,-55.8,9.5,237.5,1510427.8042392,-542862.6157968,-1.0,418.68240630178366,179570.0122067328,291.5158455749528,0.07620950875465025,3.4487373209805545,92.00000000000003,0.3239305408365248
1306893652.43,3.9166651,5.4367202,1075.2296932000002,-57.5,8.9,236.7,1510215.2386156002,-543010.9425732,-1.0,416.93751746155976,169609.50608530134,293.07142047047336,0.07669931024226796,3.460283371647531,92.10000000000002,0.3247576187017917
1306893652.85,3.9158427,5.4363616,1102.7231324,-58.3,8.4,235.9,1510007.6270604,-543159.8927092,-1.0,420.24878111583126,160975.2488620972,292.7558036020389,0.07680400633213738,3.455854774847101,89.10000000000001,0.32558936629584245
1306893653.28,3.9150228,5.4359917,1127.0013483999999,-58.7,8.0,234.9,1509801.1637992,-543312.9110867999,-1.0,412.52802149458813,154463.97954698635,292.60040171793065,0.07893232061320815,3.5950934554024054,86.10000000000001,0.3264162910552475
1306893653.72,3.9141849,5.4355987,1148.786126,-59.3,7.7,233.8,1509590.5666796,-543474.6893071999,-1.0,416.3155841443427,150100.71700143057,293.17541720394706,0.08118879387506776,3.621451677751984,86.30000000000001,0.3272161160771197
1306893654.14,3.913406,5.435217,1166.5682788,-59.6,7.5,232.5,1509395.2582744,-543631.0213332,-1.0,410.78813854051504,147336.98352150124,294.96143821026396,0.08177088211625523,3.57727906753724,86.4,0.3279711576344251
1306893654.56,3.9126385,5.4348229,1181.92261,-59.6,7.5,231.1,1509203.3291344,-543791.6840680001,-1.0,410.9752636245115,145389.05663790047,294.4325872491478,0.07994816877308683,3.471016828141212,84.3,0.32866266025909696
1306893654.99,3.911881,5.4344132,1195.2428204,-59.9,7.5,229.6,1509014.5824092,-543957.7929971999,-1.0,403.38589040709564,141635.45521619523,295.7767506608443,0.07951319518108359,3.4837865510943975,86.9,0.3292867197516604
1306893655.41,3.9111465,5.4339934,1206.52891,-59.9,7.5,227.9,1508832.2661304,-544127.1171496001,-1.0,408.77496734728,136855.65909748306,297.0926392689438,0.07966467872775823,3.5184984190826145,87.99999999999999,0.32983736498350646
1306893655.84,3.9104388,5.4335646,1216.1089628,-60.1,7.5,226.2,1508657.2661247998,-544299.0331656,-1.0,394.0122017201903,132675.00848101417,297.836410768388,0.0799646958531315,3.5300858262317334,87.70000000000002,0.33032018431858956
1306893656.26,3.9097553,5.4331242,1224.245446,-60.1,7.5,224.3,1508489.1230748,-544474.6893392,-1.0,400.0157073594652,127283.00148501353,299.69898457369766,0.08078003252120367,3.5230961747123595,88.60000000000001,0.33074153165017306
1306893656.68,3.9090966,5.4326717,1231.1680184,-60.1,7.5,222.4,1508327.8369804,-544654.1840956,-1.0,397.27791525725365,123632.11255866954,298.3079237299025,0.08318900577886082,3.4720794439479445,87.3,0.331105387730663
1306893656.89,3.9087763,5.4324405,1234.252008,-60.1,7.5,221.4,1508249.8186052002,-544745.588298,-1.0,395.9338055094001,122189.7794247272,298.96969675633136,0.08293391324243098,3.491704882886958,89.20000000000002,0.3314122884305755
1306893657.32,3.9081543,5.4319669,1239.6982024000001,-60.1,7.5,219.2,1508098.8999652,-544932.0056268,-1.0,386.30270148065273,121165.03252337893,300.49905089991665,0.08251319902374048,3.3582885942872696,88.60000000000001,0.3316752477481609
1306893657.74,3.9075652,5.4314846,1244.2913784,-60.1,7.6,217.1,1507957.1020604,-545120.7851604,-1.0,389.6008632512323,121697.73819809101,300.3409948229056,0.0822422132591873,3.4302553652160377,90.4,0.3318980933299631
1306893658.18,3.906991,5.4309765,1248.3268116,-60.1,7.7,214.7,1507820.0285652,-545318.7182376,-1.0,379.74821402739815,124351.08663542756,298.9741116006045,0.08036591778732398,3.4338469089441768,89.2,0.33208886323372516
1306893658.61,3.906473,5.4304794,1251.64046,-60.1,7.9,212.4,1507697.5219996,-545511.3691623999,-1.0,369.01923980609183,126296.11819698024,299.3367331591879,0.08132147033894255,3.524058479353741,90.3,0.3322515382118529
1306893659.05,3.9059684,5.4299515,1254.5604076,-60.1,7.9,209.9,1507579.5101847998,-545714.9452844,-1.0,372.002972477926,126417.72393990176,297.3725595315569,0.0781626981899557,3.4280537541424634,90.30000000000001,0.33238994591089044
1306893659.48,3.9055154,5.4294319,1257.0210376,-60.1,8.2,207.3,1507474.9170056002,-545914.3547396,-1.0,364.77521171272844,128883.65412697823,296.5569806648182,0.07472778192608885,3.402653041939669,92.6,0.3325077608715204
1306893659.9,3.905104,5.4289124,1259.1535836,-60.1,8.4,204.9,1507381.3146404,-546112.8455596,-1.0,364.33608528700404,129756.6528319986,296.8931321806274,0.07561020402195244,3.3946150900239216,91.0,0.3326081983168398
1306893660.33,3.9047242,5.4283804,1261.0236624000001,-60.1,8.6,202.3,1507296.63616,-546315.1093456,-1.0,356.1148817606966,131798.40177377575,297.5145269205861,0.07293335785614005,3.4756451559699797,92.40000000000002,0.33269401415236033
1306893660.75,3.9043934,5.4278621,1262.6640824,-60.1,8.8,199.7,1507224.45768,-546511.3691944,-1.0,348.2290757117609,134907.24462938958,299.3818490175149,0.07258644825687459,3.5129194542555697,91.90000000000002,0.3327675049660086
1306893661.17,3.9040969,5.4273375,1264.1732688,-60.1,9.0,197.1,1507161.5967856,-546709.1382296,-1.0,345.963802454146,137867.93641869715,299.0138743287372,0.07343663606875546,3.5002449243814566,90.5,0.3328373212389745
1306893661.6,3.9038312,5.4267977,1265.5512216,-60.1,9.2,194.3,1507107.3645004,-546911.762908,-1.0,341.99086928032864,139022.2335027614,298.63501024524606,0.07161309661717667,3.5535239014906073,90.9,0.3328976449485108
1306893662.03,3.9036043,5.4262565,1266.8307492,-59.6,9.2,191.6,1507063.5980947998,-547114.0595024,-1.0,337.8902661209594,140069.01258406808,299.81014619991345,0.07184819046499846,3.464692083189901,89.0,0.3329502368120279
1306893662.5,3.9033985,5.4256669,1268.5039775999999,-28.6,7.6,189.1,1507026.78707,-547333.51489,-1.0,332.7893134093741,139578.80709902965,300.8433631851437,0.07365502126189637,3.555050987742444,87.5,0.33299731686452133
1306893662.94,3.9032265,5.4251204,1271.4567336,7.9,6.5,189.1,1506997.6860192,-547536.5332692,-1.0,327.94885799510575,138184.6968260371,301.61907484546373,0.07206579536554866,3.483775387790218,87.3,0.3330435548347751
1306893663.36,3.903062,5.4246053,1275.0656576,19.8,6.5,189.2,1506969.5692204,-547727.871858,-1.0,324.0914748600277,136844.47470672432,302.32558107995317,0.07377553445682002,3.5763623061923444,86.5,0.33309140041657737
1306893663.79,3.9028862,5.4240825,1279.0682824,28.3,6.8,190.0,1506938.7293244,-547922.3600532,-1.0,322.3260874032772,133795.14192170012,302.4840551094343,0.0756279371781536,3.6657514030337173,83.99999999999999,0.3331428439861311
1306893664.22,3.9027011,5.4235696,1282.9396736,40.4,7.6,191.1,1506905.1007144,-548113.370558,-1.0,317.5180908525824,130574.8091551773,302.1862406377375,0.07405454143846145,3.761903888241679,85.6,0.3331983448610218
1306893664.65,3.9024979,5.4230595,1286.6798312,46.1,8.3,192.7,1506866.5508444,-548303.82332,-1.0,317.9465794465547,125952.57189685757,301.0209307104167,0.07659037158847816,3.699170991516841,86.30000000000001,0.3332582092529728
1306893665.07,3.9022759,5.4225607,1290.19033,49.0,8.7,194.5,1506822.7516304,-548490.5359244,-1.0,320.9755643449728,120981.67486066259,300.4562840862649,0.07579377258055332,3.677768334820528,86.10000000000001,0.3333224371619841
1306893665.49,3.9020364,5.4220792,1293.3727448000002,52.6,9.4,196.5,1506773.7686892,-548671.3430168,-1.0,313.5147362412234,117376.51687585385,301.31437216752533,0.07589776264291467,3.6494406477609327,86.4,0.3333905692704706
1306893665.91,3.9017747,5.4216099,1296.2926924,55.0,9.9,198.8,1506718.38811,-548848.1802928001,-1.0,309.9692793592298,113291.81603755533,301.7657353001725,0.07566656642003564,3.642681266589895,88.5,0.33346229936670857
1306893666.35,3.9014681,5.4211207,1299.1798316,56.2,10.1,201.3,1506651.8526748,-549033.2852856,-1.0,313.6496207897123,109249.92301816423,299.73087812329675,0.0770074742948945,3.706474577912421,88.89999999999999,0.3335377805565598
1306893666.77,3.9011466,5.4206625,1301.7060784,57.4,10.3,203.9,1506580.2975543998,-549207.3994644,-1.0,314.095625334485,105798.45039433696,298.2784846782798,0.07488418768806682,3.641036781212248,89.3,0.33361525212261406
1306893667.21,3.9007816,5.4201964,1304.1667084,58.3,10.5,206.6,1506497.4563443998,-549385.3850344,-1.0,312.35639754176566,101111.09625263259,298.4088215478687,0.07459199153679467,3.6403202090136033,90.4,0.33369157539470506
1306893667.65,3.9003793,5.4197355,1306.430488,58.8,10.5,209.5,1506404.5429556,-549562.2223104,-1.0,317.2851300966169,95834.22756241464,297.4311289398009,0.07448919648718592,3.5774101649452765,90.19999999999999,0.33376475999662986
1306893705.11,3.8843074,5.4397128,1393.7336404,35.6,6.3,86.8,1501529.9365004,-542635.35201,-1.0,143.04816790561202,92283.11538376632,299.0179090336152,0.07283235208922108,3.592594123144411,89.69999999999999,0.33403231249006815
1306893705.32,3.884644,5.4397351,1393.7664488,33.4,6.2,87.5,1501618.7488392,-542619.76802,-1.0,295.18700020549477,84641.19980504568,298.65560370480165,0.07458346802625812,3.534674716179341,87.7,0.3342909082905931
1306893705.54,3.8849856,5.4397551,1393.7664488,31.4,6.1,88.0,1501708.7422804,-542605.00424,-1.0,285.19477523757706,116745.05691321434,300.2604101521821,0.07236018878711413,3.548814491362589,85.89999999999999,0.3345407770569973
1306893705.75,3.8853272,5.4397725,1393.7664488,29.5,6.0,88.5,1501798.9653804,-542591.06067,-1.0,299.0645617219825,174471.80601672846,298.3181949082113,0.07320762655939929,3.5357325858467523,87.19999999999999,0.33478245465979695
1306893705.97,3.885669,5.4397877,1393.7664488,27.6,5.9,89.0,1501889.2869056,-542578.0357352,-1.0,285.59473246525636,237155.58957667823,298.38181615252273,0.06968363049970012,3.6180711804122043,89.10000000000001,0.33501670662830096
1306893706.19,3.8860283,5.4398013,1393.7992571999998,25.8,5.9,89.4,1501984.3328404,-542565.1092256,-1.0,300.131836713477,295820.41724817536,296.86684013732037,0.06973969880643277,3.6949315726978895,89.90000000000002,0.3352442219388871
1306893706.4,3.8863543,5.4398117,1393.8320655999999,24.0,5.8,89.9,1502070.5533156001,-542554.15122,-1.0,285.152269510175,275573.2231314106,296.4101295886262,0.06635519765621081,3.6337057298691926,91.20000000000002,0.33546507714448637
1306893706.63,3.88672,5.4398214,1393.9304908,22.3,5.8,90.3,1502167.4693292,-542542.5698548,-1.0,292.38602890736826,175841.89773181095,299.0373244028808,0.06743492605084594,3.689909340795351,91.80000000000001,0.33568026743320023
1306893706.84,3.8870666,5.4398288,1394.028916,20.8,5.8,90.6,1502259.3328492001,-542532.2024004,-1.0,303.2584960938682,81947.35362495169,298.95492442157314,0.06692691766199522,3.718226451230743,91.89999999999999,0.33588994591089055
1306893707.05,3.8873909,5.4398342,1394.1601496,19.4,5.7,90.9,1502345.2252404,-542523.0816652,-1.0,283.6321650811229,6015.915208135975,301.4425853435653,0.06546882706187322,3.7102799070454973,90.5,0.33609464844807335
1306893707.26,3.8877359,5.4398385,1394.3241916,18.0,5.7,91.2,1502436.7934847998,-542513.8953132001,-1.0,302.03597533504177,91142.04212977653,300.4370136680519,0.06854571305489776,3.7216284143185923,92.5,0.3360960264008293
1306893707.48,3.8880776,5.4398415,1394.521042,16.6,5.7,91.5,1502527.4102856,-542505.2995124,-1.0,285.4130187336558,89542.80808515375,301.8272014607455,0.06842181361789747,3.727481205470447,93.60000000000001,0.3360977871182396
1306893707.7,3.8884209,5.4398432,1394.7507008,15.3,5.7,91.8,1502618.5848292,-542497.0974124,-1.0,287.0742046225041,91281.75418794788,301.1293023000767,0.07047050855806174,3.7541998530812504,94.60000000000002,0.3361000837061661
1306893707.91,3.8887642,5.4398437,1395.013168,14.2,5.7,92.0,1502709.7265644,-542489.2890132,-1.0,300.4038974490205,93010.91735079439,303.281942810968,0.06913044321081191,3.8025116250165514,94.40000000000003,0.3361029927175397
1306893708.12,3.8890931,5.4398432,1395.3084436000001,13.0,5.6,92.2,1502797.0625252002,-542482.2352071999,-1.0,287.9492384818352,92646.56442200912,302.41575995309256,0.07121580185904612,3.7312287881015176,92.40000000000002,0.33610659070529114
1306893708.34,3.8894394,5.4398417,1395.669336,11.9,5.6,92.4,1502889.1228956,-542475.1485928,-1.0,289.66283599020784,91937.59864347128,303.84579573489157,0.07374287382832788,3.6196711191343796,91.90000000000002,0.3361109542223516
1306893708.56,3.8898016,5.4398392,1396.0302284,10.9,5.6,92.6,1502985.4155496,-542468.0947868,-1.0,302.7665275478296,94218.68572599076,305.2750598908357,0.07444321310746937,3.6524194031985573,90.30000000000001,0.3361160832687207
1306893708.77,3.8901287,5.4398361,1396.4239292,10.0,6.0,92.8,1503072.3578096,-542461.9924244,-1.0,286.5586271569653,90140.7747147572,303.1522911748558,0.07568743198983792,3.560915685135317,90.90000000000002,0.33612190129146796
1306893708.99,3.8904749,5.4398321,1397.0144804,9.1,7.2,92.9,1503164.41818,-542455.7916367999,-1.0,289.57311742548495,90584.86066283581,301.8373286214943,0.07537338640295069,3.632023440726605,91.80000000000001,0.3361288676081784
1306893709.21,3.8908192,5.4398272,1398.0315408,8.2,9.1,93.1,1503256.0848496,-542449.98455,-1.0,288.3316273586325,94183.78476573201,300.2003516103585,0.07670304918206161,3.6404772084782104,91.20000000000002,0.3361379008540226
1306893709.42,3.8911614,5.4398214,1399.9672363999998,7.4,11.7,93.3,1503347.1281596,-542444.5383556,-1.0,299.873867888128,92075.14852325732,301.22826727858137,0.07411685991825026,3.5660236300953136,88.69999999999999,0.3361510679581346
1306893709.63,3.8914977,5.4398147,1403.2480764,6.6,14.7,93.6,1503436.6294747998,-542439.5186704,-1.0,294.96581273004057,93656.83796631207,301.63190577302106,0.0720676933489008,3.5658179253552897,90.7,0.33617143103774966
1306893709.84,3.8918167,5.4398075,1408.1037196,5.8,17.1,93.8,1503521.5048056,-542435.1551532,-1.0,280.1664109522748,94982.94900347352,301.74032914931894,0.07117581462874988,3.5897419864991416,90.70000000000002,0.33620258808061926
1306893710.06,3.8921631,5.4397985,1415.6496516,5.0,19.5,94.0,1503613.89326,-542430.7588276,-1.0,291.4143664205983,93784.30526853885,301.7552967955402,0.06996570839024892,3.5775646742176606,89.30000000000001,0.3362507398741451
1306893710.27,3.8924912,5.4397892,1425.2953212,4.3,21.1,94.2,1503701.2620292,-542426.9202448,-1.0,289.5011184559951,93424.62404752031,302.78686233657436,0.07114996714841798,3.675353419832239,88.7,0.33632070925297275
1306893710.48,3.8928151,5.4397792,1437.2375788,3.5,22.6,94.4,1503787.5809296,-542423.4425544,-1.0,287.019956250474,95126.69315707147,303.14251059686165,0.06932363775317907,3.7008955018088825,86.4,0.33641770181640235
1306893710.69,3.8931362,5.4397688,1451.4764244,2.9,23.8,94.5,1503873.1780452002,-542420.1617144,-1.0,285.8086349193058,95835.10365267897,303.09608405057867,0.07037612155449058,3.644192032459372,87.9,0.3365470762695957
1306893710.9,3.8934518,5.4397581,1467.8150076,2.2,24.9,94.6,1503957.3643996,-542417.0777248,-1.0,282.49088893407776,95948.98945659914,302.42307459377815,0.06900034298104456,3.7113247597802537,86.90000000000002,0.3367136554471985
1306893711.11,3.893765,5.4397471,1486.22052,1.6,25.5,94.7,1504040.9273944,-542414.1577772,-1.0,281.8516433252432,95312.98944173587,303.3730950503917,0.06869911940585241,3.610456907107398,83.4,0.33692180286627116
1306893711.32,3.8940733,5.4397362,1506.3648776,1.0,26.0,94.7,1504123.0468196,-542411.3362548,-1.0,278.54568816795324,96384.4058605039,304.90268639030285,0.06835577873044806,3.582733671913439,85.2,0.33717458064404887
1306893711.54,3.8943932,5.4397246,1529.199524,0.5,26.2,94.8,1504208.4470847999,-542408.4491156,-1.0,277.96790648479833,94451.85000124286,302.77668200216937,0.07031611244317375,3.5764663532440477,88.60000000000001,0.33747612263879956
1306893711.76,3.8947267,5.4397126,1554.8885012,0.0,26.2,94.8,1504297.3250404,-542405.4963596,-1.0,290.69993700650025,92698.00234445882,300.8606036427905,0.07237942075549061,3.646687875230957,84.9,0.33782995028534374
1306893711.97,3.8950401,5.4397013,1580.54467,-0.4,26.1,94.8,1504380.8880352,-542402.6748372,-1.0,287.76552696259773,90461.86029483887,299.30395145354595,0.07324593657509203,3.5564301702034653,82.30000000000001,0.3382323124900682
1306893712.18,3.895337,5.4396907,1606.0039884,-0.8,25.9,94.7,1504460.1531296,-542400.0173567999,-1.0,278.91763555665176,86007.74967994835,299.3554705662544,0.07572368642948167,3.5416272057963436,84.30000000000001,0.338676472595055
1306893712.39,3.895653,5.4396794,1634.0879788,-1.1,25.6,94.7,1504544.4379092,-542397.1302176,-1.0,296.9735578957547,83932.8939677143,298.06002370186866,0.0732739908123296,3.5582162077405814,87.6,0.3391636554471985
1306893712.61,3.8959811,5.4396679,1664.1732816,-1.4,25.2,94.7,1504631.8722952001,-542394.1118448,-1.0,295.0742181978246,78902.36438385973,297.6665247623291,0.07246535506506828,3.5473602643435305,87.8,0.3396931720701206
1306893712.82,3.8962905,5.4396571,1693.1102903999997,-1.7,24.9,94.7,1504714.4182296,-542391.1918972,-1.0,292.4847115460544,77303.63356291316,298.0696497879786,0.07406814011062286,3.640198687379504,85.0,0.3402569844060786
1306893713.04,3.896602,5.4396464,1722.7034672000002,-2.0,24.5,94.6,1504797.45629,-542388.2063328001,-1.0,281.6991050392392,78602.08813122951,299.7313179186886,0.07458137201406671,3.5900531054454374,84.7,0.34085172412611364
1306893713.26,3.8969348,5.4396351,1754.6260403999997,-2.2,24.1,94.6,1504886.1373952,-542384.9911096,-1.0,300.5380611949426,78704.13035832767,297.8599263012875,0.07493368974542225,3.655634460222151,88.19999999999999,0.34147800365367265
1306893713.47,3.8972519,5.4396245,1785.2034692,-2.5,23.8,94.6,1504970.7174503999,-542381.8415032,-1.0,300.4259573033401,77082.2488171589,296.6223239572277,0.07707041036189208,3.721815998591073,87.60000000000001,0.3421286270132527
1306893713.68,3.8975532,5.4396145,1814.30452,-2.7,23.5,94.5,1505050.9996052,-542378.7903219999,-1.0,285.6983320704478,78467.32820209218,297.4525785520165,0.07660834426856494,3.7960118143359463,86.80000000000001,0.34279387198263156
1306893713.89,3.8978728,5.4396041,1845.1116075999998,-2.9,23.3,94.5,1505136.20302,-542375.5422904,-1.0,302.567963395146,79058.62627670396,297.6727058377332,0.07803771335084116,3.7542798764832983,89.60000000000001,0.3434710592092282
1306893714.11,3.8982031,5.4395936,1876.8701388000002,-3.1,23.0,94.4,1505224.2607656,-542372.0646,-1.0,298.51537267932076,75071.87677889617,297.18067169413814,0.07687875182441957,3.777924543524229,89.89999999999999,0.34416248528096927
1306893714.32,3.8985158,5.4395838,1906.7585911999997,-3.2,22.8,94.4,1505307.6269099999,-542368.7181432,-1.0,295.9454916561272,76163.52660878358,295.3452625437799,0.07671376970972765,3.701831519636727,88.60000000000001,0.3448642459983796
1306893714.53,3.8988258,5.4395742,1936.2205344,-3.4,22.6,94.3,1505390.2712696,-542365.4044948,-1.0,293.2841721763589,77558.95448336065,294.8129777225149,0.07945339552170325,3.6962225719277977,86.0,0.3455692219388871
1306893714.75,3.8991508,5.4395644,1966.86358,-3.5,22.5,94.3,1505476.8854456001,-542361.8283792,-1.0,293.1484542001394,77205.35994758092,295.34278842045165,0.08002478938524402,3.6697009097989897,87.10000000000001,0.3462754992792195
1306893714.97,3.8994715,5.4395548,1996.8832659999998,-3.7,22.4,94.3,1505562.4169444,-542358.1866467999,-1.0,289.34373949739035,78007.62071045623,294.68558674297196,0.07797819267129676,3.564910073352397,88.9,0.34698430286627113
1306893715.18,3.8997908,5.4395456,2026.5092511999999,-3.8,22.3,94.2,1505647.4891256,-542354.4792976,-1.0,300.8626638748633,83135.39280739447,293.61485668205023,0.07984877651239762,3.535768779352259,91.30000000000001,0.3476931830062536
1306893715.39,3.9001103,5.4395365,2055.938386,-3.9,22.2,94.2,1505732.5941152,-542350.73914,-1.0,300.756154149101,81256.22552482209,295.1312557444765,0.08164256731668205,3.5514937329503904,89.9,0.34839624512348905
1306893715.61,3.9004314,5.4395276,2085.2690956,-4.0,22.2,94.1,1505818.0928056,-542346.9005572,-1.0,288.5448905628815,78933.07129391533,294.6320694993872,0.08123340179303533,3.4705602667442426,88.69999999999999,0.3490963982293508
1306893715.82,3.9007482,5.439519,2114.0420624,-4.1,22.2,94.0,1505902.4760103999,-542342.9963576001,-1.0,297.84326177363687,80825.62730898563,294.66684167729244,0.08203527498590546,3.4297964354751036,86.5,0.3497957858059037
1306893716.24,3.901372,5.4395028,2170.1116180000004,-4.2,22.2,93.9,1506068.6833648,-542335.0895332,-1.0,293.1454289350787,77341.82287837537,296.48366895481723,0.07961355206028568,3.413207747411788,87.10000000000001,0.35055411913923706
1306893716.46,3.9017075,5.4394945,2200.0000704,-4.3,22.2,93.9,1506158.0862548,-542330.7588244,-1.0,300.5223627382171,76876.72872219203,298.2444013118163,0.07999844146597503,3.422414595371388,89.50000000000001,0.35130808895550997
1306893716.67,3.902018,5.439487,2227.526318,-4.3,22.2,93.8,1506240.8290396,-542326.5921576001,-1.0,291.49979546291127,77617.59009688684,297.8168601194674,0.07998196827886665,3.4615657513504656,89.60000000000001,0.35205654696075933
1306893716.9,3.9023589,5.4394791,2257.6116208,-4.4,22.2,93.7,1506331.5442656002,-542321.9661732,-1.0,291.6974195467457,78199.8283279525,299.5524501485048,0.07656598472326945,3.410908137836922,89.8,0.3528064594716955
1306893717.11,3.9026748,5.439472,2285.3675272,-4.4,21.6,93.7,1506415.73062,-542317.5698476001,-1.0,296.16681660430424,78305.93033293974,298.2791021292095,0.07821608093011416,3.458024370075641,88.4,0.3535496353247138
1306893717.33,3.9030216,5.4394644,2315.5512552,-4.5,20.2,93.6,1506508.0206492,-542312.6485876001,-1.0,309.26961967579484,79414.01897857591,296.9968018756912,0.07858085530343166,3.5733694144375723,88.0,0.3542931939423866
1306893717.54,3.9033304,5.4394579,2341.8307836,-4.5,18.4,93.6,1506590.2384996,-542308.252262,-1.0,288.63412608195284,77118.12349641637,296.510833906836,0.07596641467767769,3.6854762424903647,88.4,0.35502894416110925
1306893717.75,3.9036575,5.4394509,2368.7008632,-4.5,16.3,93.6,1506677.2791847999,-542303.5278524,-1.0,304.1393780686186,78469.1117978424,297.46223291799987,0.07746614161040452,3.7051858909832873,88.10000000000001,0.355758723251223
1306893717.96,3.9039729,5.4394442,2393.2415464,-4.6,14.0,93.6,1506761.3343056,-542298.9674848,-1.0,292.7342162729837,77334.01251050168,299.36346365006995,0.07743063268246259,3.6771548102029095,88.30000000000001,0.35647732561342776
1306893718.17,3.9042936,5.4394373,2416.5683188000003,-4.6,12.1,93.6,1506846.7673792,-542294.4399256,-1.0,296.0100830554022,77573.15642305888,298.8927519210651,0.07411052063559033,3.7289217955115843,91.4,0.35718322018910575
1306893718.59,3.904955,5.4394223,2458.497454,-4.9,8.3,93.7,1507022.7844452,-542285.2207652,-1.0,302.27283200324797,80447.38093221231,297.0523093399977,0.0750978586824398,3.7938779100569873,90.7,0.35785612045157295
1306893719.02,3.9056343,5.4394059,2492.0932556000002,-5.4,5.2,93.8,1507203.7555796,-542276.1984552,-1.0,300.49592895271263,79989.0502326583,297.3258131300902,0.07595777884133877,3.7687486941286967,88.90000000000002,0.35853767119523
1306893719.44,3.9063048,5.4393886,2516.0105792,-6.0,3.9,93.9,1507382.3645092,-542267.7010796,-1.0,301.25982098200114,80894.17601495273,298.88172460280845,0.07483316625287743,3.7527128663546496,87.4,0.35921080111648984
1306893719.65,3.9066492,5.4393794,2525.1641228,-6.3,4.1,93.9,1507474.0967956001,-542263.4359876,-1.0,308.0620748452389,82915.97466023263,297.4920118779813,0.07616231771496035,3.714327806172303,88.4,0.3598350902678459
1306893719.88,3.9070127,5.4393696,2533.1037556,-6.6,6.1,93.9,1507571.0128092,-542258.9740452,-1.0,297.050455550832,81955.41095240109,297.2670084122352,0.07613787491663276,3.677692541654544,90.4,0.36041314144894826
1306893720.09,3.9073605,5.4393603,2539.7310524,-6.9,8.9,93.8,1507663.5653056002,-542254.610528,-1.0,310.0262759107978,82741.86305837713,297.47684887129054,0.07454375238792121,3.676208826823286,90.4,0.3609362276256762
1306893720.3,3.9077085,5.4393516,2546.3583492,-7.2,12.4,93.7,1507756.2490356,-542250.1157772,-1.0,310.4396181943225,85370.68136708777,297.78941113029146,0.07375440156243317,3.6605386487091502,89.3,0.36141345859680485
1306893720.51,3.9080416,5.4393439,2553.4449636,-7.5,16.1,93.5,1507845.0613743998,-542245.5554096,-1.0,298.011453864504,85250.86925494115,295.74358851869687,0.07363904369525776,3.528872412304535,90.19999999999999,0.3618445281506106
1306893720.74,3.9084107,5.4393367,2563.1234416,-7.6,20.7,93.2,1507943.2569156,-542240.01079,-1.0,301.19478966437407,91060.85394591714,294.1717767035107,0.0724096682416332,3.5289213249597875,92.1,0.36224091922672597
1306893720.95,3.9087611,5.4393313,2574.7704236,-7.6,22.2,92.9,1508036.46558,-542234.2037032,-1.0,313.6052668761069,94265.20499927492,294.1248584204129,0.07337027268623161,3.4389974918834776,89.20000000000002,0.362610057459447
1306893721.16,3.9090914,5.4393277,2588.090634,-7.4,23.5,92.6,1508124.3264752,-542228.2325744,-1.0,297.1131536254924,94806.10487265256,294.15290471071535,0.07299712904119202,3.425004250176817,87.20000000000002,0.3629124415364373
1306893721.37,3.909424,5.4393253,2603.7402408,-7.2,24.8,92.3,1508212.7123047998,-542221.7037028001,-1.0,299.97408350046425,100911.54880786683,291.83621792576895,0.07387472682387893,3.4710269370818105,88.00000000000001,0.3631729511602344
1306893721.58,3.9097588,5.4393243,2621.8504776,-6.8,26.0,92.0,1508301.6886856002,-542214.6827052,-1.0,303.3077224064165,102944.22662501106,291.4388723754998,0.07303387499123506,3.5241081100058365,89.30000000000001,0.36341991091526504
1306893721.79,3.9100758,5.4393245,2641.0762,-6.4,26.5,91.8,1508385.87504,-542207.6288992,-1.0,288.82726163156275,100784.18422379426,292.82890862877196,0.0749773950418866,3.5882904758324545,89.9,0.3636903724200769
1306893722.01,3.9104129,5.4393257,2663.549954,-5.9,26.3,91.5,1508475.3763552,-542199.7220748,-1.0,294.4130576952164,105882.16202835304,293.654504180174,0.0754051887271282,3.5790085937977856,89.80000000000001,0.36399474687327027
1306893722.22,3.9107504,5.4393278,2687.82817,-5.4,25.4,91.3,1508564.9760956,-542191.4543580001,-1.0,309.804192610332,105400.65703648124,293.29928581142485,0.07832045375672489,3.551224498205778,89.80000000000001,0.364340306803279
1306893722.44,3.9110863,5.4393306,2713.2218716,-4.9,23.8,91.2,1508654.08371,-542183.0225992,-1.0,295.5232632685096,99164.26141794519,293.4228130995221,0.07787037923309709,3.5313690709351926,89.5,0.3647296550097532
1306893722.66,3.9114215,5.4393339,2739.2389328,-4.4,21.6,91.1,1508743.0928992,-542174.39399,-1.0,295.7581415410277,99127.81889972452,293.42420099807157,0.07648681868457835,3.5340853561183083,89.80000000000001,0.3651631742573473
1306893722.87,3.911757,5.4393373,2765.2888024,-4.0,19.2,91.1,1508832.06928,-542165.7325723999,-1.0,309.39106982238945,95882.83644899828,293.5377804148624,0.07797718782510302,3.5924413405456797,88.1,0.36563489341745226
1306893723.08,3.9120935,5.4393409,2790.8465459999998,-3.6,16.7,91.0,1508921.2753196,-542156.9727296,-1.0,309.6818454439733,86344.71259871864,293.7601887397848,0.07932976057110792,3.600024719641557,87.5,0.3661390710202519
1306893723.3,3.9124314,5.4393444,2815.3544208,-3.2,14.4,91.0,1509010.9734852,-542148.2128867999,-1.0,296.58670215792625,84771.97729209457,295.77864950824716,0.08107303934970184,3.4858527370383463,89.10000000000001,0.36666935317248284
1306893723.51,3.9127695,5.4393477,2838.418726,-3.0,12.4,91.0,1509100.7044592,-542139.4858524,-1.0,309.2624576161646,85213.84048553975,296.75831161691053,0.08026433652517055,3.3939737865911113,88.9,0.3672169362870935
1306893723.72,3.9131092,5.439351,2859.744186,-2.9,10.3,91.1,1509190.7963256,-542130.8244348,-1.0,309.0818435752427,80354.41985207066,296.14347448547977,0.07970709478930711,3.4252682783638955,87.89999999999999,0.36777202158893085
1306893723.93,3.9134538,5.4393541,2879.3964176,-2.8,8.5,91.1,1509282.2661448,-542122.064592,-1.0,312.29370791168304,81571.22922464211,296.8150587440821,0.07826798385041667,3.3888840569304866,85.89999999999999,0.3683281020788695
1306893724.14,3.9137999,5.439357,2896.9161032,-2.7,6.8,91.1,1509374.0312396,-542113.3375576,-1.0,311.8932905718624,83873.87572520005,294.7046768966548,0.07700083490112453,3.3993551291039,87.0,0.3688726230762448
1306893724.35,3.9141482,5.4393597,2912.3032427999997,-2.7,5.5,91.1,1509466.5181192,-542104.6105232,-1.0,313.0182585113177,81548.15998849194,297.3123850234704,0.07497006389015903,3.4220515176760604,86.8,0.3693963982293508
1306893724.56,3.9144965,5.4393622,2925.4266027999997,-2.7,4.4,91.1,1509558.8737652001,-542095.9491056,-1.0,311.50328813970356,82659.1328457316,297.63036858300325,0.07775703949212207,3.371568479171373,88.2,0.36989154258630613
1306893724.77,3.9148463,5.4393647,2936.4830336,-2.8,3.8,91.2,1509651.7543456,-542087.3533048,-1.0,312.34548349602005,86853.27424467608,297.67420234345644,0.07677064073235795,3.4330102926951946,88.00000000000001,0.37035177880677855
1306893724.98,3.9151938,5.4393669,2945.4725352,-2.8,4.5,91.2,1509743.9459496,-542078.7903124,-1.0,309.4169000844459,89000.8691351807,299.357718330851,0.07520033695156107,3.426385317022422,88.60000000000001,0.3707722075031915
1306893725.19,3.9155606,5.4393693,2953.4121680000003,-2.9,6.8,91.2,1509841.3540892,-542069.8336192,-1.0,326.0160588692385,92459.58230423536,298.9660189863216,0.07290195148123096,3.4802478393223666,90.9,0.37115152727572
1306893725.4,3.9159043,5.4393716,2960.13789,-3.0,10.0,91.1,1509932.5942496,-542061.369052,-1.0,305.7240228975966,94860.75301351237,297.89779580168323,0.07119020759381739,3.5738241086235623,92.20000000000002,0.3714893553597094
1306893725.62,3.9162819,5.4393743,2967.683822,-3.1,13.5,91.1,1510032.7582947998,-542052.018658,-1.0,320.01586258650775,98692.60640584715,298.395471107431,0.0720855239204719,3.639778551735381,92.50000000000001,0.371790973907391
1306893725.83,3.9166373,5.4393772,2975.72188,-3.2,16.1,91.0,1510127.0824447998,-542043.0947732,-1.0,316.0612869363137,99395.47909201265,299.4405931110755,0.07249239446765472,3.652954890948017,95.6,0.37206158851806465
1306893726.05,3.9170053,5.4393807,2985.5644,-3.2,18.0,90.9,1510224.6874348,-542033.6787623999,-1.0,312.7258705030627,100085.76183143591,296.7718647613613,0.07404141264348692,3.616978047758338,96.1,0.37230931380240406
1306893726.26,3.9173468,5.4393844,2996.3255552,-3.2,19.2,90.8,1510315.3042356002,-542024.7548776,-1.0,304.95553151957654,104293.26906233249,298.43984808094365,0.07432538014985372,3.635438803337914,96.3,0.37254126918298147
1306893726.47,3.9177037,5.4393887,3009.186448,-3.1,19.6,90.7,1510409.9564696,-542015.27325,-1.0,318.8351458081583,108478.48619588983,296.0350590807033,0.07321358619986948,3.5623549223997006,96.0,0.3727673299878809
1306893726.68,3.918058,5.4393934,3023.5237188,-3.0,19.3,90.6,1510503.8541104,-542005.7260056,-1.0,317.0810195764701,108271.99506366286,296.6482322048656,0.07301101417201343,3.6290189995729563,94.0,0.372996223251223
1306893726.91,3.9184282,5.4393987,3039.7966852,-2.9,18.3,90.5,1510602.08246,-541995.58821,-1.0,303.80789552433646,110010.45847578743,296.5307755215593,0.0719365314538138,3.5690994339894972,92.80000000000001,0.3732372884305756
1306893727.12,3.9187785,5.439404,3056.0040348,-2.7,16.6,90.4,1510694.9630404,-541985.909732,-1.0,314.7861546487092,112365.81980087838,294.18425401255325,0.07162810501425759,3.531036953798404,95.10000000000002,0.3734951952547225
1306893727.33,3.9191277,5.4394094,3072.4082348,-2.6,14.6,90.4,1510787.5483452,-541976.1656372,-1.0,313.9548965633911,106401.01018149684,294.35292088188095,0.07269495283929238,3.4614744030007603,94.80000000000001,0.37377285273503746
1306893727.54,3.9194781,5.4394149,3088.5827759999997,-2.5,12.4,90.4,1510880.4289256001,-541966.4215423999,-1.0,314.7740868031982,106311.2408639002,295.723112856611,0.0739292044743698,3.457723307374037,91.60000000000001,0.37407255745944695
1306893727.75,3.91983,5.4394205,3104.1339576,-2.4,10.7,90.4,1510973.7360152001,-541956.5790224,-1.0,315.8184281899735,105265.23802991596,296.5768231197913,0.07232695461870992,3.4833170003465117,92.10000000000001,0.374390941098992
1306893727.97,3.9202006,5.4394263,3119.3570552,-2.3,9.0,90.4,1511071.9643648,-541946.2771848,-1.0,316.7694149099555,102106.43802897932,297.4784528322849,0.07548942888234152,3.4349032714952785,89.60000000000001,0.3747260898304006
1306893728.18,3.9205561,5.4394318,3132.6444572,-2.2,7.6,90.4,1511166.2885148,-541936.3690480001,-1.0,318.00323332297637,99767.76369144992,297.49255299619097,0.072250195672395,3.524946414956039,91.90000000000002,0.375069276619552
1306893728.41,3.9209476,5.4394377,3145.6365836,-2.2,6.4,90.4,1511270.0286756002,-541925.5094676,-1.0,318.68224847910346,101067.1092959651,295.86091005111075,0.06997911854578523,3.4890708190167192,91.80000000000001,0.3754176690080034
1306893728.62,3.9213049,5.4394431,3155.9384212,-2.2,5.7,90.4,1511364.7793347999,-541915.6341392,-1.0,318.2073505129585,99582.1420928137,298.1896610622938,0.07037235833395124,3.4897991351041964,93.10000000000001,0.37576009026784596
1306893728.83,3.9216827,5.4394488,3165.2560068,-2.2,5.1,90.4,1511464.94338,-541905.201068,-1.0,335.4364983369623,99619.33907059136,299.15800190223473,0.06988204304296029,3.4175675179593887,95.00000000000003,0.37609079892926334
1306893729.04,3.9220426,5.4394541,3172.7691304,-2.2,4.6,90.4,1511560.3830156,-541895.2601228,-1.0,319.61881820449673,99255.62672888326,300.7873311319766,0.07271384911716826,3.4126523648111706,95.50000000000001,0.3764010679581346
1306893729.25,3.9224048,5.4394594,3179.0355348000003,-2.3,4.2,90.3,1511656.4788192,-541885.2863692,-1.0,321.46381240820324,100966.22049492055,303.07902699149315,0.07429889481068506,3.537740820452277,93.10000000000001,0.37668814144894824
1306893729.46,3.9227589,5.4394646,3183.9896032,-2.3,3.9,90.3,1511750.2780348,-541875.5422744,-1.0,313.7563076282508,103043.81098465128,304.627711842079,0.07681242877422408,3.5373806999522417,91.40000000000002,0.37694849796688346
1306893729.67,3.9231306,5.4394701,3188.0578448,-2.4,3.7,90.3,1511848.9000852,-541865.2732452,-1.0,329.31290988104627,106515.60922876414,304.42691995560375,0.07394679566970228,3.5180721802687707,94.2,0.37718060645332274
1306893730.09,3.9238558,5.439481,3193.1431468,-2.5,3.7,90.3,1512041.1573092,-541845.2929296,-1.0,321.03374939927625,109708.58227838113,303.67489362494626,0.07380240502940176,3.475560149985715,94.60000000000002,0.37738829455481004
1306893730.51,3.9245781,5.439492,3195.2756928,-2.5,3.8,90.3,1512232.65994,-541825.1813804,-1.0,319.72835897098923,113293.72697501084,302.03587545922795,0.07086999121731982,3.538986922228881,96.80000000000003,0.37756543803687476
1306893730.72,3.9249402,5.4394977,3195.5709684,-2.6,4.0,90.2,1512328.62451,-541815.0763932001,-1.0,320.4081805165977,113146.53805388356,302.6198958278669,0.07396225593034679,3.489495313665308,95.80000000000001,0.3777122665583096
1306893730.93,3.925304,5.4395036,3195.4397348,-2.6,4.2,90.2,1512425.1140144,-541804.9057892,-1.0,322.11738952443505,111428.80449577008,304.83502194486954,0.074340573649423,3.6192998206646836,92.40000000000002,0.37782847390739094
1306893731.14,3.9256747,5.4395097,3195.0132256,-2.6,4.3,90.2,1512523.4407892,-541794.4399096,-1.0,328.1142401088524,111199.65168677956,303.07980544280974,0.07653361877196296,3.6755238620382484,90.80000000000003,0.3779196484480734
1306893731.35,3.9260402,5.4395159,3194.389866,-2.6,4.5,90.1,1512620.3239944,-541784.0724552,-1.0,323.42271737291713,108629.0150610716,303.2705289638546,0.07539929762293394,3.7570669100017726,89.10000000000002,0.3779876274506981
1306893731.56,3.92639,5.4395219,3193.6680812,-2.6,4.7,90.1,1512713.0077244,-541774.13151,-1.0,309.7517068657816,109886.94220305316,302.14607960837037,0.07399358997584023,3.843753461010616,90.5,0.378036391667671
1306893731.77,3.9267572,5.4395284,3192.8478711999996,-2.6,4.9,90.1,1512810.3830556,-541763.632822,-1.0,325.0386868547654,113376.87219683101,300.23495798440194,0.07304409907523791,3.8095080245955075,91.7,0.37806862045157297
1306893731.98,3.9271243,5.4395351,3191.9620443999997,-2.6,5.0,90.0,1512907.69277,-541753.0029004,-1.0,324.84299512736374,115254.7020510171,300.31577750029965,0.06996833247430684,3.850390894657209,94.00000000000003,0.3780872228137777
1306893732.19,3.9274931,5.4395421,3191.109026,-2.6,5.2,90.0,1513005.3961852002,-541742.307362,-1.0,326.12732389319,115370.40198756421,299.4535894007671,0.07130865467271676,3.8741297125809107,94.50000000000001,0.3780943422363498
1306893732.4,3.9278585,5.4395491,3190.3216244,-2.6,5.3,90.0,1513102.1809652,-541731.644632,-1.0,323.14111291970835,116250.79855350147,297.9368911075325,0.0706311657691818,3.8449150231352567,93.9,0.37808775868429384
1306893732.61,3.9282082,5.439556,3189.6326480000002,-2.5,5.4,89.9,1513194.8646952,-541721.3427944,-1.0,309.7902263253466,114138.37633064232,297.7122079700184,0.0703537992140315,3.776506220229683,91.0,0.3780745915801819
1306893732.82,3.9285717,5.4395634,3189.0092884,-2.5,5.5,89.9,1513291.2557744,-541710.6144476001,-1.0,321.8680236923228,115306.00852312823,299.66632030010163,0.07028928598847967,3.815704005999915,90.90000000000002,0.37805928099400515
1306893733.03,3.928937,5.439571,3188.484354,-2.5,5.6,89.8,1513388.0405543998,-541699.7548671999,-1.0,323.1599762450762,116503.794861694,298.2654601334535,0.07323863438215023,3.796482534797695,91.4,0.37804305177265785
1306893733.24,3.9293022,5.4395788,3188.0578448,-2.4,5.7,89.8,1513484.8253344,-541688.7640532,-1.0,323.17547133983754,116179.4876203621,300.1423107385155,0.07456302475997563,3.773227133335199,91.00000000000001,0.3780268225513105
1306893733.45,3.9296691,5.4395867,3187.7625692,-2.4,5.7,89.8,1513582.0038152002,-541677.7732392,-1.0,324.45115602705175,116446.8670496144,299.5462260396177,0.07660362759076601,3.7489198962051713,91.80000000000001,0.37801135885927195
1306893733.66,3.9300257,5.4395947,3187.5657188,-2.3,5.8,89.7,1513676.4263904,-541666.9464672,-1.0,315.4882136931465,115808.97345923704,298.35294689826634,0.07854069144786757,3.729666189038764,91.4,0.37799712001412766
1306893734.08,3.9307613,5.4396115,3187.4344852,-2.2,5.8,89.7,1513871.3410947998,-541644.4399048,-1.0,325.39019127782706,113819.23685930064,297.92916321038484,0.07929018106837726,3.741749190546407,91.9,0.37798448878053187
1306893734.29,3.9311196,5.43962,3187.500102,-2.2,5.8,89.6,1513966.1901792,-541633.4162823999,-1.0,316.89738875523733,114209.9202606432,296.5340033206672,0.08174666030668723,3.7028637264052096,90.80000000000001,0.3779740775819317
1306893734.51,3.9315107,5.4396294,3187.664144,-2.1,5.8,89.6,1514069.8319148,-541621.3099828,-1.0,330.21295169201176,116470.29506198243,296.70810764967644,0.08109709529332047,3.6905871485929245,90.80000000000001,0.3779660395241889
1306893734.72,3.9318673,5.4396381,3187.8609944,-2.1,5.8,89.5,1514164.25449,-541610.1879351999,-1.0,315.52792968299633,116916.17862606849,297.18865193038454,0.08122695388797845,3.738229718625499,88.9,0.3779602980543726
1306893734.93,3.9322377,5.4396473,3188.1234616,-2.0,5.8,89.5,1514262.3844144,-541598.6721867999,-1.0,327.61025040590073,121423.36401842807,297.67264281356734,0.08119457390301157,3.759073346809077,88.4,0.37795677661955196
1306893735.14,3.9325994,5.4396564,3188.4515456,-1.9,5.8,89.5,1514358.1193256,-541587.287672,-1.0,319.8233714563161,119503.609872443,295.9465402839925,0.08110363729408077,3.6789092636711924,85.60000000000001,0.37795547521972694
1306893735.35,3.932956,5.4396655,3188.7796296,-1.9,5.8,89.5,1514452.5747092,-541576.0671992,-1.0,315.6497352396634,118372.10192934024,295.6040626436185,0.07962454321475923,3.570550237764305,85.7,0.3779561641961049
1306893735.56,3.9333178,5.4396749,3189.1405219999997,-1.8,5.8,89.4,1514548.4080456002,-541564.5842592,-1.0,320.15752471111637,118922.2375533211,295.8370251998606,0.0793411338814041,3.514587946998017,87.30000000000001,0.37795869044282404
1306893735.99,3.9340604,5.4396945,3189.960732,-1.7,5.8,89.4,1514745.0615952,-541540.9294028,-1.0,320.8390870664986,117651.76479704308,296.1659891418356,0.0800370384965902,3.4505890114568905,85.60000000000001,0.37796381948919316
1306893736.21,3.934443,5.4397048,3190.3872411999996,-1.7,5.7,89.4,1514846.3739343998,-541528.6918696,-1.0,323.02252544941473,117565.48191646818,296.69276591151987,0.077405204400362,3.4637882996676534,85.5,0.3779704030412493
1306893736.44,3.9348395,5.4397156,3190.8465588000004,-1.6,5.7,89.3,1514951.3608144,-541515.9294019999,-1.0,320.26276752869745,116906.91879496315,296.9828275974063,0.07552571818424185,3.3864303357988166,83.09999999999998,0.37797836454606115
1306893736.87,3.9355944,5.4397366,3191.6995772,-1.5,5.7,89.3,1515151.1639703999,-541491.5199524,-1.0,325.88540855658266,116101.65199141065,296.3909474861214,0.07554683845182207,3.352144870846153,84.2,0.37798816332121427
1306893737.08,3.9359476,5.4397465,3192.0932780000003,-1.5,5.7,89.3,1515244.6679104,-541480.1026292,-1.0,312.5930375888087,112626.7662977282,295.84439769984033,0.07836941646725776,3.3926359845737877,81.1,0.37799849796688356
1306893737.3,3.9363372,5.4397576,3192.5197872000003,-1.4,5.7,89.2,1515347.81752,-541467.37297,-1.0,328.785151699049,116320.2266764258,296.64851434695976,0.07897214248785271,3.435029863416954,82.5,0.37800936848306904
1306893737.93,3.9374298,5.4397892,3193.7008896,-1.3,5.7,89.2,1515637.0563744,-541431.5461972,-1.0,322.1094778490155,114438.16415377756,297.24706332193307,0.07887695439887196,3.3667200035860487,86.4,0.3780223824813193
1306893738.35,3.938145,5.4398104,3194.4226744,-1.2,5.7,89.1,1515826.4264592,-541407.9569576001,-1.0,316.48207742978235,114815.58350723828,298.81940538395077,0.0756539011472266,3.4334273165115836,87.80000000000003,0.37803631511474
1306893739.0,3.9392741,5.4398444,3195.5053516,-1.1,5.7,89.1,1516125.2781747999,-541370.4897648,-1.0,322.5871044368097,116185.96153517393,298.7449333225501,0.07482021322645713,3.5668916733165847,88.70000000000002,0.3780520084655712
1306893739.22,3.9396551,5.439856,3195.8662440000003,-1.1,5.7,89.1,1516226.0655796,-541357.7601056,-1.0,321.4732376893599,113723.00131460762,297.78133630316705,0.07203658581804563,3.5864111142857342,88.60000000000001,0.3780677018164023
1306893739.44,3.9400378,5.4398678,3196.194328,-1.1,5.7,89.0,1516327.3451103999,-541344.9648296,-1.0,323.00672115351875,112166.27196015425,297.2987062186535,0.07098780037819145,3.6515988931711134,91.3,0.37808224687327024
1306893739.65,3.9403963,5.4398789,3196.522412,-1.0,5.7,89.0,1516422.29262,-541332.9569552,-1.0,317.3677432313413,112776.92925817738,296.81991919852175,0.07319491447470775,3.7032947444968176,88.9,0.3780965622713455
1306893740.29,3.9415082,5.4399137,3197.506664,-0.9,5.7,89.0,1516716.5511596,-541295.5553792,-1.0,322.62045257688135,114086.3714607669,297.96865507401947,0.07450126930904666,3.7687143374644,91.20000000000002,0.3781121025163149
1306893740.5,3.9418772,5.4399254,3197.834748,-0.9,5.7,89.0,1516814.1561496,-541283.0881871999,-1.0,326.0634120133715,114608.49603416739,299.16279082575977,0.07521196762853666,3.7874633341119472,90.1,0.3781264179143901
1306893740.92,3.9426081,5.4399487,3198.4909159999997,-0.8,5.7,88.9,1517007.6272844,-541258.3178452,-1.0,323.2301971494221,117380.03493734244,300.6614530179948,0.0731000213862246,3.7922266555539528,91.5,0.3781413457359124
1306893741.78,3.9440927,5.4399967,3199.7704436,-0.7,5.7,88.9,1517400.5078744,-541207.8257176001,-1.0,320.62793483924037,117161.52198250404,301.00157732392887,0.07324090410914971,3.728262162916427,90.4,0.3781582639336377
1306893742.41,3.9451929,5.4400328,3200.7546956,-0.7,5.7,88.9,1517691.5839992,-541170.1616744,-1.0,324.20018551930735,116766.92289672674,301.47957560924954,0.07414317496022689,3.7423703237516017,89.8,0.3781747228137777
1306893742.83,3.9459102,5.4400566,3201.3780552,-0.6,5.7,88.9,1517881.3477848,-541145.5553744,-1.0,317.20608191156384,115859.93254264671,300.1500049816223,0.07775234244903524,3.787703765172681,91.30000000000001,0.37819095203512504
1306893743.05,3.9462984,5.4400695,3201.7389476,-0.6,5.7,88.8,1517984.0708852,-541132.2023556,-1.0,327.5696263544828,116103.42725404144,301.24562590942605,0.07874083998213982,3.6866632953671474,91.2,0.3782054970919929
1306893743.91,3.9477853,5.4401194,3203.0512836,-0.5,5.7,88.8,1518377.4764095999,-541080.9556348,-1.0,321.07660896284966,114645.50362139598,301.10558845633926,0.07870030891785715,3.6760327895155847,91.9,0.37822226218385646
1306893744.78,3.9492932,5.4401706,3204.4292364000003,-0.5,5.7,88.8,1518776.3937452,-541028.724662,-1.0,321.82750035669324,112724.47667299537,299.8494039109559,0.07891272035325242,3.610213476701832,89.3,0.3782414769695082
1306893745.21,3.9500438,5.4401962,3205.0854044,-0.4,5.7,88.8,1518974.9829904,-541002.6091756,-1.0,324.10767882293186,111952.91267210375,302.34641734042293,0.07765024097131437,3.6145527583838635,88.69999999999999,0.3782614572844688
1306893745.84,3.9511273,5.4402335,3206.0696564,-0.4,5.7,88.7,1519261.6627896,-540964.9451323999,-1.0,319.4498832251628,110221.5429096192,300.8857770877839,0.0793745568669848,3.5410322273737243,86.1,0.37828143759942945
1306893746.72,3.952653,5.4402863,3207.4476092,-0.3,5.7,88.7,1519665.2061096,-540911.7299076001,-1.0,321.87599816234865,109664.04280979809,299.44688768844077,0.07863732804408753,3.5347472538181894,85.0,0.37830386760817836
1306893748.89,3.9564179,5.4404181,3210.794066,-0.2,5.7,88.7,1520661.1379,-540779.8401396,-1.0,322.14872681555886,111184.5160272598,298.4041499688893,0.0800302053016513,3.527144762552949,84.3,0.3783325749572597
1306893751.91,3.9616504,5.4406035,3215.4856672,-0.1,5.7,88.7,1522045.2586792,-540595.5553568,-1.0,321.72521029331455,112504.09051334483,299.57125476439995,0.08007248079900185,3.5879348066635446,85.2,0.37836924381115294
1306893825.15,4.0895557,5.4451471,3329.3636235999998,-0.1,5.7,88.7,1555875.5091056002,-536060.54865,-1.0,324.20621152511217,113853.26658631636,298.873453269859,0.08190734253631453,3.669623569437365,82.2,0.3786693313002169
1306893850.1,4.1335133,5.4466755,3368.7337036,-0.1,8.7,88.7,1567501.9858556,-534501.8543744,-1.0,327.0070225831861,115794.92002802687,299.10439231006904,0.08053010987466562,3.636019597276676,79.4,0.37905982780065434
1306893851.36,4.1357277,5.446752,3388.1890848000003,-0.1,8.6,88.7,1568087.7470292,-534423.3438732,-1.0,326.41883530387247,115722.42402221756,299.0624124157614,0.07902139713342433,3.6691577903484434,78.7,0.37949487810686605
1306893851.57,4.1361041,5.4467649,3392.9134944,-0.1,8.0,88.7,1568187.2877147999,-534410.0236628001,-1.0,332.85172376786045,116349.79721026083,298.12628897942596,0.08008498257788141,3.767456765964324,79.10000000000001,0.3799378899178897
1306893852.01,4.136867,5.4467911,3402.067038,-0.1,7.0,88.7,1568389.0593748,-534383.0551580001,-1.0,322.2195164376701,115893.40971599893,300.228672204089,0.08004302288870921,3.8601341418998856,79.20000000000002,0.38039904477353276
1306893852.43,4.1376108,5.4468165,3409.8426287999996,-0.1,6.2,88.7,1568585.8113496,-534356.7756296,-1.0,328.92984606396277,116382.27235746823,298.7781369673637,0.07933762633843042,3.740545971685253,82.50000000000001,0.3808768116151775
1306893852.64,4.1379897,5.4468294,3413.2875108,-0.1,6.5,88.7,1568686.07382,-534343.3898023999,-1.0,335.03707722942846,116272.15340481061,300.95772371397726,0.07657292929218795,3.7584176351856025,85.5,0.3813603199266386
1306893853.29,4.139135,5.4468683,3423.4909232,-0.1,11.4,88.7,1568988.9281604,-534303.0354704,-1.0,327.1226005678122,114675.09948469872,302.2678127235059,0.07517397877624686,3.8411941133661323,87.80000000000001,0.38186442097650736
1306893853.93,4.1402734,5.4469068,3442.3557532,-0.1,19.2,88.7,1569290.1748892,-534262.9436056,-1.0,330.82674931994165,114751.65629131797,300.71994315201425,0.07227161387542352,3.800600843605074,87.8,0.38240473156268406
1306893854.14,4.1406425,5.4469193,3452.3295067999998,-0.1,21.2,88.7,1569387.7798792,-534249.9514792,-1.0,327.7634328486207,114804.82515173643,299.79884818456645,0.07281396581113234,3.8023345176594545,87.4,0.38295736717073303
1306893854.79,4.1417577,5.4469569,3496.063104,-0.1,25.0,88.7,1569682.7273952002,-534210.7126328,-1.0,321.8843945881747,115459.46537263304,299.7494748190073,0.07078781460629341,3.7751273580922433,87.6,0.38334633261255285
1306893855.86,4.1435857,5.4470173,3607.7100892000003,-0.1,26.4,88.7,1570166.3560196,-534146.9002948,-1.0,325.23753041695653,118110.55496181971,299.2761503209335,0.07036732829849043,3.6884117965096284,90.6,0.3839039441611093
1306893856.07,4.1439399,5.4470287,3633.5631084,-0.1,26.2,88.7,1570260.05681,-534134.6299532,-1.0,324.4170403337525,120754.06638064406,297.843777034389,0.0696686122467225,3.669074013927421,90.6,0.384476483531188
1306893856.51,4.1446872,5.4470522,3690.8793832,-0.1,25.6,88.7,1570457.72742,-534108.9737844,-1.0,327.71198408473157,121789.94236123364,299.6488490082471,0.06888482944871867,3.6154317578787527,88.40000000000002,0.3851717372494732
1306893856.72,4.1450501,5.4470634,3719.6195416,-0.1,25.2,88.7,1570553.7904152002,-534096.5722092,-1.0,334.3371815433514,122026.65847214343,298.92727513654995,0.06775378552355568,3.576361559488374,91.5,0.3859126930674959
1306893857.39,4.1462136,5.4470984,3813.6484160000005,-0.1,24.1,88.7,1570861.6972492,-534057.2021292,-1.0,336.38061663501196,118690.8386320005,298.8297816821409,0.06949863325976198,3.655292098598926,90.39999999999999,0.3868549065408118
1306893857.81,4.1469529,5.4471198,3873.5893628000003,0.0,23.5,88.7,1571057.30093,-534032.4317871999,-1.0,340.8703345703696,114164.06995471976,297.1766943509161,0.06969022708271276,3.6564737084459122,91.2,0.38792894416110923
1306893858.24,4.1477139,5.4471413,3934.6129868,0.0,23.1,88.7,1571258.7773143998,-534007.1693192,-1.0,342.5524047864455,109941.98829253447,296.933431034281,0.07142143622302735,3.599929892592648,92.30000000000001,0.3891215622713455
1306893858.87,4.1488432,5.4471724,4023.3269004,0.0,22.7,88.7,1571557.7274552002,-533969.997402,-1.0,346.25665891967543,106117.52823745416,298.4459343713462,0.0750721239347756,3.6254996615081034,91.9,0.390477161571433
1306893859.08,4.149211,5.4471822,4051.673358,-0.1,22.6,88.7,1571655.0371696,-533957.9567192,-1.0,337.8104486234764,105759.8775115181,299.1481554554973,0.0738257737909014,3.6217393343304454,91.9,0.39187563051281527
1306893859.73,4.1503882,5.4472132,4140.813780799999,-0.1,22.4,88.7,1571966.7169696,-533919.7021248,-1.0,348.83236997818625,109391.31747049591,299.40799214182124,0.07616986675266568,3.6645466846000683,93.4,0.3933800487105406
1306893860.57,4.1519169,5.4472521,4253.248167600001,-0.1,21.1,88.7,1572371.4742004,-533870.4895248,-1.0,349.7711334080362,113035.58584607086,298.42513862661787,0.07450645578900074,3.7828639826712593,94.0,0.39488630417860704
1306893861.43,4.1535041,5.447291,4359.6130004,-0.1,12.7,88.7,1572791.8482296,-533819.9317804,-1.0,352.62832611757847,117997.77463561762,300.3901946241941,0.07755880362528514,3.8692538444480578,95.00000000000001,0.396580420539062
1306893861.85,4.154296,5.4473099,4402.5920044,-0.1,8.7,88.7,1573001.4939056002,-533794.8661628,-1.0,356.3721377640151,122809.64638124742,300.2346786714073,0.07751715088971413,3.9228011269511964,95.00000000000001,0.39824108326872076
1306893862.28,4.1551079,5.4473289,4437.500142,-0.1,5.3,88.7,1573216.5201592,-533769.3412276,-1.0,354.4286890890946,124492.82624063201,298.9557594309956,0.07719910949984721,3.8881936188837156,93.4,0.3999161379493858
