timestamp,longitude,latitude,altitude,roll,pitch,yaw,u,v,heading,air_speed,engine_0,engine_1,temperature_in,humidity_in,pressure_in,heart_rate,oxygen_mask
1306893631.32,3.1802899,7.0335739,-3.28084,-1.0,-0.7,-1.0,1270664.8372492,23548.7868428,-1.0,172.28322021438876,958.0203922935096,958.0203922935096,297.7853120198718,0.07492691299237314,3.7646715112751696,83.19999999999999,0.3234630669158982
1306893632.58,3.1811981,7.0340873,119.3569592,-1.0,2.4,-1.0,1270885.2440804,23753.904959599997,-1.0,172.28322021438876,1198.7944340003612,1198.7944340003612,299.63311914714365,0.07476987532856767,3.7748221521913967,82.5,0.323342113285102
1306893633.01,3.1815218,7.0342703,119.5538096,-1.0,4.8,-1.0,1270963.78739,23826.9692664,-1.0,166.14464509704828,1856.7119504962118,1856.7119504962118,298.7626470156801,0.07525357529368386,3.8131774378849927,83.99999999999999,0.3233274916753032
1306893634.5,3.1826997,7.0349361,119.8490852,-1.0,8.2,-1.0,1271249.5157456,24092.9797736,-1.0,174.66899983781914,2676.101745996617,2676.101745996617,296.1365904922742,0.07653771106584348,3.8987260306890668,85.3,0.32332052535859285
1306893634.92,3.1830425,7.0351298,119.8490852,-1.0,8.6,-1.0,1271332.6850396,24170.3747892,-1.0,180.45234225927172,3289.9308052119886,3289.9308052119886,295.16773030790347,0.07651535965051362,4.015017877998056,84.99999999999999,0.3233176929001501
1306893635.36,3.1834127,7.0353391,120.17716920000001,-1.0,9.0,-1.0,1271422.4816304,24253.937784,-1.0,186.089553859882,3289.9308052119886,3289.9308052119886,295.1677303079034,0.07651535965051362,4.015017877998056,84.99999999999999,0.32331769290015017
1306893635.79,3.1837813,7.0355475,121.062996,-1.0,9.5,-1.0,1271511.9829456,24337.2055032,-1.0,189.84801849286617,2676.101745996617,2676.101745996617,296.1365904922742,0.07653771106584349,3.8987260306890668,85.3,0.32332052535859285
1306893636.22,3.1841549,7.0357587,122.83464959999999,-1.0,9.8,-1.0,1271602.6325547998,24421.588708,-1.0,192.39424881005493,1856.711950496212,1856.711950496212,298.7626470156801,0.07525357529368386,3.813177437884993,84.00000000000001,0.3233274916753033
1306893636.66,3.1845465,7.0359802,125.820214,-1.0,10.0,-1.0,1271697.6784896,24510.0729628,-1.0,197.27367084356288,1198.7944340003617,1198.7944340003617,299.63311914714365,0.07476987532856769,3.7748221521913967,82.5,0.323342113285102
1306893639.24,3.1869576,7.0373501,171.1942312,0.1,10.0,-1.0,1272282.3897944,25057.120224399998,-1.0,207.90375089869286,958.0203922935099,958.0203922935099,297.7853120198718,0.07492691299237317,3.7646715112751696,83.2,0.32346306691589816
1306893640.09,3.1877994,7.0378328,197.014442,0.1,10.2,-1.0,1272486.3924256,25249.7383408,-1.0,221.90957268256835,692.6521830135549,692.6521830135549,297.5550701881088,0.07497766770382609,3.776063664015957,83.0,0.3239304225589427
1306893640.51,3.1882238,7.0380774,211.6797968,0.2,10.2,-1.0,1272589.2467596,25347.277714,-1.0,227.22017045138404,831.991528063,831.991528063,296.14309896794407,0.07848386189293471,3.810311515033683,84.49999999999999,0.32414584250644934
1306893640.95,3.188673,7.0383372,228.2480388,0.2,10.1,-1.0,1272698.0066056,25450.886641200002,-1.0,230.03228510028038,1115.9122081617259,1115.9122081617259,298.01577091298725,0.07766737213733053,3.7862819330128645,85.80000000000001,0.3243994623664668
1306893642.22,3.1900013,7.0391127,282.8740248,0.5,9.9,51.6,1273019.5289256,25759.8761524,-1.0,236.99929828318682,1606.3842364706795,1606.3842364706795,298.49667623603085,0.07779570195774822,3.8037303378911034,84.20000000000002,0.32477985388002756
1306893642.64,3.19045,7.0393772,303.0183824,0.5,9.9,51.6,1273128.1247296,25865.158308,-1.0,243.46833435063957,2140.0916509099447,2140.0916509099447,299.6549984219693,0.07456643061207474,3.734625802133994,84.90000000000002,0.325207248893151
1306893643.06,3.1909045,7.0396464,324.146992,0.8,9.8,51.6,1273238.0328696,25972.277734,-1.0,247.22793534805703,2571.0244044029782,2571.0244044029782,298.6596923249284,0.07457575575615673,3.796257070711248,86.7,0.32568317846445455
1306893643.48,3.1913605,7.0399178,345.89896120000003,0.9,9.7,51.6,1273348.2362852,26080.2501784,-1.0,248.63843525976523,3202.990738455793,3202.990738455793,297.82332683560537,0.07269895383379427,3.848717910479269,88.2,0.3262077956998002
1306893643.9,3.1918247,7.0401956,368.1430564,1.1,9.4,51.6,1273460.50663,26190.6832528,-1.0,253.86657285452398,4006.173887470278,4006.173887470278,297.0633426455961,0.0727466935574634,3.942135625963537,89.6,0.3267801819640171
1306893644.33,3.1922999,7.0404812,390.4527684,1.3,9.1,51.6,1273575.2376048,26304.2331252,-1.0,254.0302404514797,4471.324312113456,4471.324312113456,297.19863692585983,0.0740823204445722,3.9602056851178373,92.4,0.3273976579045245
1306893644.75,3.1927765,7.0407691,411.90946199999996,1.5,8.8,51.6,1273690.3622804,26418.5703992,-1.0,261.31007923215753,5256.743658225254,5256.743658225254,298.18346967797146,0.07544115551232437,3.95095440749737,90.6,0.3279593267584178
1306893645.18,3.1932732,7.0410703,432.90683799999994,1.7,8.5,51.6,1273810.2113656001,26538.222634,-1.0,266.16587681419134,5740.856654716626,5740.856654716626,297.57863032289947,0.07568309690880588,3.932769135377598,90.9,0.3285097423314711
1306893645.62,3.1937805,7.0413791,452.5590696,2.0,8.2,51.6,1273932.7507396,26660.8276248,-1.0,265.893585997998,5896.983354327808,5896.983354327808,297.75788026667067,0.07211362019640984,3.9155710138173974,90.50000000000001,0.32907179395001884
1306893646.04,3.1942742,7.0416804,469.816288,2.3,8.0,51.6,1274051.87804,26780.4470512,-1.0,271.0200453748558,6288.02054793144,6288.02054793144,296.57399243767173,0.07409045252572369,3.827627682030163,87.30000000000001,0.32963545318011506
1306893646.47,3.1947874,7.0419944,485.6627452,2.6,8.0,51.6,1274175.6313248,26905.0533544,-1.0,275.1058639423719,6518.85709151441,6518.85709151441,297.19417757957666,0.07395079709410815,3.737909357116138,89.5,0.33010862684590686
1306893646.89,3.1953054,7.0423115,499.4750816,2.9,8.0,51.6,1274300.5985204,27030.9391852,-1.0,284.32518069015555,6581.499220378201,6581.499220378201,295.17712304191986,0.07396864808788016,3.705972751983146,91.6,0.3305670257960381
1306893647.31,3.1958196,7.0426264,511.0892552,3.2,7.8,51.6,1274424.6798892,27155.906380800003,-1.0,282.00181168881085,6564.9866758982425,6564.9866758982425,295.2346260976221,0.07411603181979742,3.6262790756654373,91.50000000000001,0.3310032243962131
1306893647.73,3.1963485,7.0429501,521.325476,3.5,7.9,51.6,1274552.3045652001,27284.384075200003,-1.0,289.94128453358064,6943.829040662198,6943.829040662198,296.0886639078269,0.07604041889198285,3.5956964431229546,91.20000000000002,0.3314125529176479
1306893648.15,3.1968824,7.0432762,530.67587,3.8,8.2,51.6,1274681.0775352002,27413.8132132,-1.0,292.27565988482985,6771.0057796452775,6771.0057796452775,294.09800091887956,0.07514542653111154,3.609349789248279,92.4,0.3317917961372454
1306893648.58,3.1974445,7.0436186,540.026264,4.1,8.5,51.6,1274816.7402692,27549.771222800002,-1.0,300.4095613621559,7123.487295832073,7123.487295832073,292.9625744667412,0.07478602271002822,3.5961230335989294,89.2,0.33214080094914394
1306893649.0,3.1979892,7.0439493,549.1798076,4.3,8.8,52.5,1274948.2691447998,27681.103248000003,-1.0,297.6312157894497,7392.093126614592,7392.093126614592,291.97748292548204,0.0754385933699885,3.561041524782582,91.8,0.33246109841196114
1306893649.44,3.1985787,7.0443058,559.5800704,4.5,9.1,52.6,1275090.5591756,27822.7371108,-1.0,307.0591231945214,8159.261275184261,8159.261275184261,292.0907856864572,0.0749589655592469,3.586832012463057,90.80000000000001,0.3327566692781028
1306893649.86,3.19915,7.04465,570.3740339999999,4.5,9.3,52.8,1275228.4856892,27959.515330399998,-1.0,311.38074244669303,8693.173079109494,8693.173079109494,292.3324540275439,0.07489703954303659,3.5516358052018107,88.4,0.333031570852906
1306893650.29,3.1997561,7.0450137,582.8084176,4.5,9.5,52.8,1275374.87677,28104.101949199998,-1.0,322.42190318697465,9356.211622971017,9356.211622971017,294.2735350446858,0.07461155311658736,3.570497960552795,90.60000000000002,0.33329521914686927
1306893650.71,3.2003444,7.0453654,595.8661608,4.5,9.5,53.1,1275517.0683756,28243.9969668,-1.0,320.1092635318771,9649.520172236742,9649.520172236742,295.2634995068992,0.07242371061394234,3.553075803379015,90.30000000000001,0.3335523604417074
1306893651.15,3.2009679,7.0457371,610.6955575999999,4.5,9.7,53.1,1275667.7901652001,28391.8316172,-1.0,323.57073230966336,9920.79182213218,9920.79182213218,295.23948830847075,0.07350786834729933,3.5173817629710125,89.0,0.33381187487740294
1306893651.58,3.2015819,7.0461011,626.2467392,4.6,9.7,53.4,1275816.14975,28536.7135116,-1.0,325.3686818173165,10679.958401786706,10679.958401786706,295.50934376428785,0.07540686474122406,3.499899394965424,86.1,0.33408057566480454
1306893652.0,3.2021945,7.0464622,642.5197056,4.5,9.7,53.4,1275964.3124843999,28680.479920399997,-1.0,331.8537097716081,11796.59598785023,11796.59598785023,293.6284934331661,0.072341726338874,3.589862849383893,84.9,0.33436336219148866
1306893652.43,3.2028307,7.046835,660.105008,4.4,9.6,53.7,1276118.2823056001,28829.003547199998,-1.0,336.05758345513124,13436.649551990273,13436.649551990273,293.5867622572686,0.07136932398153,3.4557988709652516,84.3,0.33466536350382464
1306893652.85,3.2034683,7.0472068,678.31367,4.2,9.6,53.8,1276272.6130192,28977.1662816,-1.0,344.28455282225275,14707.518892482933,14707.518892482933,296.0178184239736,0.06888842830802087,3.4285433132049925,85.10000000000001,0.3349880341074992
1306893653.28,3.2041209,7.0475853,697.4409672,4.0,9.5,53.9,1276430.5854652,29128.0849216,-1.0,343.4972695184489,15470.321784705011,15470.321784705011,295.7872939549316,0.0669377019431898,3.4521765118367753,82.70000000000002,0.3353339768021623
1306893653.72,3.2048073,7.0479815,718.011834,3.8,9.5,53.9,1276596.7928196,29286.1229844,-1.0,352.59638588947837,15997.909080601292,15997.909080601292,297.1957048696863,0.06655128490504275,3.4333905095454234,85.20000000000002,0.33570365090539944
1306893654.14,3.2054654,7.0483596,738.0577664,3.6,9.5,53.9,1276756.2088352002,29437.0416244,-1.0,353.64689839911733,16106.133844995085,16106.133844995085,298.64627144971945,0.06953861745423287,3.488370235556121,88.10000000000002,0.3360949129351457
1306893654.56,3.2061352,7.048743,758.7926752,3.3,9.5,53.9,1276918.51199,29590.027193600003,-1.0,359.45841371799474,16224.6481330322,16224.6481330322,297.19951138622986,0.06680899432152013,3.490041937925656,88.4,0.33650554285640555
1306893654.99,3.2068193,7.049133,780.6102612,7.1,12.1,53.9,1277084.2928352,29745.801476800003,-1.0,358.196335467609,17233.832298422516,17233.832298422516,296.85090933756015,0.06868254970873636,3.501054545580074,89.9,0.33693661241021133
1306893655.41,3.2075058,7.0495191,806.0367712,27.9,15.8,55.2,1277250.7954652,29900.1978072,-1.0,366.8378281770157,18795.238760775523,18795.238760775523,298.171353702545,0.06852419401501508,3.5801870207097632,88.39999999999999,0.3373924085606926
1306893655.84,3.2081961,7.0498879,836.8438588,39.6,18.8,57.2,1277418.84009,30048.3277332,-1.0,354.7438311461119,20084.20026322579,20084.20026322579,297.5568776974587,0.06836497902647218,3.6143197593825023,91.00000000000001,0.3378838018240346
1306893656.26,3.2088972,7.0502318,873.3267996,42.8,20.8,59.7,1277590.3624052,30187.5993912,-1.0,360.18708721263033,22821.602901756938,22821.602901756938,297.35487331677723,0.06937902252004556,3.5266179323057063,94.10000000000002,0.338422351692801
1306893656.68,3.2096092,7.0505471,915.0918928000001,48.7,22.7,62.6,1277765.3952192,30316.6676368,-1.0,356.67536997258304,25184.08800791189,25184.08800791189,299.250117596119,0.07126290003070683,3.594062921162451,93.4,0.33901732107162863
1306893656.89,3.2099697,7.0506931,937.7624972,51.5,23.6,64.1,1277854.4700252002,30377.0679012,-1.0,354.71826171568085,27666.782141163767,27666.782141163767,297.0893214920327,0.07296603460145287,3.5200017003091317,92.60000000000001,0.33962270164905656
1306893657.32,3.2107008,7.0509593,986.1220787999999,54.7,24.9,67.6,1278035.8348604,30488.6164612,-1.0,344.3474864900428,31820.38780173598,31820.38780173598,298.9681207968885,0.07494636971310417,3.554287727287069,94.9,0.34029629088790164
1306893657.74,3.2114339,7.0511874,1037.237566,56.4,25.7,71.0,1278218.8401156,30586.319876399997,-1.0,345.6653036614963,35674.63831870493,35674.63831870493,298.44400616903226,0.07457699755218669,3.568638666006302,92.1,0.34104115090539944
1306893658.18,3.2121916,7.0513837,1092.1588276,58.5,26.6,74.6,1278409.1288356,30672.9340524,-1.0,334.5019179479875,38314.682775908295,38314.682775908295,296.4963096506566,0.07462744293676947,3.5793185843491235,92.9,0.34186738668842653
1306893658.61,3.2129174,7.0515349,1146.2926876,59.8,27.2,78.1,1278592.3637496,30742.5206688,-1.0,322.6775197923159,40422.9801177345,40422.9801177345,296.37665488561254,0.07817273168461832,3.6419755585288587,93.30000000000001,0.3427715533550932
1306893659.05,3.2136697,7.0516546,1203.6745792,60.6,27.6,81.7,1278783.3742544,30801.1164712,-1.0,323.09155335693475,41460.65312532812,41460.65312532812,295.45898787890053,0.07646358561629073,3.6213861041351243,92.8,0.34375870339883774
1306893659.48,3.2143908,7.0517345,1259.7113264,61.4,28.1,85.4,1278967.39657,30844.6204096,-1.0,314.41579101798015,39961.310788399416,39961.310788399416,296.1318551710971,0.07649753292111187,3.552408080433204,93.50000000000001,0.3448172773270967
1306893659.9,3.215092,7.0517798,1315.0590972,61.9,28.5,88.8,1279147.2194104,30875.033796399995,-1.0,311.78992474689306,39919.205362162895,39919.205362162895,296.66665422703744,0.0749834148950637,3.561913036570514,91.10000000000001,0.3459331128476566
1306893660.33,3.2157887,7.0517926,1370.8333771999999,62.2,28.9,92.3,1279326.8454004,30893.5705424,-1.0,302.7579688973458,39510.19043159323,39510.19043159323,296.8609163707991,0.07366967320774939,3.544801570129612,89.00000000000001,0.3470939614915761
1306893660.75,3.2164465,7.0517745,1424.3110692,62.4,29.3,95.8,1279497.3506552002,30900.099414,-1.0,294.0352738351582,39051.44565306024,39051.44565306024,296.56978415286244,0.07306339068777136,3.570455857491962,87.70000000000002,0.34828213953182113
1306893661.17,3.2170916,7.0517271,1477.5591024,62.6,29.7,99.2,1279665.2968547998,30895.7030884,-1.0,290.5080587101345,39255.41875465874,39255.41875465874,298.59571283396775,0.07173109318413506,3.685787797461703,90.80000000000001,0.3495416649036497
1306893661.6,3.2177345,7.0516493,1531.5617287999999,62.6,29.7,102.9,1279833.6367552,30880.1519068,-1.0,286.4560080477536,40526.882062176875,40526.882062176875,298.10410857733206,0.07246093404399319,3.698545537796981,89.3,0.3508143573795902
1306893662.03,3.2183598,7.0515432,1585.0066124,62.1,29.7,106.2,1279998.1052644,30853.905186800002,-1.0,283.02745327431273,40969.05146297412,40969.05146297412,296.27599743744037,0.07326443185086283,3.5850860367735446,92.10000000000002,0.35209248511362345
1306893662.5,3.2190209,7.0513964,1642.716588,61.3,29.7,110.0,1280173.0068448,30813.5836632,-1.0,287.1060088670532,41632.444326972436,41632.444326972436,298.0461081966767,0.06992371499946283,3.595665810639075,90.60000000000002,0.3533771198467818
1306893662.94,3.2196173,7.0512319,1696.1286632000001,60.7,29.6,113.4,1280331.7010756,30765.5193572,-1.0,284.7424448956865,41811.12529174854,41811.12529174854,297.59123154171743,0.0680512574172659,3.559129818320383,88.20000000000002,0.35466007041546066
1306893663.36,3.2201659,7.0510518,1746.5879824,60.0,29.6,116.6,1280478.5186656,30710.794945999998,-1.0,283.0791925034123,40887.47425676434,40887.47425676434,297.69021088777384,0.0679079787258011,3.661582137288617,85.80000000000001,0.35592686831572307
1306893663.79,3.2207089,7.0508444,1798.0643619999998,59.3,29.6,119.7,1280624.6472792,30646.0311644,-1.0,283.07313638009833,40335.37017542843,40335.37017542843,295.9699239117965,0.06951330410903474,3.70934636120053,85.9,0.35718302535859275
1306893664.22,3.2212274,7.0506168,1848.9501903999999,58.7,29.6,123.0,1280765.0016144,30573.426175200002,-1.0,280.9445552051487,39378.84649402859,39378.84649402859,295.9202698722829,0.07093503205552051,3.7336811212061507,87.30000000000001,0.35842877120286226
1306893664.65,3.2217295,7.0503663,1900.1641028,58.1,29.6,126.0,1280901.7470256002,30492.12696,-1.0,283.5259970081432,38913.692146737565,38913.692146737565,296.93674190936133,0.07346611559153962,3.7228240744185053,88.00000000000001,0.3596638761897389
1306893665.07,3.2222062,7.0500979,1950.9186975999999,57.6,29.6,129.0,1281032.4884996,30403.8395556,-1.0,288.2872639249722,38509.58852800962,38509.58852800962,297.1401831021811,0.07554826638188586,3.6772983331095,87.80000000000001,0.36089262728335214
1306893665.49,3.2226522,7.0498164,2000.6890403999998,57.2,29.3,131.9,1281155.6184248,30310.1387652,-1.0,283.78674643977536,37669.02181085269,37669.02181085269,297.53775467180117,0.07799166215553137,3.691118902287257,85.6,0.3621132637662918
1306893665.91,3.2230722,7.0495207,2050.032874,56.8,29.3,134.8,1281272.3835204,30210.729313199998,-1.0,282.0354073594715,37121.931017142466,37121.931017142466,298.37504444944,0.07501782535208847,3.706425128183654,87.2,0.3633230297330459
1306893666.35,3.2234933,7.0491899,2102.362272,56.5,29.3,137.8,1281390.4937604,30098.557393600004,-1.0,286.1607603649504,36626.43521909702,36626.43521909702,298.2628145547965,0.07705244162520689,3.6832642811424248,84.7,0.3645301929001501
1306893666.77,3.2238705,7.0488591,2152.3294652,56.3,29.3,140.7,1281497.2194856,29985.4996472,-1.0,286.62483193255207,36206.93136827818,36206.93136827818,295.8753575797473,0.07936075076523612,3.632916820549639,84.30000000000001,0.36571928957556565
1306893667.21,3.224236,7.0485013,2204.1667372,56.1,29.3,143.6,1281601.8126647999,29862.4025304,-1.0,284.79726020886454,36230.48020410324,36230.48020410324,295.2080623001563,0.08118138646865745,3.656575334891616,86.00000000000001,0.3669047117102988
1306893667.65,3.2245784,7.0481256,2256.5617519999996,55.9,29.3,146.5,1281700.7627992,29732.317224399998,-1.0,288.2303612338878,36187.83459323374,36187.83459323374,294.45727207972635,0.0801398749082872,3.6233282163586416,88.50000000000001,0.3680946504679541
1306893705.11,3.1750344,7.0259397,3016.896422,55.9,29.3,238.0,1269519.5944304,20662.4350444,-1.0,284.2490962381891,36040.783275412,36040.783275412,295.0859984966652,0.07992058294311633,3.5911921439604,91.10000000000002,0.3709385918502813
1306893705.32,3.1745324,7.0257207,3018.0119076,55.9,29.3,237.0,1269396.0708044,20572.704070400003,-1.0,502.5215534602133,33944.9104855386,33944.9104855386,295.9913707069914,0.0799211559073127,3.6106706838874096,91.00000000000001,0.37366640243645804
1306893705.54,3.1740287,7.0254928,3019.1273932,55.9,29.3,236.0,1269272.2190943998,20479.659448,-1.0,487.29499969509334,77454.40835225614,77454.40835225614,295.2696275332183,0.08079224053181204,3.69673938568242,90.8,0.37627731669717546
1306893705.75,3.1735306,7.0252591,3020.2428788,55.9,29.3,235.2,1269150.0078043998,20384.646321599997,-1.0,510.16009711257647,149894.52338201218,149894.52338201218,294.7758392201097,0.07733534636557285,3.7690034109417585,92.9,0.3787724063734659
1306893705.97,3.1730382,7.0250196,3021.325556,55.9,29.3,234.2,1269029.4369344,20287.6318828,-1.0,487.57729821255117,234894.87324453762,234894.87324453762,291.9982702487348,0.07693956461103842,3.6951233085071986,95.10000000000001,0.3811538915003251
1306893706.19,3.1725269,7.0247618,3022.47385,55.9,29.3,233.2,1268904.4369304,20183.5308296,-1.0,512.4682686419193,315242.2739349939,315242.2739349939,289.8230438477515,0.07898993422729518,3.6712377485646797,95.2,0.38342292037171616
1306893706.4,3.1720689,7.0245224,3023.5237188,55.9,29.3,232.3,1268792.6915199999,20087.2381756,-1.0,487.6531777679448,331705.6685671379,331705.6685671379,291.69097225062154,0.07677917059351558,3.802789636259653,96.8,0.38557229701213613
1306893706.63,3.1715615,7.024248,3024.6720127999997,55.9,29.3,231.3,1268669.2663192,19977.198802,-1.0,499.27148860998864,271091.41940589703,271091.41940589703,293.25086868774406,0.07688626856944156,3.842159913965433,98.30000000000001,0.38760776289140125
1306893706.84,3.1710873,7.023982,3025.7546899999998,55.9,29.3,230.3,1268554.1088352,19870.8667776,-1.0,518.3555172644577,208152.9327411774,208152.9327411774,294.7322502450855,0.07683361544411463,3.885864367256416,98.7,0.38952480138658935
1306893707.05,3.1706494,7.0237281,3026.7717503999997,55.9,29.3,229.5,1268448.0064696,19769.685672,-1.0,485.85549360355213,150468.12905089578,150468.12905089578,294.6428300358839,0.07662883639339313,3.8216247558489354,96.99999999999999,0.3913219579920135
1306893707.26,3.17019,7.0234527,3027.8216192,55.9,29.3,228.5,1268336.8516104,19660.236849599998,-1.0,516.6366490704113,87436.01246067078,87436.01246067078,294.9604091315165,0.07429422380198027,3.904871027539287,95.7,0.3913474501179979
1306893707.48,3.1697416,7.0231746,3028.871488,55.9,29.3,227.5,1268228.6823156,19550.0006256,-1.0,489.2021266803617,94684.18736204252,94684.18736204252,293.48785623863444,0.07358359992823789,3.922988387219736,95.7,0.39137278913812035
1306893707.7,3.1692978,7.02289,3029.9213568,55.9,29.3,226.6,1268121.9565904,19437.500622,-1.0,491.5041740994271,94743.1642536499,94743.1642536499,292.9298918602598,0.07109832763262675,3.956721298328961,97.2,0.39139797505238105
1306893707.91,3.1688609,7.0226002,3030.9712256000003,55.9,29.3,225.7,1268017.0681356,19323.2617732,-1.0,514.772916916812,92829.0196708994,92829.0196708994,291.96727935856984,0.07216555400584874,3.9427470764503663,97.19999999999999,0.39142300786078005
1306893708.12,3.1684489,7.0223177,3031.988286,55.9,29.3,224.7,1267918.5445104,19212.1397224,-1.0,493.8005631872167,96005.92342639097,96005.92342639097,292.5209701517875,0.07318987773331126,3.8878376796747762,94.0,0.3914478875633172
1306893708.34,3.1680221,7.0220152,3033.0381548,55.9,29.3,223.7,1267816.64162,19093.471739599998,-1.0,496.7180755033344,98883.4959775688,98883.4959775688,294.7393758947575,0.07234545736872222,3.8842425615425094,93.5,0.3914725376070617
1306893708.56,3.1675836,7.0216935,3034.1208319999996,55.9,29.3,222.8,1267712.2780996,18967.5859088,-1.0,519.073267336818,95412.99159874622,95412.99159874622,294.99991926505174,0.07284306405398876,3.831949999654759,91.8,0.3914972642037371
1306893708.77,3.1671946,7.0213983,3035.1050840000003,55.9,29.3,221.9,1267619.8896452,18852.2971912,-1.0,492.33194338582683,107303.80754556178,107303.80754556178,293.34499136313536,0.07228237196600311,3.86833992714836,90.3,0.3915216080357582
1306893708.99,3.1667903,7.0210811,3036.1549528,55.9,29.3,220.9,1267524.2531592,18728.707948400002,-1.0,497.30774716284867,109632.98683806129,109632.98683806129,291.9807134826538,0.07009655526682955,3.7422597891442275,90.8,0.3915458753148483
1306893709.21,3.1663956,7.0207607,3037.1720132,55.9,29.3,220.0,1267431.14292,18604.1344536,-1.0,495.33192401522086,104764.41095017924,104764.41095017924,291.84579846383826,0.07190267537400338,3.7197910632952906,90.6,0.39157014259393835
1306893709.42,3.1660104,7.0204372,3038.1890736,55.9,29.3,219.0,1267340.6245444,18478.609515199998,-1.0,516.116931306013,111776.17044917855,111776.17044917855,292.8755634246208,0.07242923234466299,3.626011029121004,89.2,0.3915943333200975
1306893709.63,3.1656383,7.0201137,3039.206134,55.9,29.3,218.0,1267253.3542004,18353.379852399998,-1.0,509.55659901272827,112462.65683759272,112462.65683759272,293.5416090423567,0.07365358547294412,3.4845198533990933,88.9,0.39161844749332597
1306893709.84,3.1652908,7.0198016,3040.1575776,55.9,29.3,217.1,1267172.2518356,18232.7433656,-1.0,486.2795532524465,112764.3673856973,112764.3673856973,295.77202303102956,0.07528459146336938,3.4470447613288093,87.4,0.3916423320077616
1306893710.06,3.1649189,7.0194558,3041.2074464,55.9,29.3,216.2,1267085.7360848,18099.3772196,-1.0,507.2916878595214,117894.96911841356,117894.96911841356,297.24990660569773,0.07765846169358934,3.4596032597564537,85.80000000000001,0.39166621652219724
1306893710.27,3.1645718,7.0191215,3042.1916984,-59.9,29.3,215.3,1267005.3555047999,17970.7026748,-1.0,507.52674130353773,123819.43074203606,123819.43074203606,297.2572374743821,0.07731347133033967,3.4926772600619462,85.7,0.39169002448370216
1306893710.48,3.1642341,7.0187849,3043.1759503999997,-59.2,4.9,214.3,1266927.4355547999,17841.339153599998,-1.0,505.5596803417629,124551.740249052,124551.740249052,296.95820280083717,0.07722937261303596,3.4531881036610113,87.20000000000002,0.3917136793393452
1306893710.69,3.163904,7.0184446,3044.127394,-57.8,4.7,213.5,1266851.5497256,17710.79453,-1.0,505.78193089036097,125991.29484158197,125991.29484158197,296.5885843253732,0.07537331283129632,3.5079426010629433,86.80000000000001,0.39173702798326476
1306893710.9,3.1635842,7.0181042,3045.0788376,-55.7,4.4,212.7,1266778.3541852,17580.4139484,-1.0,501.2617108357783,129293.95190898432,129293.95190898432,298.51167481182915,0.07700254649410394,3.47057945357178,85.20000000000002,0.39176030007425333
1306893711.11,3.1632709,7.0177608,3045.9646644,-53.4,4.1,212.0,1266706.9959152,17449.1147316,-1.0,501.23336204738905,132892.2349411824,132892.2349411824,300.9047592029263,0.07602979473648078,3.5781863652307244,83.4,0.39178318940058754
1306893711.32,3.1629667,7.0174181,3046.7848744,-50.9,3.8,211.3,1266637.9014247998,17318.1764072,-1.0,496.9487189938682,128805.32886263738,128805.32886263738,301.41288445680374,0.07662618311320485,3.5937252979956456,82.8,0.39180561940933645
1306893711.54,3.1626549,7.0170581,3047.6050843999997,-48.3,3.6,210.7,1266567.2649396,17180.8076364,-1.0,495.1685703400752,129278.77062198728,129278.77062198728,300.49468139036213,0.077964804840077,3.6673319245811453,83.4,0.39182759010050006
1306893711.76,3.1623345,7.0166789,3048.3924859999997,-45.8,3.5,210.1,1266495.0864596,17036.2866344,-1.0,517.2910725087253,126917.45595281046,126917.45595281046,301.27562573691006,0.07734119366449417,3.7629317358996803,85.80000000000001,0.3918490249211474
1306893711.97,3.1620376,7.0163195,3049.0814624,-43.4,3.3,209.6,1266428.2229404,16899.442798,-1.0,511.29254760146,126450.66859028365,126450.66859028365,299.7185612676327,0.07750972189715545,3.6853399963431457,86.80000000000001,0.39186984731834784
1306893712.18,3.1617601,7.015977,3049.6392052,-40.8,3.2,209.1,1266366.1166392,16769.1278332,-1.0,485.6681918239857,131470.63485700035,131470.63485700035,298.93091299113377,0.07734397633570907,3.681369801507063,86.0,0.39188952142158484
1306893712.39,3.1614689,7.0156108,3050.2297564,-38.4,3.1,208.7,1266300.9919652,16629.921792,-1.0,516.0595440043106,129050.28773173418,129050.28773173418,299.8998266668548,0.07467895534755067,3.6952191671501073,89.0,0.39190827688965135
1306893712.61,3.1611709,7.0152295,3050.7546908,-35.8,3.0,208.3,1266234.5549552,16485.072706,-1.0,511.08588031509356,140358.21048503197,140358.21048503197,297.85816480996175,0.07455389120921029,3.694857254245188,85.19999999999999,0.39192596061668544
1306893712.82,3.1608938,7.014869,3051.2140084,-33.4,2.9,207.9,1266172.94078,16348.1960612,-1.0,504.68030999031424,143178.03446071106,143178.03446071106,297.17575210094225,0.07774739795923664,3.6922201921629823,85.2,0.3919424960497564
1306893713.04,3.1606186,7.0145056,3051.6405176,-31.0,2.8,207.6,1266111.9499644,16210.3351644,-1.0,484.6436911451064,135893.62519513306,135893.62519513306,296.5997753392161,0.075944423373471,3.635668961395601,85.9,0.3919578066359331
1306893713.26,3.1603283,7.014117,3052.0670268,-28.7,2.8,207.2,1266047.6455003999,16062.9598316,-1.0,515.8372040939211,132507.72536443546,132507.72536443546,295.32327457587877,0.07755546940887145,3.6175051066866626,85.5,0.3919720454810775
1306893713.47,3.160055,7.0137463,3052.4607276,-26.7,2.7,207.0,1265987.3764696,15922.4742628,-1.0,513.9357715202036,136958.79581589453,136958.79581589453,295.66598385115674,0.07538606900767134,3.723055135922988,85.19999999999999,0.39198528913812036
1306893713.68,3.1597982,7.0133938,3052.82162,-24.6,2.7,206.7,1265930.7819796,15788.944074800002,-1.0,488.56787039442366,129977.21214645408,129977.21214645408,295.1043037587399,0.07346873977544512,3.7215468699041243,83.99999999999999,0.39199746105413086
1306893713.89,3.1595285,7.0130196,3053.1825124,-22.8,2.7,206.5,1265871.5300092,15647.2445952,-1.0,516.4246465208253,125260.27587827171,125260.27587827171,295.7017782612542,0.07487258445901439,3.678343044177798,84.0,0.39200863778203987
1306893714.11,3.1592523,7.0126325,3053.5762132,-20.8,2.6,206.3,1265810.8344692,15500.722280799999,-1.0,509.33438602485097,139726.63788020902,139726.63788020902,295.2730483029354,0.0749184360866889,3.782457886870544,84.10000000000002,0.3920191255335709
1306893714.32,3.1589931,7.0122656,3053.9699140000002,-19.0,2.6,206.1,1265754.0103204,15361.877132,-1.0,504.97571889046355,138024.39267436677,138024.39267436677,296.90890819519063,0.07429147772763545,3.787670733022238,87.60000000000001,0.3920292305204476
1306893714.53,3.158738,7.0119016,3054.3636148,-17.4,2.6,205.9,1265698.1376152001,15224.1802772,-1.0,500.4075915444207,134992.75405554826,134992.75405554826,297.74917131176403,0.07544777020313637,3.740904182307164,88.50000000000001,0.39203887618973887
1306893714.75,3.1584723,7.0115196,3054.8229324,-15.7,2.6,205.7,1265640.0995556,15079.692083599999,-1.0,500.56263341832704,138704.4585235285,138704.4585235285,298.9557018735199,0.07784591974390849,3.7813072206596594,89.30000000000001,0.39204836875316845
1306893714.97,3.1582117,7.0111422,3055.28225,-14.1,2.6,205.6,1265583.3082152,14937.041160400002,-1.0,493.8931694758282,138599.56732434194,138599.56732434194,298.6104406838633,0.07680602012595798,3.7040224256060257,92.30000000000003,0.3920578613165981
1306893715.18,3.1579538,7.0107662,3055.774376,-12.6,2.6,205.4,1265527.0418092,14794.9151716,-1.0,514.3601269044503,119333.11129696653,119333.11129696653,299.68552417818563,0.07642444176480355,3.6859875270683236,93.50000000000001,0.3920675069858893
1306893715.39,3.157697,7.0103898,3056.2993103999997,-11.3,2.6,205.3,1265471.1362956,14652.690757600001,-1.0,514.2661656880357,124258.3602149068,124258.3602149068,299.9066314884868,0.07466703872875087,3.694614056302885,95.9,0.3920773823139734
1306893715.61,3.1574402,7.0100113,3056.8570532,-10.0,2.6,205.2,1265415.2635903999,14509.6461336,-1.0,494.08762284980423,132772.31817588906,132772.31817588906,298.9567638587958,0.07658219335977057,3.6967910085253206,99.2,0.3920876404067117
1306893715.82,3.1571878,7.0096378,3057.4476044,-8.7,2.6,205.1,1265360.4079456,14368.537205199998,-1.0,509.7139960276328,125692.40836570274,125692.40836570274,299.77427628396407,0.07734575952260558,3.6341263174195424,102.5,0.39209843436996633
1306893716.03,3.1569363,7.0092639,3058.070964,-7.6,2.6,205.0,1265305.7819596,14227.3298516,-1.0,509.76855819702337,139070.12602075934,139070.12602075934,298.23917571558655,0.07445931225237842,3.637933398460583,99.89999999999999,0.392109840756668
1306893716.24,3.1566938,7.0089023,3058.6943235999997,-6.4,2.6,205.0,1265253.0916692,14090.715674000001,-1.0,493.61677617486174,144596.23330170117,144596.23330170117,298.76266835598767,0.07309929170776999,3.572316109696196,99.2,0.3921217830138859
1306893716.46,3.1564295,7.0085068,3059.4161083999998,-5.3,2.6,204.9,1265195.7753943999,13941.4046456,-1.0,513.8966311923105,133186.5719352214,133186.5719352214,298.38768436312273,0.07249657061000316,3.5058434769453446,96.20000000000002,0.3921344908004125
1306893716.67,3.1561857,7.0081413,3060.1050848,-4.4,2.6,204.9,1265142.9538704,13803.346898400001,-1.0,498.18521323814645,135238.5669265761,135238.5669265761,296.9122206804593,0.07128566892774785,3.531411709476171,93.20000000000002,0.39214788756331714
1306893716.9,3.1559188,7.0077402,3060.9252948,-3.3,2.6,204.8,1265085.0470444,13651.936132399998,-1.0,498.8125473192455,132324.2033513828,132324.2033513828,296.55043605190025,0.0708521638531886,3.604331638260741,94.60000000000001,0.39216212640846154
1306893717.11,3.1556723,7.0073691,3061.679888,-2.5,2.7,204.8,1265031.6349692,13511.811456,-1.0,505.1559357508282,120045.24663422398,120045.24663422398,296.9766040645386,0.07045598629608667,3.6255210864238254,93.60000000000001,0.39217705422998383
1306893717.33,3.1554026,7.0069626,3062.5329064000002,-1.6,2.7,204.8,1264973.2688256002,13358.3337608,-1.0,527.1651172171876,125008.39032225241,125008.39032225241,295.6660491791225,0.0727431816923507,3.614317903840296,92.3,0.392192824133746
1306893717.54,3.1551636,7.0066019,3063.3203080000003,-0.8,2.7,204.8,1264921.4971703999,13222.1789008,-1.0,491.235088939991,138313.9704919427,138313.9704919427,296.7263480488703,0.07406147754937045,3.611796555379386,92.20000000000002,0.39220920646095503
1306893717.75,3.1549118,7.0062218,3064.2061348,-0.2,2.7,204.8,1264866.9696096,13078.6749592,-1.0,516.7107033809525,127973.24205783599,127973.24205783599,299.0714991888045,0.07428804557446966,3.5456810938711394,89.10000000000001,0.39222635431747294
1306893717.96,3.1546706,7.0058576,3065.0263448,0.6,2.7,204.8,1264814.67302,12941.174954799999,-1.0,495.9198415438799,140902.5821727249,140902.5821727249,299.4579368870908,0.07344968536684988,3.6002139999902387,88.70000000000002,0.39224403804450697
1306893718.17,3.1544271,7.0054899,3065.9121716,1.2,2.7,204.8,1264761.9827296,12802.362614399999,-1.0,500.366085066411,143241.36757787896,143241.36757787896,299.0675492390079,0.0760162284115303,3.5722091686468516,90.5,0.3922623341949882
1306893718.59,3.1539304,7.0047405,3067.7166336,2.3,2.7,204.8,1264654.3383692,12519.4557812,-1.0,509.6707470893919,128596.16966179492,128596.16966179492,298.7556639540193,0.07630968351880874,3.628751578174198,91.80000000000003,0.3922833862509812
1306893719.02,3.1534272,7.0039825,3069.6195208,3.4,2.7,204.9,1264545.3488643998,12233.268108,-1.0,503.86233094268533,128707.0247864498,128707.0247864498,298.4071757145999,0.07563585251237594,3.6084233267230124,91.4,0.39230719421248605
1306893719.44,3.152936,7.0032444,3071.4895996,4.3,2.7,204.9,1264438.8199896,11954.5935584,-1.0,502.5856449060817,124923.48575531557,124923.48575531557,298.54087339758587,0.07576081783710426,3.6120493820584234,90.7,0.39233375807950266
1306893719.65,3.1526852,7.0028684,3072.4738516,4.7,2.7,205.0,1264384.3580456001,11812.6316116,-1.0,511.91192713484514,118418.56259783234,118418.56259783234,298.6301715768615,0.07615293095206882,3.595033961642944,91.2,0.3923607047111737
1306893719.88,3.152421,7.0024732,3073.5237204,5.1,2.7,205.0,1264327.0745792,11663.3862,-1.0,492.1459112779785,125057.02597570569,125057.02597570569,299.6110669239643,0.07683698620699621,3.5371832551601465,88.9,0.39238834031922265
1306893720.09,3.1521682,7.0020959,3074.5079724,5.4,2.7,205.1,1264272.2189344,11520.8665104,-1.0,514.043147826548,130250.08897030915,130250.08897030915,299.4151029759453,0.07377693389368939,3.639760064435298,91.9,0.39241628213899526
1306893720.3,3.151915,7.0017186,3075.4922244,5.8,2.7,205.1,1264217.1664392,11378.3796292,-1.0,514.1530984423453,129397.64001642434,129397.64001642434,297.5475501033512,0.07510481757687891,3.5386641118507725,92.0,0.392444683276353
1306893720.51,3.1516719,7.0013574,3076.4764764,6.0,2.7,205.2,1264164.3449152,11241.962302,-1.0,493.1600089500193,141039.43632053112,141039.43632053112,297.1496335128588,0.07331842892631549,3.49065061225649,92.30000000000001,0.3924733140725036
1306893720.74,3.1514011,7.0009559,3077.5263452,6.4,2.7,205.2,1264105.4866456,11090.2890688,-1.0,500.47920629514124,132357.36606759296,132357.36606759296,295.68197611163265,0.07434739106500796,3.527201859429531,92.10000000000001,0.39250248073917016
1306893720.95,3.1511416,7.0005722,3078.576214,6.6,2.7,205.3,1264049.0233892,10945.341557599999,-1.0,523.2117252597004,131104.9629238542,131104.9629238542,296.6323853475879,0.07240167167268514,3.5363268702819206,90.8,0.39253203017049126
1306893721.16,3.1508947,7.0002081,3079.5276576,6.8,2.7,205.4,1263995.28323,10807.743128,-1.0,497.7663056264401,139989.32049761008,139989.32049761008,297.76674085868206,0.07390238300621041,3.4471932152283253,90.9,0.39255958922560935
1306893721.37,3.1506436,6.9998388,3080.544718,7.0,2.7,205.4,1263940.6244356001,10668.2418112,-1.0,504.5877447586099,128337.71541052699,128337.71541052699,298.22916355933313,0.07533286391400609,3.5336335373607692,92.0,0.3925850813515936
1306893721.58,3.1503884,6.9994645,3081.5617784,7.2,2.7,205.5,1263885.0798143998,10526.7719904,-1.0,511.5727213604261,127030.73300798198,127030.73300798198,298.65927370362317,0.07649037506598055,3.5308220330222317,94.9,0.3926085831013749
1306893721.79,3.1501446,6.999108,3082.513222,7.4,2.7,205.6,1263831.8645896,10392.027891599999,-1.0,488.4627605422061,138653.81337364682,138653.81337364682,299.67875979742166,0.07491224764729938,3.5019001323730476,94.89999999999999,0.39263200829822525
1306893722.01,3.1498833,6.9987271,3083.5302824,7.6,2.7,205.6,1263774.9420156002,10248.0646324,-1.0,497.866575148182,121363.91021897171,121363.91021897171,298.5059697817686,0.07593938846920842,3.512211802471182,94.7,0.3926553569421449
1306893722.22,3.1496202,6.9983447,3084.5801512,7.7,2.7,205.7,1263717.5273156,10103.510822,-1.0,523.0487395147421,116499.13628162578,116499.13628162578,299.3096590705503,0.07802304551250416,3.4150376021145954,91.10000000000001,0.3926788586919261
1306893722.44,3.1493577,6.9979643,3085.5972116,7.8,2.7,205.8,1263660.2438492,9959.711604799999,-1.0,497.76629455086425,130145.69491054857,130145.69491054857,299.62880697036474,0.07829162579386684,3.4523351229641013,88.80000000000001,0.39270243699463825
1306893722.66,3.1490957,6.9975858,3086.6470803999996,7.9,2.7,205.9,1263602.9275743999,9816.601364,-1.0,495.79350023979663,120259.59699243061,120259.59699243061,299.79528296375383,0.08110186445493714,3.508960395167507,91.20000000000002,0.3927261684032122
1306893722.87,3.1488342,6.9972094,3087.6641408,8.0,2.7,205.9,1263545.80815,9674.2785248,-1.0,515.9128351207875,118021.8599020313,118021.8599020313,301.6574552978968,0.08145465570689456,3.511804717195194,90.3,0.39274982325885527
1306893723.08,3.1485732,6.996835,3088.6812012,8.1,2.7,206.0,1263488.6887256,9532.644662,-1.0,513.8113436530758,140137.26420740856,140137.26420740856,300.9160113049077,0.08271978046831947,3.4973878534095433,89.6,0.39277340156156737
1306893723.3,3.1483128,6.9964625,3089.6654532000002,8.2,2.7,206.1,1263431.7005347998,9391.7982008,-1.0,488.8519262708453,137705.77955087658,137705.77955087658,299.20196308579654,0.08135533096510306,3.550129347627237,88.4,0.39279705641721047
1306893723.51,3.1480542,6.9960938,3090.6825135999998,8.3,2.7,206.2,1263375.0076196,9252.3296924,-1.0,506.7349761953237,127124.98983590842,127124.98983590842,297.4394056940151,0.07844992685182346,3.5088856543840796,89.2,0.3928207112728535
1306893723.93,3.1475361,6.9953589,3092.683826,8.3,2.7,206.3,1263261.4905556,8974.245694,-1.0,505.5096746643643,137084.40227820404,137084.40227820404,298.10258716196506,0.07926611748101264,3.514414228756735,88.00000000000001,0.392846662716423
1306893724.14,3.1472766,6.9949926,3093.668078,8.4,2.7,206.4,1263204.5023647998,8835.6630124,-1.0,504.37146165850174,130213.08808224493,130213.08808224493,296.60461740328645,0.08069999105380371,3.4681083596418474,88.60000000000002,0.3928726907129234
1306893724.35,3.1470165,6.9946266,3094.65233,8.4,2.7,206.5,1263147.3829404,8697.1459476,-1.0,504.32164242358584,118144.43410140963,118144.43410140963,298.3642788991289,0.07875968518407862,3.4710239676883696,89.80000000000001,0.392898642156493
1306893724.56,3.146757,6.9942626,3095.6365819999996,8.4,2.7,206.6,1263090.3947496,8559.383476,-1.0,501.8774163748721,126818.50039707501,126818.50039707501,298.7147081862612,0.07669986367442522,3.4519567182060653,92.50000000000001,0.3929244404942009
1306893724.98,3.1462383,6.9935389,3097.605086,8.4,2.7,206.7,1262976.3855596,8285.400527599999,-1.0,499.5534128327881,127496.49123080824,127496.49123080824,300.29055473594457,0.07684480209479841,3.4682960825870777,92.20000000000002,0.3929524588669042
1306893725.19,3.1459655,6.99316,3098.6221464,8.4,2.7,206.8,1262916.3133792,8141.929394399999,-1.0,522.7573107037325,119680.05983466758,119680.05983466758,299.7517307522475,0.07428676156280908,3.423024134249474,88.8,0.39298040068667683
1306893725.4,3.1457095,6.9928057,3099.6063983999998,8.4,2.7,206.9,1262859.9157396,8007.743038400001,-1.0,490.3386694891435,130783.64724000206,130783.64724000206,298.8410032569362,0.07479354266592761,3.4023453286241945,87.7,0.39300826595351845
1306893725.62,3.1454276,6.9924169,3100.6562672,8.3,2.7,206.9,1262797.8750552002,7860.498939200001,-1.0,512.9150845258646,129363.95733784267,129363.95733784267,297.7983331447512,0.07407675666638709,3.451174081039315,87.0,0.39303620777329096
1306893725.83,3.1451615,6.9920509,3101.6405191999997,8.3,2.7,207.0,1262739.1480192,7721.8834492000005,-1.0,506.4727278276069,128217.22298236431,128217.22298236431,299.09453504229873,0.07284517488606204,3.512768976010635,86.2,0.39306414959306346
1306893726.05,3.1448845,6.9916713,3102.690388,8.2,2.7,207.1,1262678.02597,7578.1170403999995,-1.0,501.83304793634386,133233.9442057263,133233.9442057263,300.765944981113,0.0735798931742202,3.516808771967418,87.9,0.39309216796576685
1306893726.26,3.1446259,6.991318,3103.6418316,8.2,2.7,207.2,1262621.0377792,7444.258768400001,-1.0,490.0294676219076,127106.16882154092,127106.16882154092,300.8081174402673,0.07500962002992187,3.5477525790496176,87.9,0.39311773664468197
1306893726.47,3.1443539,6.9909476,3104.6260835999997,8.2,2.7,207.3,1262560.9327904,7303.9044332,-1.0,513.3535388575831,118375.18955093645,118375.18955093645,303.1820100679036,0.07260437600379115,3.630492692848376,86.10000000000001,0.3931433053235971
1306893726.68,3.1440825,6.9905792,3105.643144,8.1,2.7,207.3,1262500.9590352,7164.304691199999,-1.0,510.9170533017598,122784.80753554963,122784.80753554963,300.6440581740397,0.07234936740041122,3.6246883795437217,85.7,0.39316895055544315
1306893726.91,3.1437976,6.9901938,3106.6930128,8.0,2.7,207.4,1262437.9012904,7018.208886,-1.0,489.3073224534214,119226.58481145822,119226.58481145822,298.8196590626693,0.07419162871506632,3.7518769359483257,85.9,0.393194748893151
1306893727.12,3.1435274,6.9898294,3107.6772648,8.0,2.7,207.5,1262378.1243856,6880.085522,-1.0,506.22118514912944,111473.70008216344,111473.70008216344,297.4348292718964,0.07258114352987667,3.8112198628466767,88.2,0.3932182506429323
1306893727.33,3.1432579,6.989467,3108.6615168,7.9,2.7,207.6,1262318.5771396,6742.6839428,-1.0,503.76692823549143,126648.81406997488,126648.81406997488,296.83439338460465,0.07186158920510294,3.866201903100798,89.60000000000001,0.39324167583978265
1306893727.54,3.1429877,6.9891048,3109.6457688,7.8,2.7,207.6,1262258.7018096,6605.3479804,-1.0,503.9603659581612,123897.12521244871,123897.12521244871,295.0018377138016,0.07297313942567128,3.7773678519518192,91.4,0.3932651010366331
1306893727.75,3.1427169,6.9887428,3110.6300208,7.8,2.7,207.7,1262198.7280543998,6468.1104432,-1.0,503.78125500327843,121249.96627877685,121249.96627877685,297.79883902570896,0.07249378056962402,3.709129304661375,94.6,0.3932883731276216
1306893727.97,3.1424325,6.9883639,3111.6470812,7.7,2.7,207.8,1262135.6703096,6324.409651200001,-1.0,503.8356643480011,124610.0511073366,124610.0511073366,297.38817710062347,0.07549060736227783,3.601097537558191,96.10000000000001,0.39331172177154117
1306893728.18,3.1421604,6.9880024,3112.6313332,7.6,2.7,207.9,1262075.2700452001,6187.336156,-1.0,503.79995093354137,127480.0571920162,127480.0571920162,297.33140196906834,0.07636004672421765,3.5925834433407076,93.4,0.3933349173095989
1306893728.41,3.1418618,6.9876068,3113.7140104,7.5,2.7,207.9,1262009.0298856,6037.2705344000005,-1.0,503.7247297916498,119846.2491080285,119846.2491080285,297.5870437248212,0.07622586682034027,3.5677844653484097,94.4,0.39335841905938024
1306893728.62,3.1415897,6.9872476,3114.6982624,7.4,2.7,208.0,1261948.6624296,5900.9844408,-1.0,501.38862611668435,122416.20490717886,122416.20490717886,295.71666775056025,0.07837882994793102,3.5574077430027127,94.90000000000002,0.39338192080916146
1306893728.83,3.1413028,6.9868697,3115.7153227999997,7.3,2.7,208.1,1261884.8829,5757.6117328,-1.0,526.8729798139464,123376.59272453109,123376.59272453109,296.22296525665246,0.07788960908249214,3.659736744355226,96.00000000000001,0.39340542255894273
1306893729.04,3.1410296,6.9865109,3116.6995748,7.3,2.7,208.1,1261824.18736,5621.4896812,-1.0,501.2934774890102,127421.58152147109,127421.58152147109,298.20963129945534,0.07868129923635295,3.6555935174879446,94.60000000000001,0.39342877120286224
1306893729.25,3.1407545,6.9861507,3117.6838268,7.2,2.7,208.2,1261762.9668856,5484.7770783999995,-1.0,503.7115971882573,128409.99400248025,128409.99400248025,298.22302893095946,0.08077275400668489,3.567030487271047,94.5,0.39345211984678174
1306893729.46,3.1404854,6.9857992,3118.6352703999996,7.1,2.7,208.3,1261703.2227892,5351.410932399999,-1.0,491.84024049275746,129419.79490028419,129419.79490028419,300.06682472089665,0.0819878640976559,3.535781642562345,94.7,0.39347539193777037
1306893729.67,3.1402026,6.9854308,3119.6523308,7.0,2.7,208.3,1261640.2634696,5211.5815316,-1.0,515.2161332878671,126705.48146689586,126705.48146689586,301.49558340496105,0.08186129370042003,3.6442574160892858,92.30000000000003,0.39349874058168993
1306893729.88,3.1399259,6.9850713,3120.6365828,6.9,2.7,208.4,1261578.6492944,5075.0985876,-1.0,503.50568273465393,123393.79464036848,123393.79464036848,299.6639351834844,0.0823142264489471,3.7164658811918234,92.2,0.3935220892256094
1306893730.09,3.1396499,6.9847136,3121.5880264,6.8,2.7,208.5,1261517.1335443999,4939.30462,-1.0,501.3153585463344,114502.609915193,114502.609915193,300.659358726616,0.08116971444756339,3.6882619248173185,92.7,0.3935452847636671
1306893730.3,3.1393747,6.9843579,3122.5722784,6.7,2.7,208.5,1261455.8146447998,4804.2652456,-1.0,498.8069350834231,113423.94861933401,113423.94861933401,298.95895420365787,0.08156599903203217,3.7187192117763255,93.6,0.39356848030172487
1306893730.51,3.1390977,6.9840007,3123.5565303999997,6.6,2.7,208.6,1261394.1020443998,4668.6025116,-1.0,501.16572303442666,115092.42054831704,115092.42054831704,298.39977757297686,0.07908275185215925,3.701759604581004,91.3,0.39359144618099
1306893730.72,3.1388202,6.9836437,3124.5407824,6.5,2.7,208.7,1261332.1597852001,4533.0382028,-1.0,501.1563599168524,111989.4534612735,111989.4534612735,297.54860982501776,0.0789254073874425,3.726395026152604,92.69999999999999,0.39361441206025505
1306893730.93,3.1385408,6.9832852,3125.492226,6.4,2.7,208.7,1261269.9222504,4396.8833428,-1.0,503.29424983343137,114660.11678750614,114660.11678750614,298.1624490469421,0.0792570836032118,3.6734716717531057,91.89999999999999,0.39363722483365843
1306893731.14,3.1382557,6.9829201,3126.5092864000003,6.3,2.7,208.8,1261206.2739543999,4258.202236,-1.0,512.629297285635,113845.13291714685,113845.13291714685,298.2128484463419,0.07781880241562032,3.613776812865782,92.5,0.3936601141599926
1306893731.35,3.137974,6.9825603,3127.4935384,6.3,2.7,208.8,1261143.3146348,4121.55525,-1.0,505.6735747465011,119730.24781877661,119730.24781877661,297.4584827481613,0.0757667430777895,3.712778755743804,91.0,0.39368300348632673
1306893731.56,3.1377038,6.982216,3128.444982,6.2,2.7,208.9,1261083.0127956,3990.7809676,-1.0,484.75182840173915,118625.89591019783,118625.89591019783,297.2886340207482,0.07728368656219603,3.745533073310937,90.2,0.393705892812661
1306893731.77,3.1374199,6.9818549,3129.429234,6.1,2.7,209.0,1261019.56135,3853.5762388,-1.0,507.9618415078449,118077.42243106443,118077.42243106443,297.66484855534424,0.0769013784371606,3.72761492825053,93.2,0.3937287055860643
1306893731.98,3.1371354,6.981494,3130.413486,6.0,2.7,209.0,1260956.0114792,3716.4371268,-1.0,507.8898377873879,121284.7022255493,121284.7022255493,296.7649161745138,0.07696405063951502,3.771159090552635,92.9,0.39375151835946764
1306893732.19,3.1368491,6.9811316,3131.397738,5.9,2.7,209.1,1260892.0350992,3578.740272,-1.0,510.09721295027805,119041.91525001368,119041.91525001368,296.91781240014666,0.07589508229905267,3.8475655982346537,89.30000000000001,0.39377440768580185
1306893732.4,3.1365651,6.9807728,3132.38199,5.8,2.7,209.1,1260828.45242,3442.3885616000002,-1.0,505.5775520881172,115513.40521045684,115513.40521045684,298.94776865899615,0.07526333839300169,3.7872476713582177,89.4,0.39379729701213606
1306893732.61,3.1362928,6.9804295,3133.3334336,5.7,2.7,209.2,1260767.5600296,3311.9095548,-1.0,484.61289024815756,121810.76170892945,121810.76170892945,298.8393723225055,0.07780253402729516,3.8174484915776787,89.2,0.39382010978553944
1306893732.82,3.1360092,6.9800727,3134.3176856,5.6,2.7,209.2,1260704.0757756,3176.3124376,-1.0,503.1982360162526,119128.7663844995,119128.7663844995,299.5447652682214,0.07527471527363326,3.7828169027316014,88.9,0.3938429225589427
1306893733.03,3.1357239,6.9797144,3135.3019375999997,5.5,2.7,209.3,1260640.0993956001,3040.1247692,-1.0,505.58935433098105,115158.21504797177,115158.21504797177,298.63379355550916,0.07613080146086976,3.713056329825903,88.10000000000001,0.3938658118852769
1306893733.24,3.1354382,6.9793564,3136.2861896,5.4,2.7,209.3,1260576.1230156,2904.0027176,-1.0,505.39352610768515,114750.15994621428,114750.15994621428,296.49621040322893,0.07702079201053702,3.678661110335274,88.20000000000002,0.39388862465868024
1306893733.45,3.1351507,6.9789968,3137.2704416,5.3,2.7,209.4,1260511.7529348,2767.2901148,-1.0,507.6595727108001,112413.11220461644,112413.11220461644,296.2369123731292,0.07768340808009702,3.6064043187627277,90.10000000000001,0.3939114374320836
1306893733.66,3.1348709,6.9786475,3138.2546936,5.2,2.7,209.4,1260449.1216992,2634.51452,-1.0,493.6864900453251,112720.0739150707,112720.0739150707,295.4760642011921,0.07518629439111296,3.6483868646454787,90.9,0.3939343267584178
1306893733.87,3.1345744,6.9782781,3139.271754,5.1,2.7,209.5,1260382.5534556,2494.0289512,-1.0,521.7359225986986,117723.87528025369,117723.87528025369,296.3222091953492,0.07450608128127663,3.5946506293263285,88.70000000000002,0.39395729263768287
1306893734.08,3.1342925,6.9779275,3140.2231976,5.0,2.7,209.5,1260319.3972856,2360.7284219999997,-1.0,495.92497861237104,126399.86361902287,126399.86361902287,296.6044842434317,0.07418813426373871,3.505626783938022,86.20000000000002,0.3939801819640171
1306893734.29,3.1340103,6.977577,3141.2074496,5.0,2.7,209.6,1260256.0442652002,2227.4607011999997,-1.0,496.08135505352465,125573.50777594488,125573.50777594488,295.49440306076326,0.07574474700270278,3.505914375639749,88.90000000000002,0.3940030712903513
1306893734.51,3.1337017,6.9771946,3142.2573184,4.9,2.7,209.6,1260186.8513496,2081.9882556000002,-1.0,516.2209643244875,121828.2015349717,121828.2015349717,295.13540692284437,0.07797472752692226,3.540903368214565,90.50000000000001,0.39402611372254726
1306893734.72,3.13342,6.9768461,3143.2087619999998,4.8,2.7,209.7,1260123.5967543998,1949.475128,-1.0,493.7057699526293,122155.41939949406,122155.41939949406,295.23041423817705,0.07798182372282328,3.569873028324005,93.50000000000001,0.3940491561547433
1306893734.93,3.1331271,6.9764843,3144.2258224,4.7,2.7,209.7,1260057.8815292,1811.84389,-1.0,512.1321744997155,114902.20745003747,114902.20745003747,296.70967472069754,0.08093242181590032,3.531128235749355,90.4,0.3940722751398702
1306893735.14,3.1328407,6.9761311,3145.1772659999997,4.6,2.7,209.7,1259993.5770652,1677.493492,-1.0,500.53577010087037,114111.10205461942,114111.10205461942,297.37695055992805,0.07868367648606601,3.6051438283642527,92.80000000000001,0.39409531757206606
1306893735.35,3.132558,6.9757831,3146.1615180000003,4.5,2.7,209.8,1259930.0271943999,1545.111598,-1.0,493.6993022451817,118818.52335543836,118818.52335543836,297.8719925153936,0.07778696769781321,3.616435666133182,92.9,0.39411836000426204
1306893735.56,3.1322709,6.9754302,3147.14577,4.4,2.7,209.8,1259865.52588,1410.8596252,-1.0,500.4995818408944,114171.65828126433,114171.65828126433,300.1869168350132,0.07760427369977892,3.6863239934545886,90.4,0.3941414024364581
1306893735.78,3.1319601,6.9750488,3148.1956388000003,4.4,2.7,209.9,1259795.7096048,1265.748072,-1.0,515.9701234828111,107309.15291753986,107309.15291753986,299.5747011778921,0.07813454472186704,3.6429641311636276,90.20000000000002,0.39416459797451586
1306893735.99,3.1316806,6.9747063,3149.1470824,4.3,2.7,209.9,1259732.8487104,1135.4331072,-1.0,486.6533902740514,119026.36008734792,119026.36008734792,298.52674364529724,0.0765316733947139,3.6886394349487697,90.8,0.3941876404067117
1306893736.21,3.131376,6.9743336,3150.1641428,4.2,2.7,210.0,1259664.3775796,993.6023940000001,-1.0,504.98364425898956,107272.72284316528,107272.72284316528,298.28562416689704,0.07511204229484368,3.7108292326714394,90.30000000000001,0.3942108359447695
1306893736.44,3.13106,6.9739476,3151.24682,4.1,2.7,210.0,1259593.3145852,846.7191872,-1.0,500.57935665084426,109001.2576301302,109001.2576301302,300.2482795403293,0.07511857701969385,3.7345441422941748,87.5,0.39423426114161997
1306893736.66,3.1307547,6.9735752,3152.2638804,4.0,2.7,210.0,1259524.6137956001,704.9868991999999,-1.0,504.9919795658536,117331.93943620134,117331.93943620134,299.29187717558136,0.07336632890418894,3.778914810125448,86.10000000000001,0.3942576097855395
1306893736.87,3.1304574,6.973213,3153.2809408,3.9,2.7,210.1,1259457.7830848,567.1588108,-1.0,514.1754077321648,110318.59090449949,110318.59090449949,297.5054252828882,0.07113472916245206,3.774227193343857,85.4,0.39428111153532064
1306893737.3,3.1298633,6.9724908,3155.2822532,3.8,2.7,210.1,1259323.9904296,292.2900356,-1.0,501.5579964992204,119394.52998701601,119394.52998701601,296.7821490729096,0.06987200123587421,3.76808864509199,88.60000000000001,0.39430690987302847
1306893737.51,3.129579,6.9721459,3156.2336968,3.7,2.7,210.2,1259260.0140496,160.9908188,-1.0,491.03872751610163,126257.08462716568,126257.08462716568,298.4218868413655,0.07377339303808697,3.80790694440644,86.3,0.3943327082107362
1306893737.72,3.1292889,6.9717944,3157.2179488,3.6,2.7,210.2,1259194.6925252,27.165355199999997,-1.0,500.30830708082624,121175.79611651694,121175.79611651694,297.694972203828,0.07495769618986173,3.8951667023867564,85.2,0.394358506548444
1306893737.93,3.1289874,6.9714295,3158.2350092,3.6,2.7,210.2,1259126.8119456,-111.71260199999999,-1.0,518.6752283858307,121750.20656493401,121750.20656493401,295.5797277899269,0.07474379728903444,3.836335197022488,86.10000000000001,0.3943843814390827
1306893738.14,3.1287009,6.9710833,3159.1864527999996,3.5,2.7,210.3,1259062.2450144,-243.53675320000002,-1.0,493.37518513657744,130352.48068301944,130352.48068301944,295.93493504226285,0.07507609018206063,3.8709977765788985,85.80000000000001,0.39441002667092884
1306893738.35,3.1284129,6.9707354,3160.1707048000003,3.4,2.7,210.3,1258997.3499992,-375.95145560000003,-1.0,495.56145913394226,116992.79260796747,116992.79260796747,294.88341947272306,0.07827356295386977,3.9025667874473813,86.8,0.39443574845570567
1306893738.57,3.1281009,6.9703592,3161.2205736,3.4,2.7,210.3,1258927.0087896,-519.19293,-1.0,511.33404572111846,117202.89589116932,117202.89589116932,295.3422495566999,0.07836871285125523,3.849317916852953,89.0,0.3944615467934134
1306893738.78,3.1278137,6.9700133,3162.1720172,3.3,2.7,210.4,1258862.3106248,-650.918656,-1.0,493.25718156205335,122581.26612555316,122581.26612555316,293.7035367924643,0.07643947728058932,3.8221163906772926,89.60000000000001,0.3944870389193976
1306893739.0,3.127504,6.9696406,3163.221886,3.2,2.7,210.4,1258792.4943496,-792.814986,-1.0,506.864567705835,112061.60966804177,112061.60966804177,294.49822862352545,0.07550165063458374,3.7458187335565953,89.30000000000001,0.3945126075983128
1306893739.22,3.1271968,6.9692714,3164.2389464000003,3.2,2.7,210.4,1258723.2686256,-933.3989799999999,-1.0,502.4039008140723,112252.67647835387,112252.67647835387,297.17014649558377,0.07480706003919192,3.7456145979561475,89.0,0.3945381762772279
1306893739.44,3.126888,6.9689007,3165.2888152,3.1,2.7,210.5,1258653.5507756001,-1074.5735252,-1.0,504.6994855659312,117428.48458130303,117428.48458130303,296.02354045634246,0.07591198950153008,3.815327107493322,87.20000000000002,0.3945615249211474
1306893739.65,3.1265986,6.9685535,3166.2402588,3.0,2.7,210.5,1258588.2620596,-1206.7913772,-1.0,495.4998674354459,112856.93254463347,112856.93254463347,294.63425857308994,0.07273267661647971,3.8398405392895967,88.10000000000001,0.39458487356506694
1306893739.86,3.1262963,6.9681914,3167.2573192,3.0,2.7,210.5,1258520.0862043998,-1344.6850824,-1.0,516.1545363312404,108957.71040033337,108957.71040033337,296.03591035521686,0.07303400830431048,3.769629160695813,87.9,0.39460829876191733
1306893740.08,3.1259925,6.9678277,3168.2743796,2.9,2.7,210.6,1258451.5822652,-1483.2349556,-1.0,495.737015073226,122567.35082351291,122567.35082351291,295.5530533875005,0.07242031944721772,3.752431478798381,87.7,0.39463172395876783
1306893740.5,3.125401,6.9671206,3170.2428836,2.8,2.7,210.6,1258318.0848856,-1752.5263028,-1.0,504.63521947488596,116213.34790202063,116213.34790202063,295.7653733977562,0.07178188153812362,3.7338205078071236,89.9,0.3946575222964755
1306893740.71,3.1251021,6.9667639,3171.259944,2.7,2.7,210.6,1258250.6308152,-1888.3858872,-1.0,509.1710851074063,112845.39975830301,112845.39975830301,297.45916755221936,0.07085371088948118,3.7021496024401053,89.9,0.39468339718711426
1306893740.92,3.1248087,6.966414,3172.2113876,2.7,2.7,210.7,1258184.3906556,-2021.6864164,-1.0,499.9749988003816,119902.54058109765,119902.54058109765,297.50468350506736,0.07070636810805844,3.743388247258639,89.70000000000002,0.3947090424189603
1306893741.13,3.1245193,6.9660692,3173.1956396,2.6,2.7,210.7,1258119.0035144,-2153.0184416,-1.0,493.0110833797111,112118.13521606769,112118.13521606769,296.83406363747827,0.07295351177052652,3.7066486677887753,89.10000000000001,0.39473476420373715
1306893741.56,3.1239176,6.965353,3175.196952,2.5,2.7,210.7,1257983.14393,-2425.853096,-1.0,499.95853188900804,105435.10326042128,105435.10326042128,296.2865846079826,0.07215337935999909,3.6638995600193467,89.3,0.39476270602350966
1306893741.78,3.1236038,6.96498,3176.2468208,2.5,2.7,210.8,1257912.2121692,-2567.9462764,-1.0,508.84613228942834,103876.00125704276,103876.00125704276,294.5055969607882,0.07321638657154798,3.705653930389971,87.30000000000001,0.39479072439621304
1306893741.99,3.1233123,6.9646338,3177.1982644,2.4,2.7,210.8,1257846.3657104,-2699.8360444,-1.0,495.2759466664695,102858.65334978412,102858.65334978412,296.59100970702315,0.07117795261182995,3.663237954703582,87.4,0.3948185131101238
1306893742.41,3.1227092,6.9639184,3179.1995767999997,2.3,2.7,210.8,1257710.1124252002,-2972.4082316,-1.0,511.3359437760499,94812.40073952568,94812.40073952568,297.21711160509705,0.07429556080075835,3.5494475832206183,86.40000000000002,0.39484875151782284
1306893742.83,3.1221253,6.9632266,3181.1352724,2.2,2.7,210.9,1257578.1570404,-3235.9909172000002,-1.0,495.1624401680706,104417.03774930605,104417.03774930605,296.5319223845248,0.07238598297583618,3.536097368281999,86.10000000000001,0.39488113340758657
1306893743.26,3.1215211,6.9625117,3183.1365848,2.1,2.7,210.9,1257441.5100544,-3508.3990624,-1.0,499.8608969928421,105371.86372488717,105371.86372488717,297.44218372312673,0.07230806813396401,3.5958169212885442,84.80000000000003,0.39491581188527697
1306893743.47,3.1212244,6.9621611,3184.1208368,2.1,2.7,210.9,1257374.4496847999,-3641.9948671999996,-1.0,501.95238678132546,104296.57337142504,104296.57337142504,295.5598017354488,0.07474436866245103,3.5698115636374324,84.10000000000002,0.3949481937750407
1306893743.69,3.1209092,6.9617888,3185.1707056,2.0,2.7,210.9,1257303.18984,-3783.8583888,-1.0,508.62201718765255,107620.57917383635,107620.57917383635,293.543577509974,0.07463888572873682,3.4933828445659443,83.00000000000001,0.39498065221773543
1306893743.91,3.1205967,6.9614199,3186.2205744,2.0,2.7,211.0,1257232.5533548,-3924.4095744,-1.0,504.11970557171713,111881.37020056555,111881.37020056555,294.9085176189674,0.07625089316493028,3.585274048510607,81.30000000000001,0.3950133403192227
1306893744.35,3.1199785,6.9606907,3188.2546952,1.9,2.7,211.0,1257092.6911456,-4202.296722399999,-1.0,498.67927412091433,111682.95949636983,111682.95949636983,294.9779110310984,0.07330609110417517,3.55633792386896,84.80000000000001,0.3950484781144982
