timestamp,longitude,latitude,altitude,roll,pitch,yaw,u,v,heading,air_speed,engine_0,temperature_in,humidity_in,pressure_in,heart_rate,oxygen_mask
1306893618.37,7.626053,5.5101195,-3.28084,-1.0,-0.3,-1.0,2492243.5508804,-411654.77039079997,-1.0,60.839759165093234,138011.93269614957,293.05709815856954,0.0736984729202396,3.6477336186645712,89.4,0.30797101140376676
1306893621.8,7.6270983,5.51051,-3.28084,-1.0,-0.4,-1.0,2492502.54039,-411476.555162,-1.0,60.839759165093234,103507.87169343393,293.2263819968758,0.07359233430332597,3.6746595485971794,90.3,0.3046587191902934
1306893623.52,7.6278048,5.5107738,-3.28084,-1.0,-0.5,-1.0,2492677.6716292,-411356.1155256,-1.0,82.33182032401709,69005.22765600235,293.172990724222,0.07331280487331976,3.685852247921645,89.10000000000001,0.30134688629440537
1306893624.6,7.6283082,5.5109619,-3.28084,-1.0,-0.6,-1.0,2492802.3435492,-411270.28875119996,-1.0,93.53357413026268,34503.479321040875,295.20809098316306,0.07239109334588884,3.7271986052879345,90.7,0.2980350533985174
1306893625.46,7.6287452,5.5111251,-3.28084,-1.0,-0.7,-1.0,2492910.8081195997,-411195.7808748,-1.0,102.25956836420433,289.49600030768914,294.89448474132143,0.07521251602741932,3.7971421632630666,91.4,0.2947232205026294
1306893626.33,7.6292199,5.5113024,1416.0761608,-1.0,-0.8,-1.0,2493028.295,-411114.842552,-1.0,1117.775151502903,289.4960003076892,294.89448474132143,0.07521251602741931,3.797142163263067,91.4,0.2947232205026294
1306893627.4,7.6298394,5.5115338,1416.0761608,-1.0,-0.9,-1.0,2493181.8711204003,-411009.199504,-1.0,116.62868742463681,34503.47932104086,295.20809098316306,0.07239109334588884,3.727198605287935,90.7,0.2980350533985174
1306893628.7,7.6306608,5.5118405,1416.0761608,-1.0,-1.0,-1.0,2493385.2832004,-410869.1732528,-1.0,127.32004470314911,69005.22765600235,293.172990724222,0.07331280487331977,3.685852247921646,89.1,0.30134688629440537
1306893630.01,7.6315608,5.5121767,1416.0761608,-1.0,-1.1,-1.0,2493608.3803204,-410715.7611744,-1.0,138.6865859847437,103507.87169343393,293.2263819968758,0.07359233430332597,3.67465954859718,90.3,0.3046587191902934
1306893630.65,7.6320233,5.5123494,1416.2730112,-1.0,0.8,-1.0,2493723.01287,-410636.9225892,-1.0,145.96080095593868,138011.93269614957,293.05709815856954,0.07369847292023958,3.6477336186645712,89.4,0.3079710114037667
1306893630.87,7.6321843,5.5124095,1416.4042448,-1.0,2.5,-1.0,2493763.0063095996,-410609.42915,-1.0,148.149797268568,138018.55886654145,292.2656150129716,0.07487882760906542,3.73841822021503,90.30000000000001,0.3112836098289635
1306893631.1,7.6323579,5.5124744,1416.5354783999999,-1.0,3.9,-1.0,2493805.85408,-410579.8359732,-1.0,152.07374019586112,103535.66180495011,292.58176012604207,0.07665480057244226,3.724664724160428,87.20000000000002,0.31459651446588394
1306893631.32,7.6325276,5.5125377,1416.6339036000002,-1.0,4.9,-1.0,2493847.8816404003,-410550.9317728,-1.0,155.79829167275173,69071.85966984382,294.0402378740996,0.07610527398897218,3.7016434212979785,86.30000000000001,0.31790964876159694
1306893631.74,7.6328502,5.5126582,1416.7651372,-1.0,6.4,-1.0,2493927.8685196,-410495.91208599997,-1.0,155.31918992283553,34668.914406710916,292.7097704089533,0.07772042505516709,3.7747218528315742,84.8,0.32122308926903353
1306893632.16,7.6331888,5.5127846,1416.830754,-1.0,7.4,-1.0,2494011.7267899998,-410438.2021104,-1.0,162.950955363447,3771.875853779939,295.0760580299366,0.0752472606161907,3.7051521521165722,85.89999999999999,0.3245366828823319
1306893632.58,7.6335234,5.5129096,1416.8963708,-1.0,8.0,-1.0,2494094.7648504004,-410381.14830279996,-1.0,161.26286492175805,4086.411366641154,294.40126429116293,0.07460556724356918,3.604154838340705,85.2,0.3245385967056039
1306893633.01,7.6338784,5.5130422,1416.9619876,-1.0,8.4,-1.0,2494182.7569792,-410320.6496132,-1.0,167.00996080229535,4720.9559257738165,294.63628004608665,0.0741030412660704,3.660748237385999,86.90000000000002,0.3245406636347379
1306893634.5,7.6351697,5.5135244,1418.9633,-1.0,9.7,-1.0,2494502.6388792,-410100.4724408,-1.0,175.37002213246387,5521.763415093849,296.3211897997867,0.07257313543643415,3.685132588044192,87.3,0.3245474002926556
1306893634.92,7.6355449,5.5136647,1421.1942712,-1.0,9.9,-1.0,2494595.5194595996,-410036.4632524,-1.0,180.80507929919267,6435.441415625448,298.42377688459885,0.07161239962219514,3.6633651659187283,87.89999999999999,0.32455934254987345
1306893635.36,7.6359497,5.5138162,1424.7703867999999,-1.0,10.1,-1.0,2494695.78193,-409967.3031452,-1.0,186.46072015312143,7321.7543059571235,298.44443257282114,0.07039284567012472,3.7415170325928897,85.7,0.32457916975897233
1306893639.24,7.6398505,5.5152964,1519.7835132,0.3,10.1,-1.0,2495661.1691,-409293.648268,-1.0,205.08989885997,8168.912599692902,298.4821567471318,0.07233751972321452,3.678760578696373,85.4,0.3248203880441867
1306893640.51,7.6413142,5.5158665,1581.0367959999999,0.3,10.1,-1.0,2496022.6848596,-409035.51177680003,-1.0,238.148661278838,9157.5048444412,297.5471654131826,0.06941579908961477,3.7117217577767043,87.9,0.32520422443963726
1306893640.95,7.6418431,5.5160751,1606.0696051999998,0.7,10.1,-1.0,2496153.2950999998,-408941.286052,-1.0,247.57043717147783,10286.464130304737,297.61712633205167,0.07121455488700021,3.7298302876830087,89.10000000000001,0.32564624106255935
1306893641.37,7.6423562,5.5162788,1631.6273488,0.7,10.2,63.1,2496279.8042904004,-408849.422532,-1.0,252.1000483793817,12028.894580311315,297.18301188180834,0.07027796340381809,3.628773859675006,90.30000000000001,0.3261475862069163
1306893641.79,7.6428882,5.5164914,1659.28483,1.0,10.2,63.1,2496411.0378904003,-408753.622004,-1.0,262.3922545560899,14612.893705614366,295.20970963511286,0.07056414786897884,3.5954427487354756,88.80000000000001,0.3267133123661464
1306893642.22,7.6434345,5.516711,1688.81239,1.2,10.3,63.1,2496545.5523304003,-408654.8031032,-1.0,263.53012456272444,17775.38849118455,296.6164542344089,0.07100904681979278,3.579470079325834,89.4,0.32734778305731
1306893642.64,7.6439808,5.516932,1719.1273516,1.4,10.2,63.1,2496680.0667704004,-408555.459268,-1.0,270.5708425088767,21547.568711879554,297.80166519387825,0.07232766018795478,3.487702093181829,89.0,0.3280528355507483
1306893643.06,7.644539,5.5171592,1750.2297148,1.6,10.1,63.1,2496817.6652,-408453.42514400004,-1.0,277.2458905911093,25654.043881190133,297.8911248405222,0.07240194273433266,3.4650543896294517,90.7,0.32882579049388044
1306893643.48,7.6451043,5.5173906,1781.2664611999999,1.9,9.8,63.1,2496956.7071992,-408349.6193664,-1.0,280.67570826607977,29392.57587195852,297.2500520941881,0.07049491222462717,3.5492142508831823,88.69999999999999,0.3296659589103283
1306893643.9,7.6456854,5.5176298,1812.0735488000003,2.2,9.3,63.1,2497099.6205896,-408242.43432359997,-1.0,288.71896280410385,32863.0051573984,297.3968745434246,0.07206295297718705,3.465263493771787,89.3,0.33056966625940976
1306893644.33,7.6462861,5.5178782,1842.0932348000001,2.5,8.7,63.4,2497247.2583895996,-408131.2138476,-1.0,291.2979504119059,35836.20965054215,297.477677965666,0.07007863377086211,3.391803110958245,88.3,0.33132172225241063
1306893644.75,7.6468945,5.5181309,1870.1444167999998,2.8,8.3,63.4,2497396.73346,-408018.1889096,-1.0,301.88322567680893,38366.045513595134,299.1957957368792,0.07060198027367445,3.3573058518832117,89.39999999999999,0.3319963066793572
1306893645.18,7.6475349,5.5183977,1896.7848376,3.2,7.9,63.5,2497554.0169296,-407898.8975672,-1.0,310.05371421395944,40485.198759250685,298.8888780015129,0.06766972397413563,3.3774671805661676,87.6,0.33267464219991716
1306893645.62,7.6481955,5.5186731,1921.0630535999999,3.7,7.7,63.5,2497716.4185095998,-407775.767642,-1.0,312.2335245132479,42656.246066798856,300.327521081804,0.06601726123321627,3.413180050126337,85.5,0.33334999215617267
1306893646.04,7.6488451,5.5189426,1941.8307708,4.1,7.5,63.6,2497876.1626092,-407655.1639636,-1.0,320.8817923520862,45079.24249633704,299.8311965302217,0.06690971685127173,3.512999151939081,86.2,0.33400926599694253
1306893646.47,7.649527,5.5192241,1960.7940259999998,4.4,7.6,63.6,2498043.6822996,-407529.1140908,-1.0,327.9928652620085,47831.001401475856,300.8001007161283,0.06834543635092297,3.5844656254977867,84.50000000000001,0.3346438897939679
1306893646.89,7.6502209,5.5195086,1978.1824780000002,4.4,7.9,63.6,2498214.48283,-407401.4894148,-1.0,341.5360655209975,50915.22681417473,300.3170571080009,0.06784325874858713,3.6511824368894135,84.4,0.33524835173622514
1306893647.31,7.6509145,5.5197911,1994.75072,4.7,8.3,63.6,2498385.08651,-407274.65214039996,-1.0,340.4711163796493,54281.24462478575,299.32505711704255,0.06760989724302034,3.6641930730937275,83.9,0.33581890073010084
1306893647.73,7.6516324,5.5200812,2012.0407467999999,4.8,8.7,64.0,2498561.8581692,-407144.20594200003,-1.0,352.1191098645828,58636.00373028761,298.2008138320125,0.06905933688130449,3.630537478726112,84.00000000000001,0.3363573740459364
1306893648.15,7.6523609,5.5203731,2030.3150256000001,4.8,9.1,64.1,2498741.4841592,-407012.7098748,-1.0,357.0564196179166,62763.87575438187,297.8344703194743,0.06715449751945035,3.59389844719992,84.90000000000002,0.33686660414217434
1306893648.58,7.6531318,5.5206794,2050.9187008,4.8,9.4,64.1,2498931.5432204003,-406874.520894,-1.0,368.541524541648,67920.22649796726,298.92254324056375,0.06729478065891799,3.6073439782347307,87.40000000000002,0.3373538635472487
1306893649.0,7.6538824,5.5209751,2072.4410112,5.5,11.9,64.4,2499116.71383,-406740.9250892,-1.0,366.9192704921186,73320.7357643219,297.1487520261291,0.06770919290695954,3.5719030922024535,83.89999999999999,0.3378258889190773
1306893649.44,7.6546939,5.5212903,2100.3609596,20.8,14.0,65.0,2499317.2715792,-406598.0773156,-1.0,378.7376141750413,79429.00359114341,296.32399069736647,0.06990018604019711,3.574606861746656,87.8,0.3383008998552103
1306893649.86,7.6554773,5.5215813,2133.0053176,38.0,15.7,66.5,2499511.23484,-406465.0064452,-1.0,380.6837578208878,85392.25142226164,294.1239253785841,0.07255244939248785,3.5978281332451516,87.90000000000002,0.33879543178871857
1306893650.29,7.656306,5.5218648,2171.8504632,42.4,15.6,68.4,2499717.7309096,-406333.1494856,-1.0,389.28582110515396,91826.64904568692,295.05932282606096,0.07094206484234306,3.462889595159508,89.50000000000001,0.3393321443871437
1306893650.71,7.6571064,5.5221163,2211.3517768,46.0,13.6,69.8,2499918.2558504003,-406213.89095160004,-1.0,380.8630739637437,98079.35452897886,294.2936179630322,0.07017221801695009,3.4046969613898304,92.50000000000001,0.3399167791203021
1306893651.15,7.6579488,5.5223642,2251.9685759999998,52.0,12.1,71.0,2500130.0996892,-406094.5668008,-1.0,379.2714426507109,104573.71186067554,294.3448929094832,0.07001473674126381,3.3662257333009538,91.60000000000001,0.3405556133285261
1306893651.58,7.6587706,5.5225929,2288.9108343999997,54.4,10.8,72.0,2500337.3831604,-405982.9198156,-1.0,375.62516463845725,111671.14669391286,295.12734359814596,0.07327191174178554,3.4176922801869885,90.4,0.34124198690682883
1306893652.0,7.6595821,5.5228083,2322.01451,55.5,9.7,72.7,2500542.4356604,-405876.4237492,-1.0,377.01572639419055,118616.532840945,294.88120500728627,0.07514674175449289,3.359976918862437,92.4,0.3419652589978175
1306893652.43,7.6604156,5.5230199,2352.2966632000002,57.2,9.1,73.5,2500753.6561395996,-405770.6166592,-1.0,376.090609852151,125311.44431331186,294.9437211759685,0.07673061121297674,3.4946900829372107,92.9,0.3427165494615095
1306893652.85,7.6612418,5.5232193,2378.6746168,58.2,8.7,74.4,2500963.4330492,-405669.468362,-1.0,379.2754145832564,130698.30644894077,294.59969306086515,0.07498649270192904,3.570710002115925,90.9,0.34348131324103703
1306893653.28,7.6620783,5.5234092,2401.8701556,58.6,8.3,75.5,2501176.4579904,-405571.4368628,-1.0,372.8764608159827,134798.05458392124,295.2978842113072,0.07621216476092325,3.596774534385402,94.00000000000001,0.34424998122003964
1306893653.72,7.6629485,5.523593,2422.6378728,59.2,8.0,76.7,2501398.7349004,-405474.5208492,-1.0,376.8398547918728,138047.06436231302,294.6218238548695,0.07331303261974395,3.639396684715029,93.00000000000001,0.34500196066010963
1306893654.14,7.6637739,5.5237525,2439.468582,59.5,8.0,78.0,2501610.15223,-405387.90667319996,-1.0,372.15866631982203,140626.81770987238,296.14387536434316,0.073270059464958,3.6252759347277217,94.80000000000001,0.3457170415874937
1306893654.56,7.6646051,5.5238973,2454.0027032000003,59.7,7.7,79.4,2501823.8333392,-405306.54184119997,-1.0,372.79065940742294,142976.68496092182,297.3702521647804,0.07274457506449727,3.690596134988265,94.70000000000002,0.34637539679309304
1306893654.99,7.6654459,5.524026,2466.4698952,59.9,7.7,81.0,2502040.76248,-405230.656012,-1.0,366.4740832585398,146074.6011849211,297.06177985167926,0.07079800238914803,3.7024942495638173,92.0,0.34697067238364426
1306893655.41,7.6662833,5.5241353,2477.0013916,60.0,7.7,82.7,2502257.9212796,-405161.98803079996,-1.0,372.376912785444,149304.55126765487,296.1956191256356,0.07104148677768764,3.77151359319918,94.8,0.3474957489365751
1306893655.84,7.6671137,5.524224,2485.8596596,60.1,7.7,84.6,2502474.0302104,-405101.062832,-1.0,359.3305610563934,151823.9183430453,295.70351297654105,0.07098259657002307,3.7655424143271694,95.5,0.34795529618066967
1306893656.26,7.667941,5.5242916,2493.3399748,60.1,7.7,86.5,2502690.3688,-405047.9460324,-1.0,365.6602493731934,155013.74374555357,295.7205452248337,0.07047822062380042,3.813605540438811,92.89999999999999,0.348355055585744
1306893656.68,7.6687652,5.5243374,2499.6391876,60.1,7.9,88.5,2502906.90424,-405002.8672908,-1.0,363.8725848295554,156877.43522861967,297.1930801883003,0.0692204998971386,3.67453165444362,93.19999999999999,0.3486988547983424
1306893656.89,7.6691766,5.5243519,2502.4279016,60.1,7.9,89.5,2503015.3688104004,-404983.444718,-1.0,363.20708182679107,158167.87583666554,296.4184886898984,0.07166619878220526,3.6724087048277902,94.2,0.3489876124536355
1306893657.32,7.6699987,5.5243632,2507.3491616,60.1,8.1,91.8,2503232.9541192,-404950.9972104,-1.0,354.9428064388178,160036.259729995,295.10205666177814,0.0704374044222107,3.7608307505154213,92.8,0.34923373012642633
1306893657.74,7.670809,5.5243505,2511.48302,60.1,8.2,94.1,2503448.4396904004,-404927.7032464,-1.0,358.87202393424474,161494.68754958134,296.18620059667995,0.07203302971772231,3.6712666608251947,93.1,0.3494410354632593
1306893658.18,7.6716342,5.524312,2515.0591356,60.1,8.4,96.5,2503669.3058392,-404913.36597559997,-1.0,350.9656255606256,162304.33088675502,295.1884125348649,0.07301077259117435,3.6473956195041124,92.80000000000001,0.34961741341601515
1306893658.61,7.6724146,5.5242504,2517.9790832,60.1,8.6,98.9,2503879.2795992,-404908.9040332,-1.0,341.9919223127316,163889.06025757606,293.35827070828725,0.07453334706525308,3.7161578227865824,90.10000000000001,0.34976669163123825
1306893659.05,7.6732149,5.5241604,2520.5709468,60.1,8.8,101.5,2504095.8150392,-404914.1861856,-1.0,345.60459245413284,165485.6233831731,294.42756062701915,0.07442367307024045,3.819132157824351,92.20000000000002,0.3498929274142653
1306893659.48,7.6739752,5.524048,2522.7363011999996,60.1,9.0,104.1,2504302.90166,-404928.98277400003,-1.0,340.1767982555121,164231.82449697368,296.1683076252679,0.07663295882810706,3.7478243914050395,89.7,0.3499996421999172
1306893659.9,7.6747091,5.5239131,2524.5735716,60.1,9.2,106.7,2504504.0499604,-404952.9000976,-1.0,340.7975390770089,163352.05378518743,295.15043595314603,0.07484991969151722,3.6955038909217235,90.6,0.3500899746583599
1306893660.33,7.6754339,5.5237524,2526.2468,60.1,9.4,109.3,2504703.98435,-404986.56151599996,-1.0,334.4367588202242,160347.25727412,295.86982042698287,0.07524183288800729,3.696814865851513,92.50000000000001,0.3501667572480362
1306893660.75,7.6761148,5.5235744,2527.6903696,60.1,9.7,112.0,2504893.0591592,-405027.9657168,-1.0,328.13826679992616,156005.07754803775,295.52833430286427,0.0776618310288134,3.8117789814685743,90.60000000000001,0.3502322100039417
1306893661.17,7.6767791,5.5233736,2529.0027056,60.1,9.9,114.8,2505078.82032,-405078.3594192,-1.0,327.32321400375423,151471.022786799,296.8722442130126,0.07698635047273913,3.7487357584375967,89.30000000000001,0.3502942178779574
1306893661.6,7.6774366,5.5231455,2530.2166164,60.1,10.2,117.7,2505264.18778,-405138.8581088,-1.0,324.9712654944137,147089.7590617587,296.8032802947629,0.07741570045559708,3.7501756708418683,88.4,0.35034757527078336
1306893662.03,7.6780696,5.5228954,2531.3649103999996,60.1,10.4,120.5,2505444.0106204003,-405208.2150664,-1.0,322.31730584978334,141440.6877425182,297.984488976651,0.07663020790207406,3.7561490341799324,85.60000000000001,0.3503939663468988
1306893662.5,7.6787296,5.5225987,2532.5460128,60.1,10.7,123.8,2505633.0854296,-405293.7137568,-1.0,318.68004244332604,135750.70275032945,297.68538462804577,0.07632518888757245,3.7357870629794077,86.00000000000001,0.35043476905905985
1306893662.94,7.6793147,5.5223004,2533.5958816,60.1,11.0,126.8,2505802.4423904,-405382.29643680004,-1.0,314.7142031323522,129402.62072827891,299.6088861294838,0.07793882265245522,3.679923184235599,89.70000000000002,0.3504712082541604
1306893663.36,7.6798432,5.5219979,2534.5801336,60.1,11.2,129.8,2505957.0683795996,-405474.3896156,-1.0,311.521857379792,122089.28051538538,296.98162213340544,0.08136720246791182,3.6660714303637203,86.60000000000001,0.3505038963556477
1306893663.79,7.6803567,5.5216691,2535.5315772,60.1,11.4,132.7,2506108.8072296,-405576.55497319996,-1.0,310.1615315589542,115181.43837592122,296.80467186607706,0.07844437230432055,3.6098039991576996,86.8,0.3505337519986923
1306893664.22,7.680838,5.5213241,2536.4830208,60.1,11.4,135.9,2506252.9673392,-405685.8069452,-1.0,307.61603609419006,107947.44200623629,298.9752166526579,0.08052668174766704,3.7208339472827707,85.8,0.3505615407126031
1306893664.65,7.6812957,5.5209567,2537.401656,60.1,11.4,138.9,2506391.7796795997,-405803.982802,-1.0,310.5111609033691,101244.76497352519,300.06416941756135,0.07835440220698282,3.691931282004194,86.80000000000001,0.35058756870910357
1306893665.07,7.6817222,5.5205728,2538.3530996,60.1,11.4,141.9,2506523.21013,-405929.27808160003,-1.0,316.79787120639065,94983.46043875432,299.8783699986743,0.07556028135549708,3.7147401240433573,90.0,0.35061244841164074
1306893665.49,7.6821135,5.5201776,2539.2717348,60.1,11.3,144.8,2506645.6182704,-406059.888322,-1.0,313.12142809902065,89235.29886194362,300.39380053064,0.07723126901479795,3.806885529572882,89.6,0.3506364094790073
1306893665.91,7.6824735,5.5197688,2540.19037,60.1,11.2,147.8,2506760.6773292,-406196.56811640004,-1.0,312.98444993842133,84983.6085551019,301.93202932334424,0.07571934813288027,3.751931072828124,89.6,0.3506596815699959
1306893666.35,7.6828238,5.5193178,2541.174622,60.1,11.1,150.9,2506874.8833696,-406348.9631344,-1.0,318.4317857299933,82448.45338777099,300.6639248372263,0.07673149413441445,3.71293023141147,91.0,0.35068257089633015
1306893666.77,7.6831252,5.5188741,2542.0932572,60.1,11.1,153.9,2506975.96605,-406500.341092,-1.0,319.1236936116279,81999.67414807164,303.1620163332796,0.07417210435237001,3.766699172614512,88.8,0.3507048477992172
1306893667.21,7.6834026,5.5184022,2543.0775092,60.1,11.1,156.9,2507071.9306199998,-406662.8739056,-1.0,316.3515913962894,83229.85327235893,302.3528038074209,0.07471385041538701,3.7454897102063565,86.30000000000001,0.3507269715962426
1306893667.65,7.6836457,5.5179144,2544.0617611999996,60.1,11.1,160.0,2507159.4962396,-406832.36209999997,-1.0,319.661029511709,85276.47346502496,302.90831016663986,0.07168587109701087,3.715283108830876,88.60000000000001,0.350749095393268
1306893705.11,7.6863616,5.4776163,2658.8255443999997,0.8,11.1,160.0,2509789.0894995998,-421433.5436696,-1.0,293.82460333618184,88599.72499525528,301.09921005116917,0.07227297557705381,3.8199360054011557,91.20000000000002,0.3510367813075287
1306893705.97,7.6870303,5.476727,2660.8268568,0.9,11.1,160.0,2510008.7089292,-421734.7903984,-1.0,318.9706195288551,91007.90217727933,300.5703221819724,0.07141320660979092,3.749598713227303,88.8,0.35132691691557766
1306893706.63,7.6875453,5.4760408,2662.3688516,0.9,11.1,150.6,2510178.06589,-421967.2707208,-1.0,320.54423648376473,88764.578134953,298.4302105743464,0.07069957203650039,3.761740504423175,88.9,0.35161850702931347
1306893707.48,7.6882099,5.4751537,2664.370164,0.9,11.1,150.6,2510396.4386004,-422267.8284732,-1.0,321.421674188921,85654.77948599431,297.8137233938294,0.07118369040118275,3.676201924620758,85.80000000000001,0.35191254683683754
1306893708.12,7.6887064,5.4744895,2665.8793504,1.0,11.1,150.7,2510559.8900492,-422492.8940972,-1.0,319.7497226230325,80440.99696401495,297.234469362692,0.07103282878812188,3.6723718175076083,88.7,0.3522079645971175
1306893708.99,7.6893815,5.4735848,2667.9134712,1.0,11.1,150.7,2510781.9373004003,-422799.5214036,-1.0,320.1214513104056,73162.32701279542,296.7674975163677,0.07081695980889151,3.6441764922997333,91.50000000000001,0.3525059851570475
1306893709.63,7.6898821,5.4729127,2669.4226576,1.0,11.1,150.8,2510946.60266,-423027.3429332,-1.0,322.8984557057517,67877.40353115172,298.303739245881,0.07170354346342524,3.693195448426817,93.60000000000002,0.3528052305638717
1306893709.84,7.6900393,5.4727014,2669.8819752,0.9,11.1,150.8,2510998.4727404,-423098.9636704,-1.0,310.5408657932687,65668.91894241802,297.84480306594617,0.07324089679293087,3.660048436492365,93.60000000000002,0.3531034042296634
1306893710.48,7.6905382,5.4720299,2671.3911616,0.9,11.1,150.8,2511162.7443992,-423326.62115799997,-1.0,322.51584141152193,62788.05489801963,299.0211895531964,0.06961512243470941,3.6965694971928356,93.60000000000002,0.35340280274234936
1306893711.11,7.6910243,5.4713747,2672.8675396000003,0.9,11.1,150.9,2511322.8821996,-423548.7668344,-1.0,319.8111631936704,63243.360218167676,300.35501456865944,0.07193769284515178,3.7115940802125977,95.10000000000001,0.3537033495489985
1306893712.18,7.6918452,5.4702658,2675.360978,0.9,11.1,150.9,2511593.3546492,-423924.81671519997,-1.0,318.61207391310757,64775.88045699114,301.0412318296689,0.07145954139047489,3.7201178729724824,94.1,0.3537419322261639
1306893712.61,7.6921827,5.4698091,2676.3780384,0.9,11.1,151.0,2511704.6735504,-424079.70517160004,-1.0,325.8902464490893,63341.25792642906,299.2909958703907,0.07019023100071524,3.7361133908760897,95.30000000000001,0.35377821831540274
1306893713.04,7.6925068,5.46937,2677.3622904,0.8,11.1,151.0,2511811.5305092,-424228.6553076,-1.0,314.1216919864641,64173.927314602726,299.59732348822445,0.07090405000193746,3.690662099923461,95.4,0.3538132030048166
1306893713.68,7.6930007,5.4687002,2678.8714768,0.8,11.1,151.0,2511974.5226404,-424455.88628599996,-1.0,321.3671780555842,65454.54275585475,300.3624833511175,0.07334149245170525,3.6595735847917914,97.90000000000002,0.3538470394002672
1306893714.32,7.6934979,5.4680248,2680.3806632,0.8,11.1,151.1,2512138.5646404,-424684.98734319996,-1.0,323.6425595482957,66537.37367911836,299.24854582543543,0.07244437890732938,3.5936234430987777,97.80000000000001,0.3538808757957177
1306893715.18,7.6941542,5.467132,2682.3819756000003,0.7,11.1,151.1,2512355.1000804002,-424987.9401088,-1.0,318.6900795385156,68070.81202338265,299.0349827515933,0.07550897785729817,3.5500376043113815,94.4,0.35391463563823733
1306893715.61,7.6944832,5.4666838,2683.3662276,0.7,11.1,151.1,2512463.7943096,-425140.0070428,-1.0,319.84487405900296,69058.35578606818,298.2256507479912,0.07339044339136358,3.5666415221837875,91.6,0.35394717063386294
1306893716.24,7.6949653,5.4660265,2684.8426056000003,0.7,11.1,151.2,2512622.9150496,-425363.0713544,-1.0,320.0056643810206,68466.85083516763,296.31844126546565,0.07414723625258408,3.618110580913319,92.0,0.3539820787703459
1306893717.33,7.6958057,5.4648787,2687.4344692,0.6,11.1,151.2,2512900.5397304003,-425752.63829599996,-1.0,322.6996435369808,69053.69607572973,294.40659329167823,0.07654696469513218,3.576184267057839,93.5,0.354019513153548
1306893717.54,7.6959618,5.4646653,2687.8937868,0.6,11.1,151.2,2512952.01611,-425825.0464348,-1.0,311.9219003871605,69101.66147078098,293.08835241042294,0.07746528621841085,3.5108025360989097,92.2,0.3540545743958928
1306893719.65,7.6975758,5.4624544,2692.8478551999997,0.5,11.1,151.2,2513485.5791192,-426575.57139319996,-1.0,321.038073793808,67474.48603918853,293.19764285823646,0.07812236258949523,3.488529248493824,91.4,0.3540953771080537
1306893720.09,7.69791,5.4619959,2693.8649156,0.5,11.1,151.2,2513596.0778104,-426731.24725119997,-1.0,319.30473781980703,66792.86160230052,294.20036235176235,0.07788454305712894,3.459747900009568,90.30000000000001,0.3541361798202146
1306893720.74,7.6984033,5.4613184,2695.3741019999998,0.5,11.1,151.4,2513759.2996004,-426961.26694359997,-1.0,319.33392281153283,65055.62394435369,294.2605799404874,0.07979641442050317,3.5810430442023704,89.30000000000003,0.35417820737926975
1306893722.22,7.6995354,5.4597617,2698.8517924000002,0.4,11.1,151.4,2514133.7418696,-427489.8758844,-1.0,321.91488974168175,63494.413774422705,292.72872958837013,0.07898247532027246,3.689395530258359,89.90000000000002,0.35422482811417794
1306893723.08,7.7001915,5.4588583,2700.8531048,0.4,11.1,151.4,2514350.9006692,-427796.6344244,-1.0,321.46019588434143,63605.593675611024,294.84651301474884,0.07765110843717568,3.648418491621571,89.8,0.35427259714304926
1306893723.93,7.7008344,5.4579725,2702.8544172,0.4,11.1,151.5,2514563.5319096,-428097.45464400004,-1.0,318.9840388126454,64925.74140779151,293.9315049005575,0.07518389903418239,3.635733498046521,90.0,0.3543203661719207
1306893725.4,7.7019497,5.456434,2706.2664908,0.3,11.1,151.5,2514932.82326,-428619.928414,-1.0,320.2479670085694,66194.2091914944,293.8437465800936,0.07545761877894852,3.610759290315536,90.7,0.3543738001176775
1306893726.91,7.7030955,5.4548519,2709.8097980000002,0.3,11.1,151.5,2515312.1867892,-429157.2971976,-1.0,320.5073050160676,67667.6976809657,294.0840848113487,0.07614943768413203,3.625535797585967,93.30000000000001,0.3544320568980799
1306893728.18,7.7040606,5.453518,2712.762554,0.3,11.1,151.6,2515631.8390304004,-429610.41401,-1.0,321.1978490577837,69251.84146918693,294.2113368548592,0.07530833881218293,3.5802779432044827,91.9,0.35449115576072204
1306893730.09,7.7055156,5.4515053,2717.2573048,0.2,11.1,151.6,2516113.7288095998,-430294.10825760005,-1.0,322.08934309000256,69158.65287056199,296.50214143143694,0.0738798144168521,3.594267903148902,90.0,0.35455967063386296
1306893732.4,7.7072689,5.4490778,2722.6378824,0.2,11.1,151.6,2516694.63434,-431118.71458320005,-1.0,321.21937421767893,69368.95014508243,296.2911868197313,0.07520554095258769,3.6134573875884866,88.8,0.35462918069510524
1306893734.08,7.7085408,5.4473156,2726.5748903999997,0.2,11.1,151.7,2517116.22228,-431717.4350748,-1.0,320.68345404365573,69563.66546054893,295.344294470609,0.0742684542996734,3.6726441241334005,90.19999999999999,0.35470550396719625
1306893740.5,7.713409,5.4405646,2741.5683292,0.1,11.1,151.7,2518730.0018592,-434011.00470199995,-1.0,321.337516696121,69693.89717909133,294.87926462066497,0.0741057530175647,3.6416262283516088,90.7,0.35481329049388044
1306893742.41,7.7148604,5.4385507,2746.06308,0.1,11.1,151.8,2519211.03862,-434695.1910756,-1.0,322.0640998507508,69901.52025523556,295.31980637351506,0.07481989202976651,3.5580171353683827,88.60000000000001,0.354923450161422
1306893762.1,7.7298001,5.417808,2792.0276484,0.1,11.1,151.8,2524166.3537392,-441742.50101239997,-1.0,321.82412336585435,70079.8710744076,294.8606881826388,0.07422371595517047,3.6616963096245163,87.60000000000001,0.35513619075634767
1306893763.37,7.7307721,5.416458,2795.0132128,0.1,11.1,152.0,2524488.8931195997,-442201.1624444,-1.0,324.5318168633576,70087.41400755694,295.10057279677477,0.07712936731760654,3.7508637282598603,86.89999999999999,0.35535122793919977
1306893773.08,7.7381494,5.4062079,2817.6838172000002,0.1,5.8,152.0,2526937.2199696,-445683.4460204,-1.0,322.4108892846006,70279.74238395636,294.6640618108747,0.07601885984274787,3.7326187804978366,87.3,0.35561120169248056
1306893773.5,7.7384648,5.4057695,2818.6680692,0.1,5.8,152.0,2527042.0099992,-445832.4289648,-1.0,319.1938198925047,70495.00666050153,294.9177213978943,0.07255793273720142,3.6623976014095576,85.30000000000001,0.3558652043171525
1306893774.35,7.7391132,5.4048684,2820.7349983999998,0.1,5.8,152.1,2527257.1018696,-446138.5641452,-1.0,323.62110250319387,70381.60279700649,295.2914901658787,0.07167894907818695,3.6937314251854794,84.7,0.35611714001269057
1306893796.19,7.7557303,5.3817712,2871.8504856,0.1,5.8,152.1,2532774.6545396,-453985.2179396,-1.0,322.965547922268,70481.41062818581,293.24559690027587,0.06941766092781661,3.7140955133782327,86.2,0.3564778574230143
1306893806.87,7.7638698,5.370455,2896.7520612,0.1,5.8,152.1,2535478.4604004,-457829.34535920003,-1.0,323.53966284630525,70433.77854320798,292.6431514994442,0.06816094054229768,3.650464043825846,87.7,0.3568841238272138
1306893816.26,7.7710383,5.3604868,2918.6680724,0.1,5.8,152.5,2537860.3502404,-461215.4675148,-1.0,324.10926900023793,70230.91789545494,293.0389923960723,0.07157079000089699,3.563003328019954,89.4,0.35733234123753754
1306893823.04,7.7762193,5.3532804,2934.4817212,0.1,5.9,152.5,2539582.3975396,-463663.36785559996,-1.0,324.48143288047834,70377.7082842339,294.21523700434676,0.0702890858317373,3.555630455672623,89.10000000000002,0.3577824724711334
1306893823.47,7.7765488,5.3528221,2935.8268656,0.1,7.3,152.5,2539691.8791704,-463819.07652199996,-1.0,325.323013384002,70716.61029266211,295.078130270766,0.07053895981165517,3.6151484667883764,88.0,0.35822525462336424
1306893823.89,7.7768719,5.3523726,2938.2546872000003,0.1,7.0,152.5,2539799.3266804,-463971.73400719994,-1.0,326.57191078969885,70974.60445586525,294.65127753517606,0.07054164248532067,3.57205054783387,87.9,0.3585664510363126
1306893824.31,7.7771951,5.3519233,2941.4042936,0.1,6.7,152.5,2539906.7741904003,-464124.39149239997,-1.0,326.5883265312479,71521.41618980179,295.24195527692257,0.06803113490743366,3.608803283687491,89.60000000000001,0.35890803021391543
1306893824.73,7.77751,5.3514856,2944.6523251999997,0.1,6.3,152.5,2540011.3673695996,-464273.04635280004,-1.0,318.613231077479,72111.00848452919,294.3835498151909,0.06889222325540903,3.647027182340158,89.7,0.3592042900564351
1306893825.15,7.7778312,5.3510393,2947.8675484,0.1,6.1,152.5,2540118.19152,-464424.65396920004,-1.0,324.6114397787865,71607.65334156167,296.0102468826504,0.07229338942356883,3.6841922699622707,89.4,0.35950575549825486
1306893825.99,7.7784776,5.3501417,2953.248126,0.1,5.7,152.5,2540333.08654,-464729.4440052,-1.0,326.2247194835838,71552.9355222901,295.4135217552356,0.07359755708768013,3.685510426259354,89.8,0.3598149527860939
1306893826.41,7.7788028,5.3496904,2955.3150551999997,0.1,5.6,152.5,2540440.9605592,-464882.72485,-1.0,327.7914674905881,71329.06955511526,295.03207472375357,0.07384263647868718,3.7342817308248217,88.4,0.3600097034422619
1306893827.67,7.7797688,5.3483499,2959.4161052,0.1,5.6,152.5,2540762.05637,-465338.00701679994,-1.0,324.97213315408106,71108.31638826885,296.03479140549535,0.07427598694667878,3.7988942774792567,89.80000000000001,0.3601559195402496
1306893833.59,7.784308,5.3420477,2972.112956,0.1,5.7,152.5,2542270.6194104003,-467478.3942244,-1.0,325.08520365072604,71470.8313166589,295.30750764757494,0.0716125235810464,3.8225221936131804,87.20000000000002,0.360280624264659
1306893834.45,7.7849702,5.3411279,2974.1470768,0.1,5.7,152.7,2542490.6653492,-467790.79580920003,-1.0,326.44741422489983,72178.81834734071,296.6482475299815,0.07386352341361078,3.8007019497839383,86.30000000000001,0.3603731767580974
1306893835.73,7.7859476,5.3397698,2977.1326412,0.1,5.7,152.7,2542815.6653596,-468251.98348800006,-1.0,324.0294544472538,72587.28563662924,297.29672395868045,0.07393151891425884,3.763289985483717,86.80000000000001,0.36046955689807986
1306893842.08,7.7908217,5.332995,2991.8964211999996,0.1,5.7,152.8,2544436.2034692,-470553.00062199996,-1.0,325.6892558462979,72721.1088043859,296.7929543787145,0.07679831399863234,3.72922725198541,88.0,0.3605947209400746
1306893843.85,7.7921836,5.3311015,2996.0302796,0.1,5.7,152.8,2544889.1562396,-471196.0780704,-1.0,326.4974801242327,72789.23732323927,298.67650274646684,0.07756394449886428,3.704593590555531,89.80000000000001,0.3607221815699959
1306893852.43,7.7987639,5.3219477,3015.9449784,0.1,5.7,152.8,2547077.8702204004,-474305.133288,-1.0,325.64559799873547,72253.96793629217,299.3875656227434,0.07675453170064812,3.7151427315389967,88.4,0.3608885310888061
1306893858.24,7.8032261,5.3157388,3029.4292308,0.1,6.1,152.8,2548562.25347,-476413.9588148,-1.0,326.1367989545991,72018.63458835354,299.8326374982569,0.07494902612161929,3.7625489814763267,90.00000000000001,0.36107884167498283
1306893858.87,7.803712,5.3150625,3032.152328,0.1,7.3,152.8,2548724.0316904,-476643.6176148,-1.0,327.53257497893725,71901.63861574297,300.70121503978214,0.07536408798320084,3.7738005790274323,90.9,0.361262951473758
1306893859.08,7.8038693,5.3148436,3033.628706,0.1,7.1,153.0,2548776.32828,-476717.9614492,-1.0,318.6497750387761,72202.19082216999,300.7859067574135,0.07891432964996506,3.69871656256635,93.4,0.36144568331977717
1306893859.73,7.8043705,5.3141466,3039.1077088,0.1,6.5,153.0,2548943.0277604,-476954.6740552,-1.0,327.2376673991075,70973.76783095242,301.1463288981233,0.08104941603586809,3.646393533966453,91.10000000000001,0.3616316303888935
1306893860.15,7.8046908,5.3137014,3042.651016,0.1,6.2,153.0,2549049.6550604003,-477105.85516239994,-1.0,323.8681191407465,70118.3195158309,303.59611376021365,0.08323565137882034,3.721587681232036,93.80000000000001,0.36179621919029337
1306893860.57,7.8050169,5.3132484,3045.9318559999997,0.1,6.0,153.0,2549158.1524392,-477259.69375,-1.0,329.1348797303643,69030.1558044565,301.54498338889493,0.08118406588538005,3.656089420133542,92.39999999999999,0.3619637170030668
1306893861.43,7.8056793,5.3123288,3051.2140084,0.1,5.6,153.0,2549378.36242,-477571.9969096,-1.0,326.4786828105861,68174.80600730337,301.61686888824465,0.0815835090165595,3.6653586216056535,91.5,0.362136573521002
1306893863.96,7.8076273,5.3096251,3059.1208328,0.1,9.1,153.0,2550026.32832,-478490.07436679996,-1.0,326.3293468278829,68494.92032808386,302.6979331984976,0.07877231257636516,3.705473644208464,89.30000000000001,0.36229343047638257
1306893864.38,7.8079518,5.3091748,3063.7468172,0.1,14.5,153.0,2550134.2023392,-478642.9943192,-1.0,327.37548965814733,69813.78003194825,300.03042204681725,0.07883371582934558,3.7348830892030134,89.30000000000001,0.36245143572572636
1306893864.8,7.808273,5.3087295,3075.131332,0.1,19.4,153.0,2550241.0264895996,-478794.14261800004,-1.0,324.47941331761206,71154.96015103812,299.7799801778136,0.08158134226270425,3.7335596346879174,89.00000000000001,0.36258953721304055
1306893865.01,7.8084328,5.3085085,3084.0552168,0.1,20.7,153.0,2550294.1432892,-478869.2082371999,-1.0,323.34878460280765,72050.88029254944,297.65713428220334,0.08311213258520969,3.635581474568566,86.6,0.3627169978429618
1306893865.23,7.8085971,5.3082817,3095.6365819999996,0.1,22.1,153.1,2550348.67085,-478946.1439352,-1.0,317.7639933811761,72247.76955464204,296.94877627727647,0.08267377890727719,3.7138420147131628,86.0,0.36286512776422164
1306893865.65,7.808913,5.3078473,3124.507974,0.1,24.6,153.1,2550453.65773,-479093.5848848,-1.0,320.74249126460705,69964.95371875638,297.4993737558083,0.07901755031966674,3.7856216600701953,83.50000000000001,0.3630771793827693
1306893866.08,7.8092295,5.3074152,3161.8439332000003,0.1,25.7,153.1,2550558.64461,-479240.1071992,-1.0,314.8812249481223,67752.47215850952,298.2259868172156,0.07755752348627054,3.7621901985737116,85.50000000000001,0.363363563897205
1306893866.93,7.8098671,5.3065568,3254.3636211999997,0.1,20.3,153.1,2550769.43858,-479530.9208568,-1.0,320.24749895729815,64364.71211056909,295.7540155906314,0.07726148030700174,3.741130982884656,82.80000000000001,0.3638575599601971
1306893867.36,7.8101985,5.3061173,3303.2809456,0.3,15.2,153.1,2550878.7233604,-479679.6085256,-1.0,325.35763602266064,61645.429098007764,297.98146957157087,0.07721470222464444,3.7327772547389486,83.30000000000001,0.36445804115004843
1306893867.78,7.8105297,5.305682,3347.1457764,0.3,10.9,153.1,2550987.61444,-479826.787008,-1.0,328.3860482865639,60057.77764729523,295.7086795399977,0.07634606471620668,3.7321267247295653,86.80000000000001,0.3651485485866188
1306893867.99,7.8107033,5.3054553,3367.290134,0.3,9.0,153.1,2551044.6354392,-479903.49304719997,-1.0,340.0153170369609,59748.03961169961,294.66782855286493,0.07657028515551452,3.695345360613728,86.4,0.3658676102664088
1306893868.2,7.8108716,5.3052362,3384.7442028,0.4,7.3,153.1,2551099.98321,-479977.50879760005,-1.0,328.3277494956616,62643.2005615764,296.84134420116357,0.07639322645926085,3.5622759617039677,85.80000000000001,0.36661660414217434
1306893868.62,7.8112179,5.3047876,3414.0092956,0.4,4.8,153.1,2551213.5986992,-480128.98518039996,-1.0,334.10284664638874,65356.80271647035,297.6601642319176,0.07414936642120737,3.5617078028912426,88.10000000000001,0.36740731936527155
1306893869.26,7.8117491,5.3041037,3442.8150708,0.4,3.1,153.1,2551387.87692,-480359.8906996,-1.0,332.9145972264628,68945.89929340052,298.9682981154447,0.07132994262719214,3.609707544916524,89.30000000000001,0.3682444256644841
1306893869.68,7.8121063,5.3036457,3453.7074596,0.8,6.6,153.1,2551504.7732492,-480514.45107199997,-1.0,338.3472653301725,71644.95688681217,298.4328738201634,0.07246006659971682,3.546899270408672,90.9,0.36907992435214815
1306893870.12,7.8124702,5.3031797,3462.8281948,0.9,9.7,153.1,2551624.0974,-480671.6689248,-1.0,329.43402294777053,72880.68110719981,299.0536061419479,0.07280038954260733,3.522018759536737,92.2,0.3698693381754202
1306893870.76,7.81301,5.3024893,3478.9043107999996,1.1,10.0,153.1,2551800.8690592,-480904.64137320005,-1.0,335.2771937543138,72159.07564800307,297.2840563320747,0.07288365121775514,3.5861573580759307,89.6,0.3706091456994798
1306893871.18,7.8133723,5.3020263,3491.1090355999995,1.2,8.7,153.1,2551919.373,-481060.8421656,-1.0,342.1476477274027,72502.56090106252,297.5021308763932,0.07068580020036853,3.583234365280184,90.39999999999999,0.37116155164873604
1306893871.6,7.8137277,5.3015728,3502.7232092000004,1.3,8.7,153.1,2552035.6459696,-481213.8277348,-1.0,335.7520079038503,72948.29624056368,295.0563636090223,0.07042459024717959,3.676568766457665,92.3,0.37162691691557775
1306893872.44,7.8144378,5.300668,3523.8846271999996,1.5,7.2,153.1,2552268.1591004003,-481519.04428,-1.0,335.1519274901201,72503.89833563095,295.12792146604096,0.0683572662139822,3.666922648365853,91.39999999999999,0.3720393075542479
1306893872.87,7.8148,5.3002069,3533.2678296000004,1.6,8.1,153.4,2552386.6958496,-481674.5232876,-1.0,333.6106088576277,73874.81959459657,295.17598385052776,0.06762166034964019,3.720785263711778,91.30000000000001,0.3724265888315882
1306893873.29,7.8151573,5.2997522,3542.322948,1.7,8.6,153.4,2552503.5593704004,-481827.90255760006,-1.0,336.624529305572,73910.85267397475,293.6193189182715,0.0689093961194636,3.8131114251990024,89.9,0.3727942725586223
1306893873.93,7.8157043,5.2990562,3556.7258355999998,1.8,8.6,153.4,2552682.3651504,-482062.6466596,-1.0,337.989751243222,73624.59837260272,294.3651560817357,0.07132901595481318,3.8350643151565977,89.20000000000002,0.37312727780796623
1306893874.14,7.8158812,5.2988311,3561.5158619999997,1.8,8.3,153.4,2552740.40321,-482138.56529719994,-1.0,333.8906713975108,73128.8766218978,293.3110419213487,0.07254997657021187,3.7890481557195277,88.00000000000001,0.37340424631190317
1306893874.56,7.8162378,5.2983775,3570.8662560000002,1.9,7.2,153.6,2552857.0698804003,-482291.518058,-1.0,335.89915784162747,72913.43323899417,293.5663881485507,0.07185142469928434,3.71980596379239,88.6,0.37367761682808864
1306893874.78,7.8164261,5.2981381,3575.4266236,1.9,6.7,153.6,2552918.5856304,-482372.2595304,-1.0,338.15109049468305,72342.86064553139,294.4907433183071,0.0745197849346504,3.76183639612053,88.89999999999999,0.37394034648688135
1306893875.42,7.8169736,5.2974417,3586.4502460000003,2.0,6.7,153.7,2553097.6210692,-482607.1676744,-1.0,338.13073514999644,72305.8596207888,296.2389735264947,0.07365179831645033,3.707305361550223,91.3,0.374191286994318
1306893875.64,7.8171588,5.2972061,3589.4358104,2.0,6.8,153.7,2553158.3166092,-482686.6296192,-1.0,333.2825224933137,72633.28658336384,296.78241196416354,0.07556651840784383,3.6784787378341135,91.50000000000001,0.3744207161281761
1306893876.08,7.8175333,5.2967291,3595.3413223999996,2.1,7.8,153.7,2553280.9216,-482847.4892044,-1.0,336.81021895573605,72412.07697615167,298.6096071840344,0.07463134741203302,3.6538480677617438,91.9,0.37463682505206064
1306893876.5,7.8178981,5.2962641,3601.54211,2.1,7.7,153.7,2553400.2785592,-483004.3461648,-1.0,343.3976598673713,72894.87790360152,299.4549192775798,0.07576943397834157,3.643414890130907,90.10000000000002,0.3748180258394622
1306893876.71,7.8180726,5.2960413,3604.6589080000003,2.1,7.4,153.7,2553457.4636004004,-483079.51020920003,-1.0,330.0711799954205,73382.62005458138,299.7812408583896,0.07840727243371992,3.5815108355421943,90.60000000000002,0.37498460501706504
1306893877.36,7.8186286,5.2953311,3614.009302,2.1,6.4,153.7,2553639.35337,-483319.1099544,-1.0,338.9693193801868,71927.51202523184,301.4970313538483,0.07688963970397389,3.541598857007642,91.4,0.3751518731710458
1306893878.0,7.8191685,5.2946402,3621.22715,2.1,5.8,153.7,2553816.3218795997,-483552.180828,-1.0,335.13587733662956,71666.5563088363,300.21180502985135,0.07565652727734701,3.5022372708025142,92.60000000000001,0.37530237623316304
1306893878.21,7.8193524,5.2944046,3623.1628456,2.1,5.7,153.7,2553876.5909104003,-483631.7083896,-1.0,347.3201150589971,71032.25335319711,299.29151415657634,0.0743137692033231,3.5502515256349576,95.60000000000002,0.3754462191902934
1306893878.84,7.8198836,5.293723,3627.3951292,2.1,5.4,153.7,2554050.7050892,-483861.728082,-1.0,335.53922786063856,71517.14673576735,300.25134660144516,0.07340375593922477,3.633576357992459,95.7,0.37557811989020595
1306893880.12,7.8209707,5.2923216,3631.3649456,2.1,5.4,153.7,2554407.2667804,-484334.89082679996,-1.0,338.90246886208257,72944.08244661968,298.3086051295699,0.07025782835190712,3.6161345618105805,94.30000000000003,0.3757086426373625
1306893880.54,7.8213259,5.2918616,3631.9226884,2.1,5.6,154.4,2554523.7366004,-484490.20579239994,-1.0,338.4733802559395,75970.34229228494,297.17293987902417,0.06865412226444895,3.643335486236878,91.4,0.3758147449995672
1306893880.75,7.8215015,5.2916337,3632.1523472,2.1,5.6,154.4,2554581.5778095997,-484567.20710719994,-1.0,335.9971749850755,78244.72909192108,298.6012320247527,0.0680424367581902,3.63969202684986,90.2,0.37591441691557775
1306893881.39,7.8220451,5.2909265,3632.7428984,2.1,5.6,154.4,2554760.1867392,-484806.08506760007,-1.0,341.0857488179756,78630.82331145885,298.79018403325335,0.07041897941418347,3.628502634826211,88.7,0.37600168725678507
1306893882.03,7.8225802,5.2902276,3633.3990664000003,2.1,5.8,154.4,2554936.10538,-485042.30554760003,-1.0,337.11522031727134,78623.62871614358,298.0617787936195,0.07153819675179296,3.605699589440124,89.4,0.3760760201526731
1306893883.5,7.8238073,5.288615,3635.5316123999996,2.0,5.8,154.4,2555340.0752092,-485587.58115559997,-1.0,338.1128147579324,77021.55121522436,296.5240851268104,0.07015467581241387,3.601501503511425,91.10000000000002,0.3761480564606346
1306893883.71,7.8239839,5.2883819,3635.8925048,2.0,5.8,154.9,2555398.3101192,-485666.45254920004,-1.0,341.6807576384094,75738.52054167826,294.90941647609884,0.07162219059842995,3.673701364374117,92.60000000000001,0.37619911726553396
1306893884.56,7.8246895,5.2874477,3637.5001164,2.0,5.8,154.9,2555630.82325,-485982.463058,-1.0,338.08290321691385,75256.36977229545,294.7829867281776,0.07019668633392034,3.617280741874717,92.60000000000001,0.3762370875192522
1306893885.4,7.8253855,5.2865225,3639.2061532000002,2.0,5.8,154.9,2555860.4820499998,-486295.5536192,-1.0,338.55656547097635,76665.11401648964,295.4622722430711,0.07123149852417564,3.5880870230347663,92.00000000000001,0.37627452190245436
1306893886.24,7.8260794,5.2855965,3640.91219,2.0,5.8,154.9,2556089.7471492,-486609.00507280004,-1.0,338.6122089833973,77401.04279183691,295.4496028354758,0.07269742725712405,3.606643839588042,88.30000000000001,0.3763060617099784
1306893886.66,7.8264273,5.2851309,3641.7652084,1.6,5.8,155.3,2556204.7733996,-486766.6494348,-1.0,340.1998480373274,78429.67339411294,296.39805853322287,0.07539231090054715,3.5362666843913244,87.80000000000001,0.3763303289890685
1306893887.09,7.8267806,5.2846574,3642.6182268,1.6,5.8,155.3,2556321.44007,-486926.9840856,-1.0,337.81995497855587,79003.07622970393,295.1154380669033,0.07822064736980065,3.5708098146184315,90.70000000000002,0.3763552852445366
1306893887.94,7.8274782,5.2837198,3644.3242636,1.6,5.8,155.3,2556552.1159304003,-487244.5693976,-1.0,338.26930813034636,78424.11175089961,294.2723590841434,0.07912987652080776,3.5313925215359667,90.3,0.3763836863818944
1306893888.58,7.8280022,5.2830136,3645.5709828000004,1.6,5.8,155.5,2556725.6067496,-487483.8082504,-1.0,338.25181018868733,78264.11152238808,294.165115742494,0.07767511764729212,3.5131772373047823,91.10000000000001,0.3764136185778699
1306893890.06,7.8292155,5.2813722,3648.458122,1.2,5.8,155.5,2557127.3127992,-488040.0090556,-1.0,339.505147179955,77849.71629947139,294.8279867749431,0.07708276245745971,3.6178061561348254,91.0,0.37644875637314557
1306893893.25,7.8318069,5.2778414,3654.691718,0.9,5.8,155.5,2557986.6632204,-489237.1219548,-1.0,338.4121626932967,77310.2710211151,296.5532562791955,0.07612468265199542,3.627795792017021,89.5,0.3764934632847815
1306893894.1,7.8325011,5.2768908,3656.3649464,0.9,5.8,155.5,2558217.1422304003,-489559.56291,-1.0,341.3801993911577,77382.965293897,295.56000392349404,0.07352888880690313,3.5757502336799245,88.69999999999999,0.376541232313653
1306893894.94,7.8331774,5.2759631,3658.0053664,0.9,5.8,156.0,2558441.68292,-489874.26108280005,-1.0,337.25456113299373,77709.92973576562,295.5470004877309,0.07538487060337536,3.596649825540584,87.39999999999999,0.37658907789545526
1306893895.78,7.833856,5.2750305,3659.6457864,0.9,5.8,156.0,2558667.24067,-490190.66529239994,-1.0,338.86355031752794,77895.18762871402,295.72156064530685,0.07720741831317313,3.611582921258958,85.10000000000001,0.3766367703713957
1306893897.92,7.8355789,5.2726562,3663.8452616,0.9,5.8,156.0,2559239.9441004,-490996.2755544,-1.0,338.3927950501322,78111.45401052851,295.6844500363953,0.07583733716935463,3.5977398625277,87.30000000000001,0.3766902808700834
1306893899.18,7.8365918,5.2712565,3666.3058916,0.9,5.8,156.2,2559576.85356,-491471.30837800005,-1.0,338.61767379006653,78448.27129428535,295.39958018261785,0.07659366734383286,3.692620066323383,88.2,0.37674754246238434
1306893899.39,7.8367622,5.2710207,3666.6995924,0.5,5.8,156.2,2559633.44805,-491551.3280656,-1.0,341.7010775227006,78419.69593823006,296.5161370524391,0.07394438468283134,3.5879951530527205,85.7,0.37680373231365294
1306893900.24,7.8374458,5.2700742,3668.3728207999998,0.5,5.8,156.2,2559861.0727292,-491872.6535352,-1.0,339.3478225543272,78950.2719026076,295.73285503051886,0.07177858419261052,3.660156076492499,85.4,0.37685984561199065
1306893901.52,7.8384732,5.2686499,3670.8662592000005,0.4,5.8,156.2,2560203.1002992,-492356.1837344,-1.0,338.9699308702894,79503.06970585369,294.7282307423976,0.07303166074605992,3.673068334533919,84.6,0.37691886792170193
1306893904.27,7.8406766,5.2655905,3676.2468368,0.3,5.8,156.2,2560936.5648895996,-493394.86487,-1.0,338.74874315832744,80054.08037647574,295.5672583223167,0.07095874851747463,3.5599996180712217,86.0,0.37698370825416033
1306893908.1,7.8437461,5.2613211,3683.7599603999997,0.3,5.8,156.2,2561959.1699092,-494844.4712156,-1.0,339.30041581751743,80584.58023014579,296.5247163595738,0.07429836313084706,3.537600224156027,87.5,0.37705153415092335
1306893908.95,7.8444306,5.2603681,3685.4331887999997,0.2,5.8,156.2,2562187.1882892,-495168.09327320004,-1.0,341.04837893499075,80726.7477742962,298.42096638728765,0.07689058459604879,3.592913349709152,84.8,0.37711936004768615
1306893911.07,7.8461223,5.2580111,3689.5670471999997,0.2,5.8,156.5,2562751.0662599998,-495968.4869996,-1.0,338.37828364903646,80283.99021752142,299.42247660900097,0.07472167764035177,3.636092155300638,83.7,0.3771930039671962
1306893914.46,7.8488359,5.2542274,3696.1943439999995,0.2,5.8,156.5,2563655.5610395996,-497253.3951772,-1.0,339.5346754516419,79916.89155900876,298.732600291483,0.0727437018767962,3.668765771874974,86.0,0.37727828393220064
1306893918.5,7.8520678,5.2497186,3704.1011684,0.2,5.8,156.6,2564733.1201292,-498784.62882199994,-1.0,339.49416870847364,79564.69094070501,297.79312890206984,0.0736826834381026,3.719593868948283,85.89999999999999,0.37737221437839485
1306893930.64,7.8617829,5.2361591,3727.85445,0.1,5.8,156.6,2567973.1464795996,-503389.48461239995,-1.0,339.72382544409004,79216.664408722,297.4438837140664,0.07290442230913796,3.585654115881177,86.6,0.37751582767673253
1306893942.08,7.8709484,5.2233575,3750.2625872,0.1,5.8,156.6,2571031.2830604003,-507736.89288800006,-1.0,340.28697525012717,79328.30254739417,297.5639928995752,0.07502870287151406,3.5994952999629777,86.6,0.3777108079916932
1306893951.24,7.8783038,5.2130918,3768.2087819999997,0.1,5.8,156.6,2573485.7778896,-511222.7525796,-1.0,340.8326808982191,79308.91521095461,299.3575789147627,0.0761060143519385,3.5371342455829335,87.39999999999999,0.37794375856037216
1306893954.0,7.8805176,5.2100014,3773.5893596,0.1,5.8,157.0,2574224.5902492,-512272.16206199996,-1.0,340.5413507601099,79359.11534793177,298.53488744170033,0.07479070490512554,3.6002353755645493,89.0,0.3781834457869687
1306893962.06,7.886993,5.2009558,3789.4030084,0.1,5.8,157.1,2576386.6638092,-515343.75008679996,-1.0,341.24700621432874,79387.40699498908,296.3678408632079,0.07749629664815777,3.6686820455484863,87.20000000000002,0.3784474768455864
1306893968.46,7.8921328,5.1937713,3801.9358171999997,0.1,5.8,157.1,2578103.1336804,-517783.41551920003,-1.0,341.2888716871755,79455.48998905922,296.1111631257964,0.0751044173063856,3.7801711521686965,85.4,0.37872322050262935
1306893971.0,7.8941687,5.1909247,3806.8898855999996,0.1,5.8,157.2,2578783.0877704,-518750.0166,-1.0,340.7329274188258,79665.9124093125,296.3531469980188,0.07258793953345882,3.6620784538654245,88.00000000000001,0.37900661945276054
1306893977.81,7.8996468,5.1832636,3820.2429044,0.1,5.8,157.2,2580613.2059392,-521351.5258696,-1.0,341.95620388544626,79762.63574094449,297.1632856229962,0.07523112244953302,3.7218583210958935,88.50000000000001,0.3793115297764701
1306893979.98,7.9013859,5.1808312,3824.4751880000003,0.1,5.8,157.3,2581194.30832,-522177.4773396,-1.0,340.8077738748981,79888.78819567655,298.0814267111629,0.0778618834526403,3.688377996651258,87.50000000000001,0.3796108517362252
1306894006.99,7.9231273,5.1504029,3877.3951371999997,0.1,5.8,157.3,2588462.3859804003,-532509.6627096001,-1.0,342.38232765524924,79955.41016042487,299.2895133923493,0.07733102068418843,3.66383095961092,88.5,0.3800152043171525
1306894017.37,7.9314989,5.1386785,3897.7691535999998,0.1,5.8,157.7,2591262.8125792,-536490.6339655999,-1.0,343.2105196531792,80005.4486437056,298.80710887158807,0.07475397511815145,3.7417707967582423,87.3,0.38041167194619896
1306894036.47,7.9469017,5.1170861,3936.5814907999998,0.1,10.6,157.9,2596418.22613,-543822.2614968,-1.0,343.446177050403,80110.72787146378,298.5973767534075,0.07314703438095253,3.820309075631444,87.3,0.3808464160406871
1306894036.69,7.9470779,5.1168391,3939.140546,0.1,13.5,157.9,2596477.28125,-543906.1197672,-1.0,341.45448134784,80259.8316520447,297.5268903552567,0.07384643573359026,3.8655500201418422,87.6,0.38124525681059085
1306894037.55,7.9477622,5.115885,3968.2087884,0.1,21.6,157.9,2596706.11984,-544229.9386752,-1.0,338.6335531607977,80054.68397100994,298.65610916582864,0.0731358003574681,3.7896403479524934,86.8,0.3816993687965926
1306894037.77,7.9479363,5.115644,3981.29934,0.3,22.9,157.9,2596764.35475,-544311.6643996,-1.0,336.92152124860735,79565.00141511307,300.74282898671913,0.07101894690255514,3.7763776436174123,89.10000000000001,0.38214712688933106
1306894038.2,7.9482764,5.1151764,4013.3859552,0.4,25.2,157.9,2596877.7405804,-544470.2273968,-1.0,336.4132264938253,78087.90784307198,298.5084191032132,0.07287079275681653,3.7511378856928697,88.3,0.3826405105288761
1306894039.04,7.9489386,5.1142778,4098.064435599999,0.7,26.6,157.9,2597097.9833696,-544774.5581152,-1.0,335.46261198658476,75954.23867353846,297.49913587652304,0.07391952635761909,3.7640871302366934,88.2,0.38331991779046837
1306894039.48,7.9492872,5.113811,4151.5093192,0.8,26.2,157.9,2597213.6329795998,-544932.4977528,-1.0,337.0619184110494,73393.26865849031,297.2978664334474,0.07180086421295516,3.705973702065531,90.30000000000001,0.3840928727336005
1306894039.69,7.9494579,5.1135839,4179.1011836,0.8,25.8,158.1,2597270.2274696,-545009.3022171999,-1.0,344.95961414429433,70587.52046859574,297.0979204369534,0.06840965848567078,3.6757700519246628,88.9,0.3849203333635217
1306894039.9,7.9496208,5.1133681,4206.0696884,0.9,24.8,158.1,2597324.1644792,-545082.2352904,-1.0,329.718457473419,69226.46022722533,296.1618204623633,0.06899011117935057,3.651287111600906,88.29999999999998,0.38568724062511406
1306894040.11,7.9497911,5.1131432,4234.547379600001,0.9,23.3,158.1,2597380.5293104,-545158.2523532,-1.0,343.29387633058053,66498.6189835173,295.57271123471116,0.07165694192217371,3.657574219378389,88.5,0.3864730564606347
1306894040.32,7.9499618,5.1129184,4262.9922624,0.9,21.0,158.1,2597436.9269499998,-545234.2366076,-1.0,343.24075356467114,66098.8200727084,295.6561841129593,0.07228872276726013,3.598419072800028,91.5,0.38723468156999585
1306894040.75,7.9503151,5.1124552,4319.4555187999995,0.9,16.3,158.1,2597553.5936204,-545390.6342504,-1.0,344.5567091904736,66417.89659582922,297.0133101988483,0.07266734246290145,3.515459617803725,93.5,0.388122083144799
1306894042.05,7.9514257,5.1110108,4450.2626096,0.9,4.9,158.1,2597920.2274904,-545878.2654996,-1.0,350.07492063156036,66680.71545254832,296.4630040312028,0.0734493852674059,3.5621408961706624,94.3,0.3892468753582723
1306894042.48,7.9517986,5.1105283,4474.8361012000005,0.9,3.1,158.1,2598043.06214,-546041.027972,-1.0,348.809975093607,68690.1391376829,295.5199257331974,0.0744202511554915,3.6139977445721554,90.8,0.3903984610975549
1306894042.69,7.9519847,5.1102877,4483.759986,1.0,2.6,158.0,2598104.3810396,-546122.228762,-1.0,354.8468523595009,72125.71822893173,298.23815774889283,0.07445525100333143,3.523572559645143,92.8,0.39149600046763366
1306894042.9,7.9521732,5.1100442,4490.813792,1.0,2.3,158.0,2598166.5201492,-546204.3809956,-1.0,358.458885420076,75402.28611922145,298.0422666924729,0.07612608655527006,3.574735400411096,90.6,0.39241241560324175
1306894043.33,7.9525467,5.1095616,4499.7376767999995,1.1,2.9,158.0,2598289.5516492,-546367.2090848,-1.0,347.18289381621213,79543.00934030909,297.225467687537,0.07697900015204022,3.5856811241933375,89.8,0.39322494841164074
1306894043.96,7.9531118,5.1088312,4505.9384644,1.3,8.3,158.0,2598475.7393192,-546613.6329772,-1.0,357.61459435094577,83477.7997429252,298.32603928641174,0.07996423277881975,3.679669957469116,92.30000000000001,0.39398756870910356
1306894044.17,7.9532936,5.1085958,4508.0053935999995,1.3,10.6,158.0,2598535.8114996,-546693.0293052,-1.0,346.60770980333353,85089.99060892318,299.4092471325254,0.07863319251106522,3.6375274257717796,93.60000000000001,0.3946920853320256
1306894044.38,7.9534813,5.1083529,4511.0237664,1.4,12.2,158.0,2598597.7209504,-546775.0174967999,-1.0,356.99181226891716,84956.40240914855,299.7746705294754,0.07702321989198455,3.605587992939988,93.80000000000001,0.3953371968805821
1306894044.59,7.9536659,5.1081138,4515.0591996,1.4,12.9,158.2,2598658.4164904,-546855.6933524,-1.0,351.33904209506403,84180.35938003639,299.9729908060493,0.07567447693067245,3.631295940726418,94.20000000000002,0.39592535304856113
1306894046.08,7.9549676,5.106426,4560.7941092,1.4,7.6,158.4,2599087.8128295997,-547425.2799848,-1.0,350.33558076599803,82470.79017061555,300.137268420839,0.07501510031138019,3.631513209949521,94.70000000000002,0.39648847640814117
1306894046.29,7.9551501,5.106189,4566.7980464,1.4,7.0,158.4,2599148.0818604003,-547505.2340556,-1.0,348.92883440236426,80833.89523882541,301.54487296230525,0.07410572064774049,3.6304503138532915,94.00000000000003,0.3967603924186398
1306894047.58,7.9562875,5.1047109,4591.207496,1.8,5.0,158.4,2599523.3443396,-548004.1513944,-1.0,353.50818405055657,79875.3277120358,301.0811302880801,0.0734220231153027,3.5964857545837265,94.3,0.39703192566448414
1306894047.8,7.9564789,5.1044619,4593.2744252,1.8,4.9,158.4,2599586.5005095997,-548088.2065152,-1.0,349.2114918856393,80042.09418890932,298.6092003001988,0.07290442445721634,3.6948736165489264,93.6,0.3972874593477737
1306894049.53,7.9580031,5.1024736,4597.5723256,1.8,5.4,158.4,2600089.6829404,-548759.4991876001,-1.0,353.96268379923725,79442.95098339398,298.16087429545155,0.07373168122160967,3.632030843351913,95.3,0.39753656258486914
1306894049.95,7.9583776,5.1019827,4597.1786248,1.8,5.5,158.4,2600213.5346504003,-548925.3456496,-1.0,359.34998529521675,78945.84279252483,296.3956161770783,0.07595043008519893,3.688903392158799,95.8,0.39776392478959344
1306894050.16,7.9585537,5.1017515,4596.948966,1.8,5.6,158.8,2600271.7695604004,-549003.3968332,-1.0,339.51126460208815,80157.61520183839,294.52837470602276,0.07637944224204894,3.626884932040827,92.79999999999998,0.39797628261986473
1306894050.37,7.9587374,5.10151,4596.752115599999,1.8,5.7,158.8,2600332.4651004,-549085.0241323999,-1.0,353.60313485256677,77203.5298505929,293.69394048804827,0.07775376968989868,3.6968711459826937,92.79999999999998,0.39818335829790485
1306894051.21,7.959474,5.1005386,4596.2599896,1.8,5.9,158.8,2600576.2971292,-549413.2721744,-1.0,355.2462018869727,78053.07112946156,293.53932164353023,0.07661763606250523,3.735028515007556,91.89999999999998,0.39838224281234064
1306894051.85,7.9600344,5.0997987,4597.5723256,-17.9,9.2,158.6,2600761.8614395997,-549663.3377992,-1.0,355.0928908372498,78882.19742037919,292.53572641592,0.07702390723959426,3.717948757822487,89.9,0.39857477343351294
1306894052.48,7.9606081,5.0990721,4603.7074964,-34.6,10.4,156.7,2600950.0832304,-549908.0556548,-1.0,357.425068292837,78928.68316029377,290.862047629236,0.07551482206473899,3.7477695672164795,89.80000000000001,0.39867490466710875
1306894052.69,7.9608021,5.0988384,4606.5946355999995,-33.4,10.5,156.0,2601013.2394004003,-549986.3693056,-1.0,349.8583357246846,80697.88231439752,288.6398736485837,0.07801832827768479,3.6601538491673624,90.4,0.39876776337227066
1306894053.33,7.9614397,5.0981068,4618.1431924,-31.3,10.1,154.0,2601218.91526,-550230.6934604,-1.0,363.37934452463753,81128.06781670844,289.67592818378995,0.07782130391635528,3.588979418919782,90.39999999999999,0.39883061332852604
1306894053.98,7.9621286,5.0973632,4633.038206,-24.9,9.6,152.3,2601439.1580492,-550477.543862,-1.0,370.0541032849083,78962.80583841118,289.51816994935126,0.07723518100619732,3.529472120975186,90.49999999999999,0.39892339548075706
1306894054.2,7.9623755,5.0971051,4638.8124844,-21.6,9.4,151.9,2601517.4717,-550562.9441271999,-1.0,382.1208707356766,76413.7232244306,290.79152209385165,0.07463746794456651,3.6518806319406223,89.0,0.3990196225148777
1306894054.83,7.9630866,5.096376,4656.3649784,-13.9,8.8,151.1,2601742.8325996,-550803.7249748,-1.0,379.9031816140096,75369.85617846638,293.57021210969026,0.07461361789240174,3.5279031874485187,86.5,0.3991577240021919
1306894055.47,7.9638507,5.0956058,4676.2140604,-6.8,8.3,150.6,2601984.17119,-551057.5635656,-1.0,396.14338443049405,73955.94220534162,294.56740685529195,0.07328449946001887,3.457676789976104,89.60000000000001,0.39934267588320665
1306894055.68,7.9640976,5.0953582,4682.775740399999,-4.6,8.2,150.5,2602062.09114,-551139.1908648,-1.0,389.39295058235876,78034.32129398429,294.17763568015863,0.07097888074336157,3.3606275530721574,88.30000000000001,0.3995433976679836
1306894056.1,7.964609,5.0948455,4696.4568432,-1.3,8.0,150.4,2602223.67251,-551308.0556996,-1.0,402.433379172733,82132.61097701294,294.58000571468506,0.07363184574250377,3.3882954781374797,89.8,0.3997771903189023
